$GPRMC,075840.00,A,2753.1521911,N,11251.2196037,E,0.00,0.00,050620,0.0,E,D*3C
$GPGGA,075840.00,2753.1521911,N,11251.2196037,E,4,24,1.0,101.537,M,-16.632,M,0.0,*61
$GPRMC,075841.00,A,2753.1524767,N,11251.2197641,E,0.01,0.00,050620,0.0,E,D*30
$GPGGA,075841.00,2753.1524767,N,11251.2197641,E,5,24,1.0,100.790,M,-16.632,M,0.0,*63
$GPRMC,075842.00,A,2753.1524580,N,11251.2197358,E,0.01,0.00,050620,0.0,E,D*35
$GPGGA,075842.00,2753.1524580,N,11251.2197358,E,5,24,1.0,101.029,M,-16.632,M,0.0,*62
$GPRMC,075843.00,A,2753.1524606,N,11251.2197041,E,0.03,0.00,050620,0.0,E,D*30
$GPGGA,075843.00,2753.1524606,N,11251.2197041,E,5,24,1.0,100.930,M,-16.632,M,0.0,*65
$GPRMC,075844.00,A,2753.1524683,N,11251.2197130,E,0.02,0.00,050620,0.0,E,D*3C
$GPGGA,075844.00,2753.1524683,N,11251.2197130,E,5,24,1.0,101.033,M,-16.632,M,0.0,*63
$GPRMC,075845.00,A,2753.1521897,N,11251.2196037,E,0.04,0.00,050620,0.0,E,D*32
$GPGGA,075845.00,2753.1521897,N,11251.2196037,E,4,24,1.0,101.540,M,-16.632,M,0.0,*6B
$GPRMC,075846.00,A,2753.1524304,N,11251.2196511,E,0.02,0.00,050620,0.0,E,D*32
$GPGGA,075846.00,2753.1524304,N,11251.2196511,E,5,24,1.0,100.779,M,-16.632,M,0.0,*65
$GPRMC,075847.00,A,2753.1524401,N,11251.2196816,E,0.03,0.00,050620,0.0,E,D*3A
$GPGGA,075847.00,2753.1524401,N,11251.2196816,E,5,24,1.0,100.984,M,-16.632,M,0.0,*60
$GPRMC,075848.00,A,2753.1524744,N,11251.2196267,E,0.03,0.00,050620,0.0,E,D*3B
$GPGGA,075848.00,2753.1524744,N,11251.2196267,E,5,24,1.0,101.262,M,-16.632,M,0.0,*63
$GPRMC,075849.00,A,2753.1521891,N,11251.2196034,E,0.03,0.00,050620,0.0,E,D*3C
$GPGGA,075849.00,2753.1521891,N,11251.2196034,E,4,24,1.0,101.541,M,-16.632,M,0.0,*63
$GPRMC,075850.00,A,2753.1521898,N,11251.2196035,E,0.02,0.00,050620,0.0,E,D*3D
$GPGGA,075850.00,2753.1521898,N,11251.2196035,E,4,24,1.0,101.542,M,-16.632,M,0.0,*60
$GPRMC,075851.00,A,2753.1521895,N,11251.2196023,E,0.04,0.00,050620,0.0,E,D*30
$GPGGA,075851.00,2753.1521895,N,11251.2196023,E,4,24,1.0,101.542,M,-16.632,M,0.0,*6B
$GPRMC,075852.00,A,2753.1521902,N,11251.2196019,E,0.02,0.00,050620,0.0,E,D*33
$GPGGA,075852.00,2753.1521902,N,11251.2196019,E,4,24,1.0,101.538,M,-16.632,M,0.0,*63
$GPRMC,075853.00,A,2753.1521900,N,11251.2196045,E,0.03,0.00,050620,0.0,E,D*38
$GPGGA,075853.00,2753.1521900,N,11251.2196045,E,4,24,1.0,101.537,M,-16.632,M,0.0,*66
$GPRMC,075854.00,A,2753.1524901,N,11251.2196696,E,0.03,0.00,050620,0.0,E,D*33
$GPGGA,075854.00,2753.1524901,N,11251.2196696,E,5,24,1.0,101.317,M,-16.632,M,0.0,*68
$GPRMC,075855.00,A,2753.1521895,N,11251.2196027,E,0.01,0.00,050620,0.0,E,D*35
$GPGGA,075855.00,2753.1521895,N,11251.2196027,E,4,24,1.0,101.533,M,-16.632,M,0.0,*6D
$GPRMC,075856.00,A,2753.1524963,N,11251.2197381,E,0.02,0.00,050620,0.0,E,D*36
$GPGGA,075856.00,2753.1524963,N,11251.2197381,E,5,24,1.0,101.508,M,-16.632,M,0.0,*64
$GPRMC,075857.00,A,2753.1521915,N,11251.2196031,E,0.02,0.00,050620,0.0,E,D*3A
$GPGGA,075857.00,2753.1521915,N,11251.2196031,E,4,24,1.0,101.535,M,-16.632,M,0.0,*67
$GPRMC,075858.00,A,2753.1521903,N,11251.2196043,E,0.01,0.00,050620,0.0,E,D*34
$GPGGA,075858.00,2753.1521903,N,11251.2196043,E,4,24,1.0,101.535,M,-16.632,M,0.0,*6A
$GPRMC,075859.00,A,2753.1521890,N,11251.2196038,E,0.03,0.00,050620,0.0,E,D*30
$GPGGA,075859.00,2753.1521890,N,11251.2196038,E,4,24,1.0,101.544,M,-16.632,M,0.0,*6A
$GPRMC,075900.00,A,2753.1521913,N,11251.2196045,E,0.01,0.00,050620,0.0,E,D*3F
$GPGGA,075900.00,2753.1521913,N,11251.2196045,E,4,24,1.0,101.534,M,-16.632,M,0.0,*60
$GPRMC,075901.00,A,2753.1521916,N,11251.2196038,E,0.03,0.00,050620,0.0,E,D*33
$GPGGA,075901.00,2753.1521916,N,11251.2196038,E,4,24,1.0,101.536,M,-16.632,M,0.0,*6C
$GPRMC,075902.00,A,2753.1521905,N,11251.2196037,E,0.02,0.00,050620,0.0,E,D*3C
$GPGGA,075902.00,2753.1521905,N,11251.2196037,E,4,24,1.0,101.537,M,-16.632,M,0.0,*63
$GPRMC,075903.00,A,2753.1521910,N,11251.2196032,E,0.01,0.00,050620,0.0,E,D*3F
$GPGGA,075903.00,2753.1521910,N,11251.2196032,E,4,24,1.0,101.538,M,-16.632,M,0.0,*6C
$GPRMC,075904.00,A,2753.1521909,N,11251.2196038,E,0.01,0.00,050620,0.0,E,D*3A
$GPGGA,075904.00,2753.1521909,N,11251.2196038,E,4,24,1.0,101.533,M,-16.632,M,0.0,*62
$GPRMC,075905.00,A,2753.1521922,N,11251.2196031,E,0.02,0.00,050620,0.0,E,D*38
$GPGGA,075905.00,2753.1521922,N,11251.2196031,E,4,24,1.0,101.537,M,-16.632,M,0.0,*67
$GPRMC,075906.00,A,2753.1521921,N,11251.2196045,E,0.01,0.00,050620,0.0,E,D*38
$GPGGA,075906.00,2753.1521921,N,11251.2196045,E,4,24,1.0,101.534,M,-16.632,M,0.0,*67
$GPRMC,075907.00,A,2753.1521911,N,11251.2196050,E,0.02,0.00,050620,0.0,E,D*3D
$GPGGA,075907.00,2753.1521911,N,11251.2196050,E,4,24,1.0,101.535,M,-16.632,M,0.0,*60
$GPRMC,075908.00,A,2753.1521903,N,11251.2196038,E,0.02,0.00,050620,0.0,E,D*3F
$GPGGA,075908.00,2753.1521903,N,11251.2196038,E,4,24,1.0,101.538,M,-16.632,M,0.0,*6F
$GPRMC,075909.00,A,2753.1521925,N,11251.2196046,E,0.02,0.00,050620,0.0,E,D*33
$GPGGA,075909.00,2753.1521925,N,11251.2196046,E,4,24,1.0,101.533,M,-16.632,M,0.0,*68
$GPRMC,075910.00,A,2753.1521899,N,11251.2196042,E,0.01,0.00,050620,0.0,E,D*3A
$GPGGA,075910.00,2753.1521899,N,11251.2196042,E,4,24,1.0,101.534,M,-16.632,M,0.0,*65
$GPRMC,075911.00,A,2753.1521906,N,11251.2196048,E,0.02,0.00,050620,0.0,E,D*35
$GPGGA,075911.00,2753.1521906,N,11251.2196048,E,4,24,1.0,101.539,M,-16.632,M,0.0,*64
$GPRMC,075912.00,A,2753.1521906,N,11251.2196054,E,0.02,0.00,050620,0.0,E,D*3B
$GPGGA,075912.00,2753.1521906,N,11251.2196054,E,4,24,1.0,101.535,M,-16.632,M,0.0,*66
$GPRMC,075913.00,A,2753.1521901,N,11251.2196044,E,0.01,0.00,050620,0.0,E,D*3F
$GPGGA,075913.00,2753.1521901,N,11251.2196044,E,4,24,1.0,101.536,M,-16.632,M,0.0,*62
$GPRMC,075914.00,A,2753.1521906,N,11251.2196050,E,0.01,0.00,050620,0.0,E,D*3A
$GPGGA,075914.00,2753.1521906,N,11251.2196050,E,4,24,1.0,101.535,M,-16.632,M,0.0,*64
$GPRMC,075915.00,A,2753.1521897,N,11251.2196036,E,0.03,0.00,050620,0.0,E,D*30
$GPGGA,075915.00,2753.1521897,N,11251.2196036,E,4,24,1.0,101.536,M,-16.632,M,0.0,*6F
$GPRMC,075916.00,A,2753.1523013,N,11251.2197149,E,0.01,0.00,050620,0.0,E,D*3F
$GPGGA,075916.00,2753.1523013,N,11251.2197149,E,5,24,1.0,102.187,M,-16.632,M,0.0,*6E
$GPRMC,075917.00,A,2753.1523738,N,11251.2197178,E,0.02,0.00,050620,0.0,E,D*31
$GPGGA,075917.00,2753.1523738,N,11251.2197178,E,5,24,1.0,102.316,M,-16.632,M,0.0,*69
$GPRMC,075918.00,A,2753.1523316,N,11251.2196798,E,0.01,0.00,050620,0.0,E,D*3C
$GPGGA,075918.00,2753.1523316,N,11251.2196798,E,5,24,1.0,102.393,M,-16.632,M,0.0,*6A
$GPRMC,075919.00,A,2753.1524092,N,11251.2197170,E,0.03,0.00,050620,0.0,E,D*36
$GPGGA,075919.00,2753.1524092,N,11251.2197170,E,5,24,1.0,102.371,M,-16.632,M,0.0,*6E
$GPRMC,075920.00,A,2753.1524595,N,11251.2197071,E,0.01,0.00,050620,0.0,E,D*3C
$GPGGA,075920.00,2753.1524595,N,11251.2197071,E,5,24,1.0,102.286,M,-16.632,M,0.0,*6F
$GPRMC,075921.00,A,2753.1524351,N,11251.2197083,E,0.00,0.00,050620,0.0,E,D*3F
$GPGGA,075921.00,2753.1524351,N,11251.2197083,E,5,24,1.0,102.248,M,-16.632,M,0.0,*6F
$GPRMC,075922.00,A,2753.1524422,N,11251.2196752,E,0.02,0.00,050620,0.0,E,D*37
$GPGGA,075922.00,2753.1524422,N,11251.2196752,E,5,24,1.0,102.097,M,-16.632,M,0.0,*65
$GPRMC,075923.00,A,2753.1521897,N,11251.2196029,E,0.02,0.00,050620,0.0,E,D*3A
$GPGGA,075923.00,2753.1521897,N,11251.2196029,E,4,24,1.0,101.540,M,-16.632,M,0.0,*65
$GPRMC,075924.00,A,2753.1521892,N,11251.2196050,E,0.02,0.00,050620,0.0,E,D*36
$GPGGA,075924.00,2753.1521892,N,11251.2196050,E,4,24,1.0,101.537,M,-16.632,M,0.0,*69
$GPRMC,075925.00,A,2753.1521902,N,11251.2196048,E,0.03,0.00,050620,0.0,E,D*37
$GPGGA,075925.00,2753.1521902,N,11251.2196048,E,4,24,1.0,101.537,M,-16.632,M,0.0,*69
$GPRMC,075926.00,A,2753.1521916,N,11251.2196036,E,0.04,0.00,050620,0.0,E,D*3F
$GPGGA,075926.00,2753.1521916,N,11251.2196036,E,4,24,1.0,101.534,M,-16.632,M,0.0,*65
$GPRMC,075927.00,A,2753.1521900,N,11251.2196039,E,0.02,0.00,050620,0.0,E,D*30
$GPGGA,075927.00,2753.1521900,N,11251.2196039,E,4,24,1.0,101.532,M,-16.632,M,0.0,*6A
$GPRMC,075928.00,A,2753.1521907,N,11251.2196054,E,0.02,0.00,050620,0.0,E,D*33
$GPGGA,075928.00,2753.1521907,N,11251.2196054,E,4,24,1.0,101.533,M,-16.632,M,0.0,*68
$GPRMC,075929.00,A,2753.1521895,N,11251.2196036,E,0.03,0.00,050620,0.0,E,D*3D
$GPGGA,075929.00,2753.1521895,N,11251.2196036,E,4,24,1.0,101.538,M,-16.632,M,0.0,*6C
$GPRMC,075930.00,A,2753.1521891,N,11251.2196044,E,0.04,0.00,050620,0.0,E,D*33
$GPGGA,075930.00,2753.1521891,N,11251.2196044,E,4,24,1.0,101.540,M,-16.632,M,0.0,*6A
$GPRMC,075931.00,A,2753.1521891,N,11251.2196042,E,0.03,0.00,050620,0.0,E,D*33
$GPGGA,075931.00,2753.1521891,N,11251.2196042,E,4,24,1.0,101.531,M,-16.632,M,0.0,*6B
$GPRMC,075932.00,A,2753.1521897,N,11251.2196046,E,0.01,0.00,050620,0.0,E,D*30
$GPGGA,075932.00,2753.1521897,N,11251.2196046,E,4,24,1.0,101.537,M,-16.632,M,0.0,*6C
$GPRMC,075933.00,A,2753.1521902,N,11251.2196048,E,0.02,0.00,050620,0.0,E,D*31
$GPGGA,075933.00,2753.1521902,N,11251.2196048,E,4,24,1.0,101.534,M,-16.632,M,0.0,*6D
$GPRMC,075934.00,A,2753.1521908,N,11251.2196050,E,0.02,0.00,050620,0.0,E,D*35
$GPGGA,075934.00,2753.1521908,N,11251.2196050,E,4,24,1.0,101.534,M,-16.632,M,0.0,*69
$GPRMC,075935.00,A,2753.1521883,N,11251.2196049,E,0.02,0.00,050620,0.0,E,D*3E
$GPGGA,075935.00,2753.1521883,N,11251.2196049,E,4,24,1.0,101.538,M,-16.632,M,0.0,*6E
$GPRMC,075936.00,A,2753.1522770,N,11251.2195660,E,0.02,0.00,050620,0.0,E,D*33
$GPGGA,075936.00,2753.1522770,N,11251.2195660,E,5,24,1.0,102.451,M,-16.632,M,0.0,*6F
$GPRMC,075937.00,A,2753.1521909,N,11251.2196041,E,0.03,0.00,050620,0.0,E,D*36
$GPGGA,075937.00,2753.1521909,N,11251.2196041,E,4,24,1.0,101.529,M,-16.632,M,0.0,*67
$GPRMC,075938.00,A,2753.1521902,N,11251.2196058,E,0.03,0.00,050620,0.0,E,D*3A
$GPGGA,075938.00,2753.1521902,N,11251.2196058,E,4,24,1.0,101.537,M,-16.632,M,0.0,*64
$GPRMC,075939.00,A,2753.1521904,N,11251.2196067,E,0.02,0.00,050620,0.0,E,D*30
$GPGGA,075939.00,2753.1521904,N,11251.2196067,E,4,24,1.0,101.532,M,-16.632,M,0.0,*6A
$GPRMC,075940.00,A,2753.1521916,N,11251.2196051,E,0.02,0.00,050620,0.0,E,D*38
$GPGGA,075940.00,2753.1521916,N,11251.2196051,E,4,24,1.0,101.532,M,-16.632,M,0.0,*62
$GPRMC,075941.00,A,2753.1521890,N,11251.2196045,E,0.03,0.00,050620,0.0,E,D*32
$GPGGA,075941.00,2753.1521890,N,11251.2196045,E,4,24,1.0,101.531,M,-16.632,M,0.0,*6A
$GPRMC,075942.00,A,2753.1521899,N,11251.2196050,E,0.03,0.00,050620,0.0,E,D*3C
$GPGGA,075942.00,2753.1521899,N,11251.2196050,E,4,24,1.0,101.533,M,-16.632,M,0.0,*66
$GPRMC,075943.00,A,2753.1521909,N,11251.2196051,E,0.02,0.00,050620,0.0,E,D*35
$GPGGA,075943.00,2753.1521909,N,11251.2196051,E,4,24,1.0,101.531,M,-16.632,M,0.0,*6C
$GPRMC,075944.00,A,2753.1521897,N,11251.2196061,E,0.03,0.00,050620,0.0,E,D*36
$GPGGA,075944.00,2753.1521897,N,11251.2196061,E,4,24,1.0,101.537,M,-16.632,M,0.0,*68
$GPRMC,075945.00,A,2753.1521893,N,11251.2196048,E,0.05,0.00,050620,0.0,E,D*3E
$GPGGA,075945.00,2753.1521893,N,11251.2196048,E,4,24,1.0,101.536,M,-16.632,M,0.0,*67
$GPRMC,075946.00,A,2753.1521886,N,11251.2196050,E,0.02,0.00,050620,0.0,E,D*37
$GPGGA,075946.00,2753.1521886,N,11251.2196050,E,4,24,1.0,101.531,M,-16.632,M,0.0,*6E
$GPRMC,075947.00,A,2753.1521904,N,11251.2196051,E,0.01,0.00,050620,0.0,E,D*3F
$GPGGA,075947.00,2753.1521904,N,11251.2196051,E,4,24,1.0,101.534,M,-16.632,M,0.0,*60
$GPRMC,075948.00,A,2753.1521901,N,11251.2196047,E,0.02,0.00,050620,0.0,E,D*31
$GPGGA,075948.00,2753.1521901,N,11251.2196047,E,4,24,1.0,101.535,M,-16.632,M,0.0,*6C
$GPRMC,075949.00,A,2753.1521894,N,11251.2196057,E,0.03,0.00,050620,0.0,E,D*3D
$GPGGA,075949.00,2753.1521894,N,11251.2196057,E,4,24,1.0,101.532,M,-16.632,M,0.0,*66
$GPRMC,075950.00,A,2753.1521900,N,11251.2196052,E,0.02,0.00,050620,0.0,E,D*3D
$GPGGA,075950.00,2753.1521900,N,11251.2196052,E,4,24,1.0,101.533,M,-16.632,M,0.0,*66
$GPRMC,075951.00,A,2753.1522917,N,11251.2198243,E,0.02,0.00,050620,0.0,E,D*35
$GPGGA,075951.00,2753.1522917,N,11251.2198243,E,5,23,1.0,102.603,M,-16.632,M,0.0,*6B
$GPRMC,075952.00,A,2753.1521898,N,11251.2196046,E,0.02,0.00,050620,0.0,E,D*3A
$GPGGA,075952.00,2753.1521898,N,11251.2196046,E,4,24,1.0,101.531,M,-16.632,M,0.0,*63
$GPRMC,075953.00,A,2753.1521905,N,11251.2196049,E,0.02,0.00,050620,0.0,E,D*31
$GPGGA,075953.00,2753.1521905,N,11251.2196049,E,4,24,1.0,101.535,M,-16.632,M,0.0,*6C
$GPRMC,075954.00,A,2753.1521880,N,11251.2196048,E,0.03,0.00,050620,0.0,E,D*3A
$GPGGA,075954.00,2753.1521880,N,11251.2196048,E,4,24,1.0,101.538,M,-16.632,M,0.0,*6B
$GPRMC,075955.00,A,2753.1521903,N,11251.2196060,E,0.02,0.00,050620,0.0,E,D*3A
$GPGGA,075955.00,2753.1521903,N,11251.2196060,E,4,24,1.0,101.530,M,-16.632,M,0.0,*62
$GPRMC,075956.00,A,2753.1521898,N,11251.2196045,E,0.02,0.00,050620,0.0,E,D*3D
$GPGGA,075956.00,2753.1521898,N,11251.2196045,E,4,24,1.0,101.530,M,-16.632,M,0.0,*65
$GPRMC,075957.00,A,2753.1521910,N,11251.2196058,E,0.02,0.00,050620,0.0,E,D*31
$GPGGA,075957.00,2753.1521910,N,11251.2196058,E,4,24,1.0,101.533,M,-16.632,M,0.0,*6A
$GPRMC,075958.00,A,2753.1521905,N,11251.2196052,E,0.03,0.00,050620,0.0,E,D*31
$GPGGA,075958.00,2753.1521905,N,11251.2196052,E,4,24,1.0,101.533,M,-16.632,M,0.0,*6B
$GPRMC,075959.00,A,2753.1521887,N,11251.2196050,E,0.02,0.00,050620,0.0,E,D*38
$GPGGA,075959.00,2753.1521887,N,11251.2196050,E,4,24,1.0,101.535,M,-16.632,M,0.0,*65
$GPRMC,080000.00,A,2753.1521893,N,11251.2196056,E,0.02,0.00,050620,0.0,E,D*34
$GPGGA,080000.00,2753.1521893,N,11251.2196056,E,4,24,1.0,101.536,M,-16.632,M,0.0,*6A
$GPRMC,080001.00,A,2753.1521908,N,11251.2196058,E,0.03,0.00,050620,0.0,E,D*39
$GPGGA,080001.00,2753.1521908,N,11251.2196058,E,4,24,1.0,101.534,M,-16.632,M,0.0,*64
$GPRMC,080002.00,A,2753.1521896,N,11251.2196061,E,0.01,0.00,050620,0.0,E,D*34
$GPGGA,080002.00,2753.1521896,N,11251.2196061,E,4,24,1.0,101.533,M,-16.632,M,0.0,*6C
$GPRMC,080003.00,A,2753.1521908,N,11251.2196065,E,0.02,0.00,050620,0.0,E,D*34
$GPGGA,080003.00,2753.1521908,N,11251.2196065,E,4,24,1.0,101.534,M,-16.632,M,0.0,*68
$GPRMC,080004.00,A,2753.1519675,N,11251.2197168,E,0.02,0.00,050620,0.0,E,D*30
$GPGGA,080004.00,2753.1519675,N,11251.2197168,E,5,24,1.0,101.670,M,-16.632,M,0.0,*6E
$GPRMC,080005.00,A,2753.1521896,N,11251.2196045,E,0.01,0.00,050620,0.0,E,D*35
$GPGGA,080005.00,2753.1521896,N,11251.2196045,E,4,24,1.0,101.533,M,-16.632,M,0.0,*6D
$GPRMC,080006.00,A,2753.1521904,N,11251.2196057,E,0.02,0.00,050620,0.0,E,D*3C
$GPGGA,080006.00,2753.1521904,N,11251.2196057,E,4,24,1.0,101.530,M,-16.632,M,0.0,*64
$GPRMC,080007.00,A,2753.1521905,N,11251.2196063,E,0.01,0.00,050620,0.0,E,D*38
$GPGGA,080007.00,2753.1521905,N,11251.2196063,E,4,24,1.0,101.530,M,-16.632,M,0.0,*63
$GPRMC,080008.00,A,2753.1521907,N,11251.2196055,E,0.02,0.00,050620,0.0,E,D*33
$GPGGA,080008.00,2753.1521907,N,11251.2196055,E,4,24,1.0,101.533,M,-16.632,M,0.0,*68
$GPRMC,080009.00,A,2753.1521901,N,11251.2196046,E,0.01,0.00,050620,0.0,E,D*35
$GPGGA,080009.00,2753.1521901,N,11251.2196046,E,4,24,1.0,101.534,M,-16.632,M,0.0,*6A
$GPRMC,080010.00,A,2753.1521490,N,11251.2194139,E,0.04,0.00,050620,0.0,E,D*36
$GPGGA,080010.00,2753.1521490,N,11251.2194139,E,5,24,1.0,100.509,M,-16.632,M,0.0,*62
$GPRMC,080011.00,A,2753.1521139,N,11251.2193723,E,0.01,0.00,050620,0.0,E,D*3E
$GPGGA,080011.00,2753.1521139,N,11251.2193723,E,5,24,1.0,100.389,M,-16.632,M,0.0,*61
$GPRMC,080012.00,A,2753.1521909,N,11251.2196057,E,0.01,0.00,050620,0.0,E,D*37
$GPGGA,080012.00,2753.1521909,N,11251.2196057,E,4,24,1.0,101.527,M,-16.632,M,0.0,*6A
$GPRMC,080013.00,A,2753.1521912,N,11251.2196060,E,0.02,0.00,050620,0.0,E,D*3B
$GPGGA,080013.00,2753.1521912,N,11251.2196060,E,4,24,1.0,101.524,M,-16.632,M,0.0,*66
$GPRMC,080014.00,A,2753.1521916,N,11251.2196043,E,0.02,0.00,050620,0.0,E,D*39
$GPGGA,080014.00,2753.1521916,N,11251.2196043,E,4,24,1.0,101.527,M,-16.632,M,0.0,*67
$GPRMC,080015.00,A,2753.1521896,N,11251.2196043,E,0.02,0.00,050620,0.0,E,D*31
$GPGGA,080015.00,2753.1521896,N,11251.2196043,E,4,24,1.0,101.532,M,-16.632,M,0.0,*6B
$GPRMC,080016.00,A,2753.1521518,N,11251.2194542,E,0.03,0.00,050620,0.0,E,D*3E
$GPGGA,080016.00,2753.1521518,N,11251.2194542,E,5,24,1.0,100.708,M,-16.632,M,0.0,*6E
$GPRMC,080017.00,A,2753.1521918,N,11251.2196051,E,0.02,0.00,050620,0.0,E,D*37
$GPGGA,080017.00,2753.1521918,N,11251.2196051,E,4,24,1.0,101.528,M,-16.632,M,0.0,*66
$GPRMC,080018.00,A,2753.1522531,N,11251.2195073,E,0.04,0.00,050620,0.0,E,D*39
$GPGGA,080018.00,2753.1522531,N,11251.2195073,E,5,24,1.0,100.673,M,-16.632,M,0.0,*63
$GPRMC,080019.00,A,2753.1522518,N,11251.2195221,E,0.03,0.00,050620,0.0,E,D*31
$GPGGA,080019.00,2753.1522518,N,11251.2195221,E,5,24,1.0,100.505,M,-16.632,M,0.0,*6E
$GPRMC,080020.00,A,2753.1523710,N,11251.2194845,E,0.02,0.00,050620,0.0,E,D*38
$GPGGA,080020.00,2753.1523710,N,11251.2194845,E,5,24,1.0,100.308,M,-16.632,M,0.0,*6D
$GPRMC,080021.00,A,2753.1523271,N,11251.2195372,E,0.04,0.00,050620,0.0,E,D*33
$GPGGA,080021.00,2753.1523271,N,11251.2195372,E,5,24,1.0,100.164,M,-16.632,M,0.0,*68
$GPRMC,080022.00,A,2753.1524142,N,11251.2195881,E,0.02,0.00,050620,0.0,E,D*35
$GPGGA,080022.00,2753.1524142,N,11251.2195881,E,5,24,1.0,99.795,M,-16.632,M,0.0,*51
$GPRMC,080023.00,A,2753.1523179,N,11251.2195917,E,0.03,0.00,050620,0.0,E,D*34
$GPGGA,080023.00,2753.1523179,N,11251.2195917,E,5,24,1.0,99.922,M,-16.632,M,0.0,*53
$GPRMC,080024.00,A,2753.1523291,N,11251.2195009,E,0.01,0.00,050620,0.0,E,D*32
$GPGGA,080024.00,2753.1523291,N,11251.2195009,E,5,24,1.0,99.856,M,-16.632,M,0.0,*55
$GPRMC,080025.00,A,2753.1522762,N,11251.2195064,E,0.02,0.00,050620,0.0,E,D*33
$GPGGA,080025.00,2753.1522762,N,11251.2195064,E,5,24,1.0,100.229,M,-16.632,M,0.0,*64
$GPRMC,080026.00,A,2753.1523446,N,11251.2194350,E,0.01,0.00,050620,0.0,E,D*32
$GPGGA,080026.00,2753.1523446,N,11251.2194350,E,5,24,1.0,99.937,M,-16.632,M,0.0,*53
$GPRMC,080027.00,A,2753.1522997,N,11251.2194435,E,0.00,0.00,050620,0.0,E,D*36
$GPGGA,080027.00,2753.1522997,N,11251.2194435,E,5,24,1.0,99.912,M,-16.632,M,0.0,*51
$GPRMC,080028.00,A,2753.1523251,N,11251.2194802,E,0.02,0.00,050620,0.0,E,D*33
$GPGGA,080028.00,2753.1523251,N,11251.2194802,E,5,24,1.0,99.915,M,-16.632,M,0.0,*51
$GPRMC,080029.00,A,2753.1523929,N,11251.2194842,E,0.03,0.00,050620,0.0,E,D*33
$GPGGA,080029.00,2753.1523929,N,11251.2194842,E,5,24,1.0,100.018,M,-16.632,M,0.0,*65
$GPRMC,080030.00,A,2753.1523686,N,11251.2194902,E,0.02,0.00,050620,0.0,E,D*35
$GPGGA,080030.00,2753.1523686,N,11251.2194902,E,5,24,1.0,100.047,M,-16.632,M,0.0,*68
$GPRMC,080031.00,A,2753.1523113,N,11251.2194770,E,0.02,0.00,050620,0.0,E,D*34
$GPGGA,080031.00,2753.1523113,N,11251.2194770,E,5,24,1.0,100.127,M,-16.632,M,0.0,*6E
$GPRMC,080032.00,A,2753.1523529,N,11251.2194777,E,0.00,0.00,050620,0.0,E,D*3F
$GPGGA,080032.00,2753.1523529,N,11251.2194777,E,5,24,1.0,100.285,M,-16.632,M,0.0,*6C
$GPRMC,080033.00,A,2753.1523324,N,11251.2195055,E,0.00,0.00,050620,0.0,E,D*33
$GPGGA,080033.00,2753.1523324,N,11251.2195055,E,5,24,1.0,100.392,M,-16.632,M,0.0,*67
$GPRMC,080034.00,A,2753.1523620,N,11251.2195560,E,0.03,0.00,050620,0.0,E,D*35
$GPGGA,080034.00,2753.1523620,N,11251.2195560,E,5,24,1.0,100.498,M,-16.632,M,0.0,*6F
$GPRMC,080035.00,A,2753.1522989,N,11251.2194746,E,0.02,0.00,050620,0.0,E,D*3F
$GPGGA,080035.00,2753.1522989,N,11251.2194746,E,5,24,1.0,100.280,M,-16.632,M,0.0,*6B
$GPRMC,080036.00,A,2753.1523459,N,11251.2194817,E,0.03,0.00,050620,0.0,E,D*37
$GPGGA,080036.00,2753.1523459,N,11251.2194817,E,5,24,1.0,100.119,M,-16.632,M,0.0,*61
$GPRMC,080037.00,A,2753.1524058,N,11251.2195114,E,0.01,0.00,050620,0.0,E,D*3D
$GPGGA,080037.00,2753.1524058,N,11251.2195114,E,5,24,1.0,100.030,M,-16.632,M,0.0,*63
$GPRMC,080038.00,A,2753.1523751,N,11251.2194320,E,0.03,0.00,050620,0.0,E,D*3D
$GPGGA,080038.00,2753.1523751,N,11251.2194320,E,5,24,1.0,100.025,M,-16.632,M,0.0,*65
$GPRMC,080039.00,A,2753.1523153,N,11251.2195418,E,0.01,0.00,050620,0.0,E,D*37
$GPGGA,080039.00,2753.1523153,N,11251.2195418,E,5,24,1.0,99.944,M,-16.632,M,0.0,*52
$GPRMC,080040.00,A,2753.1523103,N,11251.2195324,E,0.03,0.00,050620,0.0,E,D*36
$GPGGA,080040.00,2753.1523103,N,11251.2195324,E,5,24,1.0,100.054,M,-16.632,M,0.0,*68
$GPRMC,080041.00,A,2753.1522096,N,11251.2195342,E,0.01,0.00,050620,0.0,E,D*39
$GPGGA,080041.00,2753.1522096,N,11251.2195342,E,5,24,1.0,100.085,M,-16.632,M,0.0,*69
$GPRMC,080042.00,A,2753.1522095,N,11251.2194930,E,0.00,0.00,050620,0.0,E,D*36
$GPGGA,080042.00,2753.1522095,N,11251.2194930,E,5,24,1.0,100.094,M,-16.632,M,0.0,*67
$GPRMC,080043.00,A,2753.1522686,N,11251.2195138,E,0.03,0.00,050620,0.0,E,D*31
$GPGGA,080043.00,2753.1522686,N,11251.2195138,E,5,24,1.0,100.136,M,-16.632,M,0.0,*6A
$GPRMC,080044.00,A,2753.1522426,N,11251.2195246,E,0.03,0.00,050620,0.0,E,D*34
$GPGGA,080044.00,2753.1522426,N,11251.2195246,E,5,24,1.0,100.279,M,-16.632,M,0.0,*67
$GPRMC,080045.00,A,2753.1521908,N,11251.2196061,E,0.01,0.00,050620,0.0,E,D*31
$GPGGA,080045.00,2753.1521908,N,11251.2196061,E,4,24,1.0,101.525,M,-16.632,M,0.0,*6E
$GPRMC,080046.00,A,2753.1521913,N,11251.2196050,E,0.02,0.00,050620,0.0,E,D*39
$GPGGA,080046.00,2753.1521913,N,11251.2196050,E,4,24,1.0,101.530,M,-16.632,M,0.0,*61
$GPRMC,080047.00,A,2753.1521417,N,11251.2194226,E,0.03,0.00,050620,0.0,E,D*31
$GPGGA,080047.00,2753.1521417,N,11251.2194226,E,5,24,1.0,100.190,M,-16.632,M,0.0,*66
$GPRMC,080048.00,A,2753.1521898,N,11251.2196049,E,0.03,0.00,050620,0.0,E,D*3C
$GPGGA,080048.00,2753.1521898,N,11251.2196049,E,4,24,1.0,101.528,M,-16.632,M,0.0,*6C
$GPRMC,080049.00,A,2753.1521904,N,11251.2196058,E,0.02,0.00,050620,0.0,E,D*38
$GPGGA,080049.00,2753.1521904,N,11251.2196058,E,4,24,1.0,101.530,M,-16.632,M,0.0,*60
$GPRMC,080050.00,A,2753.1521909,N,11251.2196041,E,0.02,0.00,050620,0.0,E,D*35
$GPGGA,080050.00,2753.1521909,N,11251.2196041,E,4,24,1.0,101.527,M,-16.632,M,0.0,*6B
$GPRMC,080051.00,A,2753.1523102,N,11251.2195246,E,0.02,0.00,050620,0.0,E,D*33
$GPGGA,080051.00,2753.1523102,N,11251.2195246,E,5,24,1.0,100.374,M,-16.632,M,0.0,*6D
$GPRMC,080052.00,A,2753.1522948,N,11251.2194177,E,0.02,0.00,050620,0.0,E,D*37
$GPGGA,080052.00,2753.1522948,N,11251.2194177,E,5,24,1.0,100.035,M,-16.632,M,0.0,*6F
$GPRMC,080053.00,A,2753.1521909,N,11251.2196054,E,0.03,0.00,050620,0.0,E,D*33
$GPGGA,080053.00,2753.1521909,N,11251.2196054,E,4,24,1.0,101.528,M,-16.632,M,0.0,*63
$GPRMC,080054.00,A,2753.1521898,N,11251.2196052,E,0.01,0.00,050620,0.0,E,D*39
$GPGGA,080054.00,2753.1521898,N,11251.2196052,E,4,24,1.0,101.530,M,-16.632,M,0.0,*62
$GPRMC,080055.00,A,2753.1521903,N,11251.2196048,E,0.02,0.00,050620,0.0,E,D*33
$GPGGA,080055.00,2753.1521903,N,11251.2196048,E,4,24,1.0,101.526,M,-16.632,M,0.0,*6C
$GPRMC,080056.00,A,2753.1521904,N,11251.2196044,E,0.03,0.00,050620,0.0,E,D*3A
$GPGGA,080056.00,2753.1521904,N,11251.2196044,E,4,24,1.0,101.528,M,-16.632,M,0.0,*6A
$GPRMC,080057.00,A,2753.1521904,N,11251.2196042,E,0.01,0.00,050620,0.0,E,D*3F
$GPGGA,080057.00,2753.1521904,N,11251.2196042,E,4,24,1.0,101.530,M,-16.632,M,0.0,*64
$GPRMC,080058.00,A,2753.1521905,N,11251.2196044,E,0.03,0.00,050620,0.0,E,D*35
$GPGGA,080058.00,2753.1521905,N,11251.2196044,E,4,24,1.0,101.532,M,-16.632,M,0.0,*6E
$GPRMC,080059.00,A,2753.1521901,N,11251.2196038,E,0.04,0.00,050620,0.0,E,D*3C
$GPGGA,080059.00,2753.1521901,N,11251.2196038,E,4,24,1.0,101.534,M,-16.632,M,0.0,*66
$GPRMC,080100.00,A,2753.1521911,N,11251.2196050,E,0.01,0.00,050620,0.0,E,D*3B
$GPGGA,080100.00,2753.1521911,N,11251.2196050,E,4,24,1.0,101.529,M,-16.632,M,0.0,*68
$GPRMC,080101.00,A,2753.1521907,N,11251.2196045,E,0.03,0.00,050620,0.0,E,D*3B
$GPGGA,080101.00,2753.1521907,N,11251.2196045,E,4,24,1.0,101.531,M,-16.632,M,0.0,*63
$GPRMC,080102.00,A,2753.1523169,N,11251.2195561,E,0.03,0.00,050620,0.0,E,D*3A
$GPGGA,080102.00,2753.1523169,N,11251.2195561,E,5,24,1.0,100.673,M,-16.632,M,0.0,*67
$GPRMC,080103.00,A,2753.1521902,N,11251.2196048,E,0.03,0.00,050620,0.0,E,D*31
$GPGGA,080103.00,2753.1521902,N,11251.2196048,E,4,24,1.0,101.531,M,-16.632,M,0.0,*69
$GPRMC,080104.00,A,2753.1521905,N,11251.2196035,E,0.02,0.00,050620,0.0,E,D*3A
$GPGGA,080104.00,2753.1521905,N,11251.2196035,E,4,24,1.0,101.531,M,-16.632,M,0.0,*63
$GPRMC,080105.00,A,2753.1521899,N,11251.2196035,E,0.01,0.00,050620,0.0,E,D*3C
$GPGGA,080105.00,2753.1521899,N,11251.2196035,E,4,24,1.0,101.535,M,-16.632,M,0.0,*62
$GPRMC,080106.00,A,2753.1521907,N,11251.2196052,E,0.03,0.00,050620,0.0,E,D*3A
$GPGGA,080106.00,2753.1521907,N,11251.2196052,E,4,24,1.0,101.531,M,-16.632,M,0.0,*62
$GPRMC,080107.00,A,2753.1521900,N,11251.2196041,E,0.01,0.00,050620,0.0,E,D*3C
$GPGGA,080107.00,2753.1521900,N,11251.2196041,E,4,24,1.0,101.534,M,-16.632,M,0.0,*63
$GPRMC,080108.00,A,2753.1521902,N,11251.2196031,E,0.02,0.00,050620,0.0,E,D*35
$GPGGA,080108.00,2753.1521902,N,11251.2196031,E,4,24,1.0,101.533,M,-16.632,M,0.0,*6E
$GPRMC,080109.00,A,2753.1522222,N,11251.2194431,E,0.04,0.00,050620,0.0,E,D*3E
$GPGGA,080109.00,2753.1522222,N,11251.2194431,E,5,24,1.0,100.252,M,-16.632,M,0.0,*63
$GPRMC,080110.00,A,2753.1521899,N,11251.2193934,E,0.02,0.00,050620,0.0,E,D*36
$GPGGA,080110.00,2753.1521899,N,11251.2193934,E,5,24,1.0,100.231,M,-16.632,M,0.0,*68
$GPRMC,080111.00,A,2753.1521906,N,11251.2196043,E,0.01,0.00,050620,0.0,E,D*3F
$GPGGA,080111.00,2753.1521906,N,11251.2196043,E,4,24,1.0,101.531,M,-16.632,M,0.0,*65
$GPRMC,080112.00,A,2753.1521901,N,11251.2196050,E,0.02,0.00,050620,0.0,E,D*3A
$GPGGA,080112.00,2753.1521901,N,11251.2196050,E,4,24,1.0,101.532,M,-16.632,M,0.0,*60
$GPRMC,080113.00,A,2753.1522508,N,11251.2194537,E,0.03,0.00,050620,0.0,E,D*3A
$GPGGA,080113.00,2753.1522508,N,11251.2194537,E,5,24,1.0,100.390,M,-16.632,M,0.0,*6F
$GPRMC,080114.00,A,2753.1523133,N,11251.2194854,E,0.02,0.00,050620,0.0,E,D*39
$GPGGA,080114.00,2753.1523133,N,11251.2194854,E,5,24,1.0,100.377,M,-16.632,M,0.0,*64
$GPRMC,080115.00,A,2753.1523508,N,11251.2194849,E,0.02,0.00,050620,0.0,E,D*38
$GPGGA,080115.00,2753.1523508,N,11251.2194849,E,5,24,1.0,100.074,M,-16.632,M,0.0,*65
$GPRMC,080116.00,A,2753.1523643,N,11251.2194503,E,0.04,0.00,050620,0.0,E,D*32
$GPGGA,080116.00,2753.1523643,N,11251.2194503,E,5,24,1.0,100.418,M,-16.632,M,0.0,*67
$GPRMC,080117.00,A,2753.1521907,N,11251.2196040,E,0.02,0.00,050620,0.0,E,D*38
$GPGGA,080117.00,2753.1521907,N,11251.2196040,E,4,24,1.0,101.529,M,-16.632,M,0.0,*68
$GPRMC,080118.00,A,2753.1521912,N,11251.2196056,E,0.02,0.00,050620,0.0,E,D*34
$GPGGA,080118.00,2753.1521912,N,11251.2196056,E,4,24,1.0,101.529,M,-16.632,M,0.0,*64
$GPRMC,080119.00,A,2753.1522656,N,11251.2195381,E,0.01,0.00,050620,0.0,E,D*30
$GPGGA,080119.00,2753.1522656,N,11251.2195381,E,5,24,1.0,100.638,M,-16.632,M,0.0,*60
$GPRMC,080120.00,A,2753.1521911,N,11251.2196054,E,0.02,0.00,050620,0.0,E,D*3E
$GPGGA,080120.00,2753.1521911,N,11251.2196054,E,4,24,1.0,101.526,M,-16.632,M,0.0,*61
$GPRMC,080121.00,A,2753.1521901,N,11251.2196061,E,0.03,0.00,050620,0.0,E,D*39
$GPGGA,080121.00,2753.1521901,N,11251.2196061,E,4,24,1.0,101.528,M,-16.632,M,0.0,*69
$GPRMC,080122.00,A,2753.1521918,N,11251.2196049,E,0.01,0.00,050620,0.0,E,D*3A
$GPGGA,080122.00,2753.1521918,N,11251.2196049,E,4,24,1.0,101.525,M,-16.632,M,0.0,*65
$GPRMC,080123.00,A,2753.1521906,N,11251.2196051,E,0.02,0.00,050620,0.0,E,D*3E
$GPGGA,080123.00,2753.1521906,N,11251.2196051,E,4,24,1.0,101.527,M,-16.632,M,0.0,*60
$GPRMC,080124.00,A,2753.1521918,N,11251.2196054,E,0.04,0.00,050620,0.0,E,D*35
$GPGGA,080124.00,2753.1521918,N,11251.2196054,E,4,24,1.0,101.527,M,-16.632,M,0.0,*6D
$GPRMC,080125.00,A,2753.1521910,N,11251.2196047,E,0.03,0.00,050620,0.0,E,D*39
$GPGGA,080125.00,2753.1521910,N,11251.2196047,E,4,24,1.0,101.527,M,-16.632,M,0.0,*66
$GPRMC,080126.00,A,2753.1521906,N,11251.2196054,E,0.02,0.00,050620,0.0,E,D*3E
$GPGGA,080126.00,2753.1521906,N,11251.2196054,E,4,24,1.0,101.529,M,-16.632,M,0.0,*6E
$GPRMC,080127.00,A,2753.1521904,N,11251.2196051,E,0.02,0.00,050620,0.0,E,D*38
$GPGGA,080127.00,2753.1521904,N,11251.2196051,E,4,24,1.0,101.526,M,-16.632,M,0.0,*67
$GPRMC,080128.00,A,2753.1521899,N,11251.2196045,E,0.01,0.00,050620,0.0,E,D*34
$GPGGA,080128.00,2753.1521899,N,11251.2196045,E,4,24,1.0,101.529,M,-16.632,M,0.0,*67
$GPRMC,080129.00,A,2753.1521558,N,11251.2198633,E,0.04,0.00,050620,0.0,E,D*39
$GPGGA,080129.00,2753.1521558,N,11251.2198633,E,5,24,1.0,100.887,M,-16.632,M,0.0,*66
$GPRMC,080130.00,A,2753.1521606,N,11251.2199134,E,0.04,0.00,050620,0.0,E,D*38
$GPGGA,080130.00,2753.1521606,N,11251.2199134,E,5,23,1.0,101.254,M,-16.632,M,0.0,*65
$GPRMC,080131.00,A,2753.1521907,N,11251.2196055,E,0.02,0.00,050620,0.0,E,D*38
$GPGGA,080131.00,2753.1521907,N,11251.2196055,E,4,24,1.0,101.527,M,-16.632,M,0.0,*66
$GPRMC,080132.00,A,2753.1520540,N,11251.2198883,E,0.02,0.00,050620,0.0,E,D*38
$GPGGA,080132.00,2753.1520540,N,11251.2198883,E,5,24,1.0,101.025,M,-16.632,M,0.0,*60
$GPRMC,080133.00,A,2753.1520571,N,11251.2198670,E,0.02,0.00,050620,0.0,E,D*39
$GPGGA,080133.00,2753.1520571,N,11251.2198670,E,5,24,1.0,100.913,M,-16.632,M,0.0,*6C
$GPRMC,080134.00,A,2753.1520419,N,11251.2198610,E,0.03,0.00,050620,0.0,E,D*36
$GPGGA,080134.00,2753.1520419,N,11251.2198610,E,5,24,1.0,101.042,M,-16.632,M,0.0,*6E
$GPRMC,080135.00,A,2753.1520610,N,11251.2199247,E,0.03,0.00,050620,0.0,E,D*3B
$GPGGA,080135.00,2753.1520610,N,11251.2199247,E,5,24,1.0,100.745,M,-16.632,M,0.0,*62
$GPRMC,080136.00,A,2753.1520741,N,11251.2198261,E,0.03,0.00,050620,0.0,E,D*38
$GPGGA,080136.00,2753.1520741,N,11251.2198261,E,5,24,1.0,100.673,M,-16.632,M,0.0,*65
$GPRMC,080137.00,A,2753.1521159,N,11251.2198329,E,0.01,0.00,050620,0.0,E,D*38
$GPGGA,080137.00,2753.1521159,N,11251.2198329,E,5,24,1.0,100.500,M,-16.632,M,0.0,*60
$GPRMC,080138.00,A,2753.1522384,N,11251.2198687,E,0.02,0.00,050620,0.0,E,D*34
$GPGGA,080138.00,2753.1522384,N,11251.2198687,E,5,24,1.0,100.605,M,-16.632,M,0.0,*69
$GPRMC,080139.00,A,2753.1521900,N,11251.2198584,E,0.03,0.00,050620,0.0,E,D*31
$GPGGA,080139.00,2753.1521900,N,11251.2198584,E,5,24,1.0,100.547,M,-16.632,M,0.0,*68
$GPRMC,080140.00,A,2753.1522331,N,11251.2198899,E,0.02,0.00,050620,0.0,E,D*34
$GPGGA,080140.00,2753.1522331,N,11251.2198899,E,5,24,1.0,100.394,M,-16.632,M,0.0,*64
$GPRMC,080141.00,A,2753.1522671,N,11251.2200066,E,0.05,0.00,050620,0.0,E,D*39
$GPGGA,080141.00,2753.1522671,N,11251.2200066,E,5,24,1.0,100.235,M,-16.632,M,0.0,*64
$GPRMC,080142.00,A,2753.1522436,N,11251.2199390,E,0.02,0.00,050620,0.0,E,D*35
$GPGGA,080142.00,2753.1522436,N,11251.2199390,E,5,24,1.0,100.296,M,-16.632,M,0.0,*66
$GPRMC,080143.00,A,2753.1521477,N,11251.2199957,E,0.05,0.00,050620,0.0,E,D*34
$GPGGA,080143.00,2753.1521477,N,11251.2199957,E,5,24,1.0,100.273,M,-16.632,M,0.0,*6B
$GPRMC,080144.00,A,2753.1521290,N,11251.2200708,E,0.03,0.00,050620,0.0,E,D*3D
$GPGGA,080144.00,2753.1521290,N,11251.2200708,E,5,24,1.0,100.457,M,-16.632,M,0.0,*64
$GPRMC,080145.00,A,2753.1520462,N,11251.2200239,E,0.04,0.00,050620,0.0,E,D*36
$GPGGA,080145.00,2753.1520462,N,11251.2200239,E,5,24,1.0,100.259,M,-16.632,M,0.0,*60
$GPRMC,080146.00,A,2753.1519948,N,11251.2200738,E,0.03,0.00,050620,0.0,E,D*39
$GPGGA,080146.00,2753.1519948,N,11251.2200738,E,5,24,1.0,100.280,M,-16.632,M,0.0,*6C
$GPRMC,080147.00,A,2753.1520234,N,11251.2200430,E,0.01,0.00,050620,0.0,E,D*3B
$GPGGA,080147.00,2753.1520234,N,11251.2200430,E,5,24,1.0,100.257,M,-16.632,M,0.0,*66
$GPRMC,080148.00,A,2753.1520145,N,11251.2199874,E,0.02,0.00,050620,0.0,E,D*3D
$GPGGA,080148.00,2753.1520145,N,11251.2199874,E,5,24,1.0,99.823,M,-16.632,M,0.0,*5B
$GPRMC,080149.00,A,2753.1520558,N,11251.2199110,E,0.04,0.00,050620,0.0,E,D*39
$GPGGA,080149.00,2753.1520558,N,11251.2199110,E,5,24,1.0,99.585,M,-16.632,M,0.0,*58
$GPRMC,080150.00,A,2753.1520623,N,11251.2198560,E,0.03,0.00,050620,0.0,E,D*3B
$GPGGA,080150.00,2753.1520623,N,11251.2198560,E,5,24,1.0,99.416,M,-16.632,M,0.0,*56
$GPRMC,080151.00,A,2753.1521708,N,11251.2198498,E,0.03,0.00,050620,0.0,E,D*35
$GPGGA,080151.00,2753.1521708,N,11251.2198498,E,5,24,1.0,99.158,M,-16.632,M,0.0,*57
$GPRMC,080152.00,A,2753.1521823,N,11251.2198949,E,0.01,0.00,050620,0.0,E,D*33
$GPGGA,080152.00,2753.1521823,N,11251.2198949,E,5,24,1.0,99.194,M,-16.632,M,0.0,*53
$GPRMC,080153.00,A,2753.1522010,N,11251.2198362,E,0.02,0.00,050620,0.0,E,D*39
$GPGGA,080153.00,2753.1522010,N,11251.2198362,E,5,24,1.0,99.301,M,-16.632,M,0.0,*54
$GPRMC,080154.00,A,2753.1521599,N,11251.2198136,E,0.01,0.00,050620,0.0,E,D*39
$GPGGA,080154.00,2753.1521599,N,11251.2198136,E,5,24,1.0,99.671,M,-16.632,M,0.0,*55
$GPRMC,080155.00,A,2753.1521588,N,11251.2197793,E,0.03,0.00,050620,0.0,E,D*3C
$GPGGA,080155.00,2753.1521588,N,11251.2197793,E,5,24,1.0,99.870,M,-16.632,M,0.0,*5D
$GPRMC,080156.00,A,2753.1520976,N,11251.2197362,E,0.03,0.00,050620,0.0,E,D*39
$GPGGA,080156.00,2753.1520976,N,11251.2197362,E,5,24,1.0,99.757,M,-16.632,M,0.0,*52
$GPRMC,080157.00,A,2753.1521227,N,11251.2197109,E,0.02,0.00,050620,0.0,E,D*38
$GPGGA,080157.00,2753.1521227,N,11251.2197109,E,5,24,1.0,99.771,M,-16.632,M,0.0,*56
$GPRMC,080158.00,A,2753.1521034,N,11251.2197600,E,0.02,0.00,050620,0.0,E,D*39
$GPGGA,080158.00,2753.1521034,N,11251.2197600,E,5,24,1.0,99.882,M,-16.632,M,0.0,*54
$GPRMC,080159.00,A,2753.1521159,N,11251.2198156,E,0.04,0.00,050620,0.0,E,D*3F
$GPGGA,080159.00,2753.1521159,N,11251.2198156,E,5,24,1.0,99.403,M,-16.632,M,0.0,*51
$GPRMC,080200.00,A,2753.1521505,N,11251.2197976,E,0.03,0.00,050620,0.0,E,D*3F
$GPGGA,080200.00,2753.1521505,N,11251.2197976,E,5,24,1.0,99.222,M,-16.632,M,0.0,*53
$GPRMC,080201.00,A,2753.1521616,N,11251.2197240,E,0.01,0.00,050620,0.0,E,D*33
$GPGGA,080201.00,2753.1521616,N,11251.2197240,E,5,24,1.0,99.002,M,-16.632,M,0.0,*5D
$GPRMC,080202.00,A,2753.1522223,N,11251.2196851,E,0.03,0.00,050620,0.0,E,D*38
$GPGGA,080202.00,2753.1522223,N,11251.2196851,E,5,24,1.0,99.411,M,-16.632,M,0.0,*52
$GPRMC,080203.00,A,2753.1522474,N,11251.2197411,E,0.04,0.00,050620,0.0,E,D*33
$GPGGA,080203.00,2753.1522474,N,11251.2197411,E,5,24,1.0,99.412,M,-16.632,M,0.0,*5D
$GPRMC,080204.00,A,2753.1521919,N,11251.2197170,E,0.04,0.00,050620,0.0,E,D*33
$GPGGA,080204.00,2753.1521919,N,11251.2197170,E,5,24,1.0,99.299,M,-16.632,M,0.0,*58
$GPRMC,080205.00,A,2753.1522343,N,11251.2197172,E,0.02,0.00,050620,0.0,E,D*30
$GPGGA,080205.00,2753.1522343,N,11251.2197172,E,5,24,1.0,99.323,M,-16.632,M,0.0,*5D
$GPRMC,080206.00,A,2753.1522510,N,11251.2197270,E,0.01,0.00,050620,0.0,E,D*31
$GPGGA,080206.00,2753.1522510,N,11251.2197270,E,5,24,1.0,99.365,M,-16.632,M,0.0,*5D
$GPRMC,080207.00,A,2753.1522051,N,11251.2196971,E,0.04,0.00,050620,0.0,E,D*3E
$GPGGA,080207.00,2753.1522051,N,11251.2196971,E,5,24,1.0,99.331,M,-16.632,M,0.0,*56
$GPRMC,080208.00,A,2753.1521522,N,11251.2195678,E,0.03,0.00,050620,0.0,E,D*31
$GPGGA,080208.00,2753.1521522,N,11251.2195678,E,5,24,1.0,99.748,M,-16.632,M,0.0,*54
$GPRMC,080209.00,A,2753.1521842,N,11251.2196275,E,0.02,0.00,050620,0.0,E,D*30
$GPGGA,080209.00,2753.1521842,N,11251.2196275,E,5,24,1.0,99.373,M,-16.632,M,0.0,*58
$GPRMC,080210.00,A,2753.1521862,N,11251.2196244,E,0.02,0.00,050620,0.0,E,D*38
$GPGGA,080210.00,2753.1521862,N,11251.2196244,E,5,24,1.0,99.511,M,-16.632,M,0.0,*52
$GPRMC,080211.00,A,2753.1522125,N,11251.2196213,E,0.02,0.00,050620,0.0,E,D*32
$GPGGA,080211.00,2753.1522125,N,11251.2196213,E,5,24,1.0,99.599,M,-16.632,M,0.0,*58
$GPRMC,080212.00,A,2753.1521320,N,11251.2195132,E,0.03,0.00,050620,0.0,E,D*37
$GPGGA,080212.00,2753.1521320,N,11251.2195132,E,5,24,1.0,99.984,M,-16.632,M,0.0,*5C
$GPRMC,080213.00,A,2753.1522029,N,11251.2195840,E,0.02,0.00,050620,0.0,E,D*32
$GPGGA,080213.00,2753.1522029,N,11251.2195840,E,5,24,1.0,99.834,M,-16.632,M,0.0,*52
$GPRMC,080214.00,A,2753.1522074,N,11251.2195724,E,0.01,0.00,050620,0.0,E,D*33
$GPGGA,080214.00,2753.1522074,N,11251.2195724,E,5,24,1.0,99.869,M,-16.632,M,0.0,*58
$GPRMC,080215.00,A,2753.1522652,N,11251.2196064,E,0.03,0.00,050620,0.0,E,D*32
$GPGGA,080215.00,2753.1522652,N,11251.2196064,E,5,24,1.0,99.680,M,-16.632,M,0.0,*52
$GPRMC,080216.00,A,2753.1523031,N,11251.2196010,E,0.02,0.00,050620,0.0,E,D*31
$GPGGA,080216.00,2753.1523031,N,11251.2196010,E,5,24,1.0,99.892,M,-16.632,M,0.0,*5D
$GPRMC,080217.00,A,2753.1522317,N,11251.2195161,E,0.02,0.00,050620,0.0,E,D*32
$GPGGA,080217.00,2753.1522317,N,11251.2195161,E,5,24,1.0,99.580,M,-16.632,M,0.0,*50
$GPRMC,080218.00,A,2753.1522510,N,11251.2194913,E,0.03,0.00,050620,0.0,E,D*31
$GPGGA,080218.00,2753.1522510,N,11251.2194913,E,5,24,1.0,99.580,M,-16.632,M,0.0,*52
$GPRMC,080219.00,A,2753.1522933,N,11251.2195191,E,0.01,0.00,050620,0.0,E,D*3C
$GPGGA,080219.00,2753.1522933,N,11251.2195191,E,5,24,1.0,99.261,M,-16.632,M,0.0,*55
$GPRMC,080220.00,A,2753.1522850,N,11251.2196383,E,0.02,0.00,050620,0.0,E,D*33
$GPGGA,080220.00,2753.1522850,N,11251.2196383,E,5,24,1.0,99.183,M,-16.632,M,0.0,*56
$GPRMC,080221.00,A,2753.1523142,N,11251.2196420,E,0.02,0.00,050620,0.0,E,D*37
$GPGGA,080221.00,2753.1523142,N,11251.2196420,E,5,24,1.0,99.073,M,-16.632,M,0.0,*5C
$GPRMC,080222.00,A,2753.1522908,N,11251.2196207,E,0.01,0.00,050620,0.0,E,D*33
$GPGGA,080222.00,2753.1522908,N,11251.2196207,E,5,24,1.0,99.284,M,-16.632,M,0.0,*51
$GPRMC,080223.00,A,2753.1522963,N,11251.2195293,E,0.03,0.00,050620,0.0,E,D*33
$GPGGA,080223.00,2753.1522963,N,11251.2195293,E,5,24,1.0,99.262,M,-16.632,M,0.0,*5B
$GPRMC,080224.00,A,2753.1524026,N,11251.2195569,E,0.01,0.00,050620,0.0,E,D*3A
$GPGGA,080224.00,2753.1524026,N,11251.2195569,E,5,24,1.0,99.334,M,-16.632,M,0.0,*52
$GPRMC,080225.00,A,2753.1523490,N,11251.2194487,E,0.04,0.00,050620,0.0,E,D*30
$GPGGA,080225.00,2753.1523490,N,11251.2194487,E,5,24,1.0,99.568,M,-16.632,M,0.0,*52
$GPRMC,080226.00,A,2753.1522993,N,11251.2194485,E,0.01,0.00,050620,0.0,E,D*3B
$GPGGA,080226.00,2753.1522993,N,11251.2194485,E,5,24,1.0,99.893,M,-16.632,M,0.0,*55
$GPRMC,080227.00,A,2753.1523145,N,11251.2195168,E,0.01,0.00,050620,0.0,E,D*3F
$GPGGA,080227.00,2753.1523145,N,11251.2195168,E,5,24,1.0,99.534,M,-16.632,M,0.0,*51
$GPRMC,080228.00,A,2753.1523409,N,11251.2195322,E,0.04,0.00,050620,0.0,E,D*34
$GPGGA,080228.00,2753.1523409,N,11251.2195322,E,5,24,1.0,99.934,M,-16.632,M,0.0,*53
$GPRMC,080229.00,A,2753.1523333,N,11251.2194555,E,0.02,0.00,050620,0.0,E,D*3A
$GPGGA,080229.00,2753.1523333,N,11251.2194555,E,5,24,1.0,99.696,M,-16.632,M,0.0,*5C
$GPRMC,080230.00,A,2753.1524472,N,11251.2193584,E,0.01,0.00,050620,0.0,E,D*3F
$GPGGA,080230.00,2753.1524472,N,11251.2193584,E,5,24,1.0,99.470,M,-16.632,M,0.0,*50
$GPRMC,080231.00,A,2753.1524909,N,11251.2192809,E,0.02,0.00,050620,0.0,E,D*35
$GPGGA,080231.00,2753.1524909,N,11251.2192809,E,5,24,1.0,99.117,M,-16.632,M,0.0,*5D
$GPRMC,080232.00,A,2753.1523973,N,11251.2192018,E,0.02,0.00,050620,0.0,E,D*34
$GPGGA,080232.00,2753.1523973,N,11251.2192018,E,5,24,1.0,98.876,M,-16.632,M,0.0,*53
$GPRMC,080233.00,A,2753.1523478,N,11251.2193136,E,0.02,0.00,050620,0.0,E,D*3F
$GPGGA,080233.00,2753.1523478,N,11251.2193136,E,5,24,1.0,98.845,M,-16.632,M,0.0,*58
$GPRMC,080234.00,A,2753.1523432,N,11251.2193527,E,0.02,0.00,050620,0.0,E,D*32
$GPGGA,080234.00,2753.1523432,N,11251.2193527,E,5,24,1.0,98.860,M,-16.632,M,0.0,*52
$GPRMC,080235.00,A,2753.1523546,N,11251.2193229,E,0.03,0.00,050620,0.0,E,D*39
$GPGGA,080235.00,2753.1523546,N,11251.2193229,E,5,24,1.0,98.864,M,-16.632,M,0.0,*5C
$GPRMC,080236.00,A,2753.1523788,N,11251.2192912,E,0.04,0.00,050620,0.0,E,D*3F
$GPGGA,080236.00,2753.1523788,N,11251.2192912,E,5,24,1.0,99.062,M,-16.632,M,0.0,*52
$GPRMC,080237.00,A,2753.1523928,N,11251.2192009,E,0.05,0.00,050620,0.0,E,D*38
$GPGGA,080237.00,2753.1523928,N,11251.2192009,E,5,24,1.0,99.307,M,-16.632,M,0.0,*54
$GPRMC,080238.00,A,2753.1523586,N,11251.2192526,E,0.02,0.00,050620,0.0,E,D*30
$GPGGA,080238.00,2753.1523586,N,11251.2192526,E,4,24,1.0,99.966,M,-16.632,M,0.0,*57
$GPRMC,080239.00,A,2753.1523713,N,11251.2192638,E,0.01,0.00,050620,0.0,E,D*30
$GPGGA,080239.00,2753.1523713,N,11251.2192638,E,5,24,1.0,98.946,M,-16.632,M,0.0,*56
$GPRMC,080240.00,A,2753.1524509,N,11251.2192715,E,0.01,0.00,050620,0.0,E,D*3E
$GPGGA,080240.00,2753.1524509,N,11251.2192715,E,5,24,1.0,99.339,M,-16.632,M,0.0,*5B
$GPRMC,080241.00,A,2753.1523581,N,11251.2192663,E,0.02,0.00,050620,0.0,E,D*3B
$GPGGA,080241.00,2753.1523581,N,11251.2192663,E,5,24,1.0,99.235,M,-16.632,M,0.0,*50
$GPRMC,080242.00,A,2753.1524055,N,11251.2191890,E,0.03,0.00,050620,0.0,E,D*33
$GPGGA,080242.00,2753.1524055,N,11251.2191890,E,5,24,1.0,99.415,M,-16.632,M,0.0,*5D
$GPRMC,080243.00,A,2753.1523719,N,11251.2192347,E,0.03,0.00,050620,0.0,E,D*38
$GPGGA,080243.00,2753.1523719,N,11251.2192347,E,5,24,1.0,99.466,M,-16.632,M,0.0,*52
$GPRMC,080244.00,A,2753.1523153,N,11251.2193541,E,0.02,0.00,050620,0.0,E,D*37
$GPGGA,080244.00,2753.1523153,N,11251.2193541,E,5,24,1.0,99.715,M,-16.632,M,0.0,*5B
$GPRMC,080245.00,A,2753.1522780,N,11251.2192637,E,0.04,0.00,050620,0.0,E,D*3A
$GPGGA,080245.00,2753.1522780,N,11251.2192637,E,5,24,1.0,100.016,M,-16.632,M,0.0,*65
$GPRMC,080246.00,A,2753.1522596,N,11251.2192245,E,0.05,0.00,050620,0.0,E,D*3C
$GPGGA,080246.00,2753.1522596,N,11251.2192245,E,5,24,1.0,99.947,M,-16.632,M,0.0,*5E
$GPRMC,080247.00,A,2753.1522845,N,11251.2192034,E,0.02,0.00,050620,0.0,E,D*3D
$GPGGA,080247.00,2753.1522845,N,11251.2192034,E,5,24,1.0,99.729,M,-16.632,M,0.0,*5E
$GPRMC,080248.00,A,2753.1522806,N,11251.2192978,E,0.03,0.00,050620,0.0,E,D*35
$GPGGA,080248.00,2753.1522806,N,11251.2192978,E,5,24,1.0,99.531,M,-16.632,M,0.0,*5C
$GPRMC,080249.00,A,2753.1522126,N,11251.2192457,E,0.03,0.00,050620,0.0,E,D*3F
$GPGGA,080249.00,2753.1522126,N,11251.2192457,E,5,24,1.0,99.628,M,-16.632,M,0.0,*5D
$GPRMC,080250.00,A,2753.1522261,N,11251.2192573,E,0.05,0.00,050620,0.0,E,D*36
$GPGGA,080250.00,2753.1522261,N,11251.2192573,E,5,24,1.0,99.659,M,-16.632,M,0.0,*54
$GPRMC,080251.00,A,2753.1522121,N,11251.2192714,E,0.03,0.00,050620,0.0,E,D*35
$GPGGA,080251.00,2753.1522121,N,11251.2192714,E,5,24,1.0,99.780,M,-16.632,M,0.0,*54
$GPRMC,080252.00,A,2753.1522489,N,11251.2192886,E,0.01,0.00,050620,0.0,E,D*37
$GPGGA,080252.00,2753.1522489,N,11251.2192886,E,5,24,1.0,99.793,M,-16.632,M,0.0,*56
$GPRMC,080253.00,A,2753.1522195,N,11251.2192922,E,0.02,0.00,050620,0.0,E,D*32
$GPGGA,080253.00,2753.1522195,N,11251.2192922,E,5,24,1.0,99.720,M,-16.632,M,0.0,*58
$GPRMC,080254.00,A,2753.1522451,N,11251.2192621,E,0.02,0.00,050620,0.0,E,D*34
$GPGGA,080254.00,2753.1522451,N,11251.2192621,E,5,24,1.0,99.734,M,-16.632,M,0.0,*5B
$GPRMC,080255.00,A,2753.1521490,N,11251.2191650,E,0.04,0.00,050620,0.0,E,D*38
$GPGGA,080255.00,2753.1521490,N,11251.2191650,E,5,24,1.0,100.093,M,-16.632,M,0.0,*6A
$GPRMC,080256.00,A,2753.1522342,N,11251.2191364,E,0.02,0.00,050620,0.0,E,D*34
$GPGGA,080256.00,2753.1522342,N,11251.2191364,E,5,24,1.0,100.150,M,-16.632,M,0.0,*6E
$GPRMC,080257.00,A,2753.1521530,N,11251.2192101,E,0.04,0.00,050620,0.0,E,D*31
$GPGGA,080257.00,2753.1521530,N,11251.2192101,E,5,24,1.0,100.571,M,-16.632,M,0.0,*6A
$GPRMC,080258.00,A,2753.1521610,N,11251.2192114,E,0.03,0.00,050620,0.0,E,D*3C
$GPGGA,080258.00,2753.1521610,N,11251.2192114,E,5,24,1.0,100.126,M,-16.632,M,0.0,*66
$GPRMC,080259.00,A,2753.1521167,N,11251.2192515,E,0.07,0.00,050620,0.0,E,D*3B
$GPGGA,080259.00,2753.1521167,N,11251.2192515,E,5,24,1.0,100.149,M,-16.632,M,0.0,*6C
$GPRMC,080300.00,A,2753.1520965,N,11251.2192605,E,0.02,0.00,050620,0.0,E,D*3A
$GPGGA,080300.00,2753.1520965,N,11251.2192605,E,5,24,1.0,99.738,M,-16.632,M,0.0,*59
$GPRMC,080301.00,A,2753.1521220,N,11251.2192765,E,0.01,0.00,050620,0.0,E,D*34
$GPGGA,080301.00,2753.1521220,N,11251.2192765,E,5,24,1.0,99.953,M,-16.632,M,0.0,*57
$GPRMC,080302.00,A,2753.1521325,N,11251.2192585,E,0.02,0.00,050620,0.0,E,D*3C
$GPGGA,080302.00,2753.1521325,N,11251.2192585,E,5,24,1.0,100.001,M,-16.632,M,0.0,*63
$GPRMC,080303.00,A,2753.1521472,N,11251.2192991,E,0.03,0.00,050620,0.0,E,D*30
$GPGGA,080303.00,2753.1521472,N,11251.2192991,E,5,24,1.0,100.437,M,-16.632,M,0.0,*6F
$GPRMC,080304.00,A,2753.1522091,N,11251.2192651,E,0.03,0.00,050620,0.0,E,D*3E
$GPGGA,080304.00,2753.1522091,N,11251.2192651,E,5,23,1.0,99.780,M,-16.632,M,0.0,*58
$GPRMC,080305.00,A,2753.1521885,N,11251.2191656,E,0.03,0.00,050620,0.0,E,D*35
$GPGGA,080305.00,2753.1521885,N,11251.2191656,E,5,24,1.0,100.076,M,-16.632,M,0.0,*6B
$GPRMC,080306.00,A,2753.1522400,N,11251.2192162,E,0.03,0.00,050620,0.0,E,D*37
$GPGGA,080306.00,2753.1522400,N,11251.2192162,E,5,24,1.0,100.043,M,-16.632,M,0.0,*6F
$GPRMC,080307.00,A,2753.1521690,N,11251.2193212,E,0.02,0.00,050620,0.0,E,D*3A
$GPGGA,080307.00,2753.1521690,N,11251.2193212,E,5,24,1.0,100.115,M,-16.632,M,0.0,*61
$GPRMC,080308.00,A,2753.1521773,N,11251.2193427,E,0.02,0.00,050620,0.0,E,D*39
$GPGGA,080308.00,2753.1521773,N,11251.2193427,E,5,24,1.0,100.020,M,-16.632,M,0.0,*65
$GPRMC,080309.00,A,2753.1521874,N,11251.2193205,E,0.04,0.00,050620,0.0,E,D*30
$GPGGA,080309.00,2753.1521874,N,11251.2193205,E,5,24,1.0,100.282,M,-16.632,M,0.0,*60
$GPRMC,080310.00,A,2753.1521712,N,11251.2192836,E,0.02,0.00,050620,0.0,E,D*3A
$GPGGA,080310.00,2753.1521712,N,11251.2192836,E,5,24,1.0,100.114,M,-16.632,M,0.0,*60
$GPRMC,080311.00,A,2753.1521779,N,11251.2192914,E,0.03,0.00,050620,0.0,E,D*36
$GPGGA,080311.00,2753.1521779,N,11251.2192914,E,5,24,1.0,100.036,M,-16.632,M,0.0,*6C
$GPRMC,080312.00,A,2753.1521844,N,11251.2193507,E,0.02,0.00,050620,0.0,E,D*3A
$GPGGA,080312.00,2753.1521844,N,11251.2193507,E,5,24,1.0,100.314,M,-16.632,M,0.0,*62
$GPRMC,080313.00,A,2753.1521317,N,11251.2193720,E,0.02,0.00,050620,0.0,E,D*31
$GPGGA,080313.00,2753.1521317,N,11251.2193720,E,5,24,1.0,100.406,M,-16.632,M,0.0,*6D
$GPRMC,080314.00,A,2753.1520807,N,11251.2193608,E,0.04,0.00,050620,0.0,E,D*30
$GPGGA,080314.00,2753.1520807,N,11251.2193608,E,5,24,1.0,100.500,M,-16.632,M,0.0,*6D
$GPRMC,080315.00,A,2753.1521083,N,11251.2194157,E,0.03,0.00,050620,0.0,E,D*39
$GPGGA,080315.00,2753.1521083,N,11251.2194157,E,5,24,1.0,100.575,M,-16.632,M,0.0,*61
$GPRMC,080316.00,A,2753.1521914,N,11251.2196045,E,0.01,0.00,050620,0.0,E,D*3F
$GPGGA,080316.00,2753.1521914,N,11251.2196045,E,4,23,1.0,101.530,M,-16.632,M,0.0,*63
$GPRMC,080317.00,A,2753.1520595,N,11251.2195034,E,0.03,0.00,050620,0.0,E,D*3D
$GPGGA,080317.00,2753.1520595,N,11251.2195034,E,5,24,1.0,100.470,M,-16.632,M,0.0,*61
$GPRMC,080318.00,A,2753.1521315,N,11251.2194208,E,0.03,0.00,050620,0.0,E,D*31
$GPGGA,080318.00,2753.1521315,N,11251.2194208,E,5,24,1.0,100.400,M,-16.632,M,0.0,*6A
$GPRMC,080319.00,A,2753.1520951,N,11251.2194022,E,0.04,0.00,050620,0.0,E,D*36
$GPGGA,080319.00,2753.1520951,N,11251.2194022,E,5,24,1.0,100.840,M,-16.632,M,0.0,*62
$GPRMC,080320.00,A,2753.1521636,N,11251.2193961,E,0.04,0.00,050620,0.0,E,D*3A
$GPGGA,080320.00,2753.1521636,N,11251.2193961,E,5,24,1.0,100.537,M,-16.632,M,0.0,*63
$GPRMC,080321.00,A,2753.1522641,N,11251.2195028,E,0.01,0.00,050620,0.0,E,D*3F
$GPGGA,080321.00,2753.1522641,N,11251.2195028,E,5,23,1.0,100.578,M,-16.632,M,0.0,*6F
$GPRMC,080322.00,A,2753.1522531,N,11251.2195166,E,0.03,0.00,050620,0.0,E,D*31
$GPGGA,080322.00,2753.1522531,N,11251.2195166,E,5,24,1.0,100.273,M,-16.632,M,0.0,*68
$GPRMC,080323.00,A,2753.1522669,N,11251.2196168,E,0.02,0.00,050620,0.0,E,D*32
$GPGGA,080323.00,2753.1522669,N,11251.2196168,E,5,24,1.0,100.433,M,-16.632,M,0.0,*68
$GPRMC,080324.00,A,2753.1522128,N,11251.2196027,E,0.02,0.00,050620,0.0,E,D*3D
$GPGGA,080324.00,2753.1522128,N,11251.2196027,E,5,24,1.0,100.319,M,-16.632,M,0.0,*68
$GPRMC,080325.00,A,2753.1522379,N,11251.2196032,E,0.02,0.00,050620,0.0,E,D*3E
$GPGGA,080325.00,2753.1522379,N,11251.2196032,E,5,24,1.0,100.335,M,-16.632,M,0.0,*65
$GPRMC,080326.00,A,2753.1521904,N,11251.2196031,E,0.03,0.00,050620,0.0,E,D*3C
$GPGGA,080326.00,2753.1521904,N,11251.2196031,E,4,24,1.0,101.536,M,-16.632,M,0.0,*63
$GPRMC,080327.00,A,2753.1521916,N,11251.2196037,E,0.04,0.00,050620,0.0,E,D*3F
$GPGGA,080327.00,2753.1521916,N,11251.2196037,E,4,24,1.0,101.532,M,-16.632,M,0.0,*63
$GPRMC,080328.00,A,2753.1521897,N,11251.2195103,E,0.02,0.00,050620,0.0,E,D*3B
$GPGGA,080328.00,2753.1521897,N,11251.2195103,E,5,24,1.0,100.346,M,-16.632,M,0.0,*64
$GPRMC,080329.00,A,2753.1522041,N,11251.2195446,E,0.04,0.00,050620,0.0,E,D*38
$GPGGA,080329.00,2753.1522041,N,11251.2195446,E,5,24,1.0,100.223,M,-16.632,M,0.0,*63
$GPRMC,080330.00,A,2753.1522073,N,11251.2195722,E,0.06,0.00,050620,0.0,E,D*32
$GPGGA,080330.00,2753.1522073,N,11251.2195722,E,5,24,1.0,100.434,M,-16.632,M,0.0,*6B
$GPRMC,080331.00,A,2753.1521912,N,11251.2196038,E,0.03,0.00,050620,0.0,E,D*34
$GPGGA,080331.00,2753.1521912,N,11251.2196038,E,4,24,1.0,101.533,M,-16.632,M,0.0,*6E
$GPRMC,080332.00,A,2753.1522128,N,11251.2194601,E,0.02,0.00,050620,0.0,E,D*3A
$GPGGA,080332.00,2753.1522128,N,11251.2194601,E,5,24,1.0,100.198,M,-16.632,M,0.0,*64
$GPRMC,080333.00,A,2753.1522712,N,11251.2194671,E,0.05,0.00,050620,0.0,E,D*34
$GPGGA,080333.00,2753.1522712,N,11251.2194671,E,5,24,1.0,100.421,M,-16.632,M,0.0,*6A
$GPRMC,080334.00,A,2753.1522556,N,11251.2193920,E,0.01,0.00,050620,0.0,E,D*39
$GPGGA,080334.00,2753.1522556,N,11251.2193920,E,5,24,1.0,100.292,M,-16.632,M,0.0,*6D
$GPRMC,080335.00,A,2753.1522446,N,11251.2193907,E,0.04,0.00,050620,0.0,E,D*38
$GPGGA,080335.00,2753.1522446,N,11251.2193907,E,5,24,1.0,100.514,M,-16.632,M,0.0,*60
$GPRMC,080336.00,A,2753.1523304,N,11251.2193957,E,0.04,0.00,050620,0.0,E,D*3E
$GPGGA,080336.00,2753.1523304,N,11251.2193957,E,5,24,1.0,100.451,M,-16.632,M,0.0,*66
$GPRMC,080337.00,A,2753.1523163,N,11251.2194445,E,0.01,0.00,050620,0.0,E,D*30
$GPGGA,080337.00,2753.1523163,N,11251.2194445,E,5,24,1.0,100.682,M,-16.632,M,0.0,*61
$GPRMC,080338.00,A,2753.1521902,N,11251.2196032,E,0.03,0.00,050620,0.0,E,D*36
$GPGGA,080338.00,2753.1521902,N,11251.2196032,E,4,24,1.0,101.533,M,-16.632,M,0.0,*6C
$GPRMC,080339.00,A,2753.1521913,N,11251.2196035,E,0.03,0.00,050620,0.0,E,D*30
$GPGGA,080339.00,2753.1521913,N,11251.2196035,E,4,24,1.0,101.530,M,-16.632,M,0.0,*69
$GPRMC,080340.00,A,2753.1522936,N,11251.2193858,E,0.00,0.00,050620,0.0,E,D*3F
$GPGGA,080340.00,2753.1522936,N,11251.2193858,E,5,24,1.0,100.696,M,-16.632,M,0.0,*6A
$GPRMC,080341.00,A,2753.1522446,N,11251.2193185,E,0.03,0.00,050620,0.0,E,D*3E
$GPGGA,080341.00,2753.1522446,N,11251.2193185,E,5,24,1.0,100.705,M,-16.632,M,0.0,*63
$GPRMC,080342.00,A,2753.1522932,N,11251.2192911,E,0.01,0.00,050620,0.0,E,D*35
$GPGGA,080342.00,2753.1522932,N,11251.2192911,E,5,24,1.0,100.547,M,-16.632,M,0.0,*6E
$GPRMC,080343.00,A,2753.1522898,N,11251.2193276,E,0.05,0.00,050620,0.0,E,D*3A
$GPGGA,080343.00,2753.1522898,N,11251.2193276,E,5,24,1.0,100.691,M,-16.632,M,0.0,*6D
$GPRMC,080344.00,A,2753.1521906,N,11251.2196040,E,0.04,0.00,050620,0.0,E,D*3B
$GPGGA,080344.00,2753.1521906,N,11251.2196040,E,4,24,1.0,101.534,M,-16.632,M,0.0,*61
$GPRMC,080345.00,A,2753.1521904,N,11251.2196037,E,0.02,0.00,050620,0.0,E,D*3E
$GPGGA,080345.00,2753.1521904,N,11251.2196037,E,4,24,1.0,101.531,M,-16.632,M,0.0,*67
$GPRMC,080346.00,A,2753.1524091,N,11251.2194510,E,0.03,0.00,050620,0.0,E,D*3E
$GPGGA,080346.00,2753.1524091,N,11251.2194510,E,5,24,1.0,100.633,M,-16.632,M,0.0,*67
$GPRMC,080347.00,A,2753.1521908,N,11251.2196036,E,0.03,0.00,050620,0.0,E,D*30
$GPGGA,080347.00,2753.1521908,N,11251.2196036,E,4,24,1.0,101.537,M,-16.632,M,0.0,*6E
$GPRMC,080348.00,A,2753.1524196,N,11251.2193084,E,0.02,0.00,050620,0.0,E,D*38
$GPGGA,080348.00,2753.1524196,N,11251.2193084,E,5,24,1.0,100.731,M,-16.632,M,0.0,*63
$GPRMC,080349.00,A,2753.1524471,N,11251.2193200,E,0.03,0.00,050620,0.0,E,D*3A
$GPGGA,080349.00,2753.1524471,N,11251.2193200,E,5,24,1.0,100.799,M,-16.632,M,0.0,*62
$GPRMC,080350.00,A,2753.1524777,N,11251.2193429,E,0.04,0.00,050620,0.0,E,D*3D
$GPGGA,080350.00,2753.1524777,N,11251.2193429,E,5,24,1.0,101.333,M,-16.632,M,0.0,*67
$GPRMC,080351.00,A,2753.1524495,N,11251.2194220,E,0.02,0.00,050620,0.0,E,D*3D
$GPGGA,080351.00,2753.1524495,N,11251.2194220,E,5,24,1.0,101.143,M,-16.632,M,0.0,*64
$GPRMC,080352.00,A,2753.1523737,N,11251.2194178,E,0.02,0.00,050620,0.0,E,D*3C
$GPGGA,080352.00,2753.1523737,N,11251.2194178,E,5,24,1.0,101.576,M,-16.632,M,0.0,*67
$GPRMC,080353.00,A,2753.1521908,N,11251.2196027,E,0.04,0.00,050620,0.0,E,D*32
$GPGGA,080353.00,2753.1521908,N,11251.2196027,E,4,24,1.0,101.535,M,-16.632,M,0.0,*69
$GPRMC,080354.00,A,2753.1521899,N,11251.2196028,E,0.03,0.00,050620,0.0,E,D*34
$GPGGA,080354.00,2753.1521899,N,11251.2196028,E,4,24,1.0,101.537,M,-16.632,M,0.0,*6A
$GPRMC,080355.00,A,2753.1523745,N,11251.2192827,E,0.03,0.00,050620,0.0,E,D*3A
$GPGGA,080355.00,2753.1523745,N,11251.2192827,E,5,24,1.0,100.790,M,-16.632,M,0.0,*6B
$GPRMC,080356.00,A,2753.1523485,N,11251.2192322,E,0.04,0.00,050620,0.0,E,D*3F
$GPGGA,080356.00,2753.1523485,N,11251.2192322,E,5,24,1.0,100.439,M,-16.632,M,0.0,*69
$GPRMC,080357.00,A,2753.1523144,N,11251.2191983,E,0.01,0.00,050620,0.0,E,D*31
$GPGGA,080357.00,2753.1523144,N,11251.2191983,E,5,24,1.0,100.587,M,-16.632,M,0.0,*66
$GPRMC,080358.00,A,2753.1523447,N,11251.2192056,E,0.01,0.00,050620,0.0,E,D*3A
$GPGGA,080358.00,2753.1523447,N,11251.2192056,E,5,24,1.0,100.853,M,-16.632,M,0.0,*69
$GPRMC,080359.00,A,2753.1523648,N,11251.2192304,E,0.02,0.00,050620,0.0,E,D*31
$GPGGA,080359.00,2753.1523648,N,11251.2192304,E,5,24,1.0,100.927,M,-16.632,M,0.0,*63
$GPRMC,080400.00,A,2753.1521916,N,11251.2196041,E,0.05,0.00,050620,0.0,E,D*3D
$GPGGA,080400.00,2753.1521916,N,11251.2196041,E,4,23,1.0,101.530,M,-16.632,M,0.0,*65
$GPRMC,080401.00,A,2753.1523648,N,11251.2193042,E,0.04,0.00,050620,0.0,E,D*3D
$GPGGA,080401.00,2753.1523648,N,11251.2193042,E,5,23,1.0,100.770,M,-16.632,M,0.0,*62
$GPRMC,080402.00,A,2753.1524049,N,11251.2193283,E,0.03,0.00,050620,0.0,E,D*36
$GPGGA,080402.00,2753.1524049,N,11251.2193283,E,5,23,1.0,100.750,M,-16.632,M,0.0,*6C
$GPRMC,080403.00,A,2753.1523779,N,11251.2193209,E,0.03,0.00,050620,0.0,E,D*36
$GPGGA,080403.00,2753.1523779,N,11251.2193209,E,5,23,1.0,100.905,M,-16.632,M,0.0,*62
$GPRMC,080404.00,A,2753.1523612,N,11251.2193122,E,0.01,0.00,050620,0.0,E,D*35
$GPGGA,080404.00,2753.1523612,N,11251.2193122,E,5,24,1.0,101.260,M,-16.632,M,0.0,*6D
$GPRMC,080405.00,A,2753.1524440,N,11251.2192934,E,0.02,0.00,050620,0.0,E,D*3B
$GPGGA,080405.00,2753.1524440,N,11251.2192934,E,5,24,1.0,100.312,M,-16.632,M,0.0,*65
$GPRMC,080406.00,A,2753.1523538,N,11251.2193092,E,0.05,0.00,050620,0.0,E,D*32
$GPGGA,080406.00,2753.1523538,N,11251.2193092,E,5,24,1.0,100.665,M,-16.632,M,0.0,*6E
$GPRMC,080407.00,A,2753.1523234,N,11251.2194081,E,0.05,0.00,050620,0.0,E,D*3D
$GPGGA,080407.00,2753.1523234,N,11251.2194081,E,5,24,1.0,100.298,M,-16.632,M,0.0,*67
$GPRMC,080408.00,A,2753.1521917,N,11251.2196047,E,0.03,0.00,050620,0.0,E,D*34
$GPGGA,080408.00,2753.1521917,N,11251.2196047,E,4,24,1.0,101.526,M,-16.632,M,0.0,*6A
$GPRMC,080409.00,A,2753.1523328,N,11251.2194108,E,0.03,0.00,050620,0.0,E,D*39
$GPGGA,080409.00,2753.1523328,N,11251.2194108,E,5,24,1.0,100.366,M,-16.632,M,0.0,*65
$GPRMC,080410.00,A,2753.1523664,N,11251.2194493,E,0.04,0.00,050620,0.0,E,D*3C
$GPGGA,080410.00,2753.1523664,N,11251.2194493,E,5,24,1.0,100.103,M,-16.632,M,0.0,*66
$GPRMC,080411.00,A,2753.1523303,N,11251.2194927,E,0.03,0.00,050620,0.0,E,D*3C
$GPGGA,080411.00,2753.1523303,N,11251.2194927,E,5,24,1.0,100.245,M,-16.632,M,0.0,*60
$GPRMC,080412.00,A,2753.1524191,N,11251.2195109,E,0.04,0.00,050620,0.0,E,D*33
$GPGGA,080412.00,2753.1524191,N,11251.2195109,E,5,24,1.0,100.311,M,-16.632,M,0.0,*68
$GPRMC,080413.00,A,2753.1524385,N,11251.2194278,E,0.04,0.00,050620,0.0,E,D*31
$GPGGA,080413.00,2753.1524385,N,11251.2194278,E,5,24,1.0,100.129,M,-16.632,M,0.0,*63
$GPRMC,080414.00,A,2753.1524506,N,11251.2193864,E,0.04,0.00,050620,0.0,E,D*3B
$GPGGA,080414.00,2753.1524506,N,11251.2193864,E,5,24,1.0,99.975,M,-16.632,M,0.0,*59
$GPRMC,080415.00,A,2753.1524313,N,11251.2194255,E,0.03,0.00,050620,0.0,E,D*30
$GPGGA,080415.00,2753.1524313,N,11251.2194255,E,5,24,1.0,100.315,M,-16.632,M,0.0,*68
$GPRMC,080416.00,A,2753.1523822,N,11251.2193618,E,0.05,0.00,050620,0.0,E,D*31
$GPGGA,080416.00,2753.1523822,N,11251.2193618,E,5,24,1.0,100.437,M,-16.632,M,0.0,*68
$GPRMC,080417.00,A,2753.1524315,N,11251.2194035,E,0.03,0.00,050620,0.0,E,D*30
$GPGGA,080417.00,2753.1524315,N,11251.2194035,E,5,24,1.0,100.252,M,-16.632,M,0.0,*6A
$GPRMC,080418.00,A,2753.1524633,N,11251.2193610,E,0.04,0.00,050620,0.0,E,D*3F
$GPGGA,080418.00,2753.1524633,N,11251.2193610,E,5,24,1.0,100.093,M,-16.632,M,0.0,*6D
$GPRMC,080419.00,A,2753.1524015,N,11251.2194048,E,0.04,0.00,050620,0.0,E,D*30
$GPGGA,080419.00,2753.1524015,N,11251.2194048,E,5,24,1.0,100.051,M,-16.632,M,0.0,*6C
$GPRMC,080420.00,A,2753.1523207,N,11251.2194138,E,0.04,0.00,050620,0.0,E,D*3A
$GPGGA,080420.00,2753.1523207,N,11251.2194138,E,5,24,1.0,100.531,M,-16.632,M,0.0,*65
$GPRMC,080421.00,A,2753.1521899,N,11251.2196033,E,0.01,0.00,050620,0.0,E,D*39
$GPGGA,080421.00,2753.1521899,N,11251.2196033,E,4,24,1.0,101.533,M,-16.632,M,0.0,*61
$GPRMC,080422.00,A,2753.1521892,N,11251.2196040,E,0.05,0.00,050620,0.0,E,D*31
$GPGGA,080422.00,2753.1521892,N,11251.2196040,E,4,24,1.0,101.534,M,-16.632,M,0.0,*6A
$GPRMC,080423.00,A,2753.1523628,N,11251.2194346,E,0.03,0.00,050620,0.0,E,D*3C
$GPGGA,080423.00,2753.1523628,N,11251.2194346,E,5,24,1.0,100.436,M,-16.632,M,0.0,*62
$GPRMC,080424.00,A,2753.1523538,N,11251.2193829,E,0.03,0.00,050620,0.0,E,D*3C
$GPGGA,080424.00,2753.1523538,N,11251.2193829,E,5,24,1.0,100.855,M,-16.632,M,0.0,*6B
$GPRMC,080425.00,A,2753.1521919,N,11251.2196041,E,0.02,0.00,050620,0.0,E,D*32
$GPGGA,080425.00,2753.1521919,N,11251.2196041,E,4,23,1.0,101.527,M,-16.632,M,0.0,*6B
$GPRMC,080426.00,A,2753.1523241,N,11251.2194055,E,0.02,0.00,050620,0.0,E,D*32
$GPGGA,080426.00,2753.1523241,N,11251.2194055,E,5,24,1.0,100.010,M,-16.632,M,0.0,*6D
$GPRMC,080427.00,A,2753.1522509,N,11251.2193297,E,0.04,0.00,050620,0.0,E,D*34
$GPGGA,080427.00,2753.1522509,N,11251.2193297,E,5,24,1.0,100.133,M,-16.632,M,0.0,*6D
$GPRMC,080428.00,A,2753.1521971,N,11251.2193163,E,0.04,0.00,050620,0.0,E,D*33
$GPGGA,080428.00,2753.1521971,N,11251.2193163,E,5,24,1.0,100.159,M,-16.632,M,0.0,*66
$GPRMC,080429.00,A,2753.1521880,N,11251.2193304,E,0.03,0.00,050620,0.0,E,D*39
$GPGGA,080429.00,2753.1521880,N,11251.2193304,E,5,24,1.0,99.845,M,-16.632,M,0.0,*5E
$GPRMC,080430.00,A,2753.1521666,N,11251.2193155,E,0.02,0.00,050620,0.0,E,D*30
$GPGGA,080430.00,2753.1521666,N,11251.2193155,E,5,24,1.0,99.945,M,-16.632,M,0.0,*57
$GPRMC,080431.00,A,2753.1521883,N,11251.2194083,E,0.01,0.00,050620,0.0,E,D*3A
$GPGGA,080431.00,2753.1521883,N,11251.2194083,E,5,24,1.0,100.075,M,-16.632,M,0.0,*65
$GPRMC,080432.00,A,2753.1521884,N,11251.2194235,E,0.03,0.00,050620,0.0,E,D*33
$GPGGA,080432.00,2753.1521884,N,11251.2194235,E,5,24,1.0,99.701,M,-16.632,M,0.0,*5B
$GPRMC,080433.00,A,2753.1521708,N,11251.2194433,E,0.05,0.00,050620,0.0,E,D*3F
$GPGGA,080433.00,2753.1521708,N,11251.2194433,E,5,24,1.0,99.640,M,-16.632,M,0.0,*55
$GPRMC,080434.00,A,2753.1521135,N,11251.2194226,E,0.04,0.00,050620,0.0,E,D*33
$GPGGA,080434.00,2753.1521135,N,11251.2194226,E,5,24,1.0,100.029,M,-16.632,M,0.0,*60
$GPRMC,080435.00,A,2753.1521416,N,11251.2193462,E,0.02,0.00,050620,0.0,E,D*31
$GPGGA,080435.00,2753.1521416,N,11251.2193462,E,5,24,1.0,100.152,M,-16.632,M,0.0,*69
$GPRMC,080436.00,A,2753.1521104,N,11251.2193662,E,0.04,0.00,050620,0.0,E,D*30
$GPGGA,080436.00,2753.1521104,N,11251.2193662,E,5,24,1.0,100.375,M,-16.632,M,0.0,*69
$GPRMC,080437.00,A,2753.1520971,N,11251.2194057,E,0.02,0.00,050620,0.0,E,D*3B
$GPGGA,080437.00,2753.1520971,N,11251.2194057,E,5,24,1.0,100.253,M,-16.632,M,0.0,*61
$GPRMC,080438.00,A,2753.1521041,N,11251.2194280,E,0.02,0.00,050620,0.0,E,D*37
$GPGGA,080438.00,2753.1521041,N,11251.2194280,E,5,24,1.0,100.018,M,-16.632,M,0.0,*60
$GPRMC,080439.00,A,2753.1521122,N,11251.2194421,E,0.06,0.00,050620,0.0,E,D*3B
