$GPRMC,075840.00,A,2753.1524399,N,11251.2200394,E,0.06,213.94,050620,0.0,E,D*3E
$GPGGA,075840.00,2753.1524399,N,11251.2200394,E,4,14,1.0,99.574,M,-16.632,M,0.0,*5C
$GPRMC,075841.00,A,2753.1525356,N,11251.2200311,E,1.01,213.94,050620,0.0,E,D*36
$GPGGA,075841.00,2753.1525356,N,11251.2200311,E,5,14,1.0,99.226,M,-16.632,M,0.0,*53
$GPRMC,075842.00,A,2753.1524855,N,11251.2199986,E,3.33,185.01,050620,0.0,E,D*38
$GPGGA,075842.00,2753.1524855,N,11251.2199986,E,5,14,1.0,100.300,M,-16.632,M,0.0,*6A
$GPRMC,075843.00,A,2753.1525157,N,11251.2199768,E,1.33,185.01,050620,0.0,E,D*3F
$GPGGA,075843.00,2753.1525157,N,11251.2199768,E,5,14,1.0,99.925,M,-16.632,M,0.0,*53
$GPRMC,075844.00,A,2753.1525169,N,11251.2199842,E,1.30,185.01,050620,0.0,E,D*31
$GPGGA,075844.00,2753.1525169,N,11251.2199842,E,5,14,1.0,100.482,M,-16.632,M,0.0,*6F
$GPRMC,075845.00,A,2753.1524799,N,11251.2200765,E,0.69,185.01,050620,0.0,E,D*3C
$GPGGA,075845.00,2753.1524799,N,11251.2200765,E,5,14,1.0,100.390,M,-16.632,M,0.0,*6B
$GPRMC,075846.00,A,2753.1524689,N,11251.2199627,E,0.97,185.01,050620,0.0,E,D*3A
$GPGGA,075846.00,2753.1524689,N,11251.2199627,E,5,14,1.0,100.340,M,-16.632,M,0.0,*61
$GPRMC,075847.00,A,2753.1524782,N,11251.2200497,E,1.19,185.01,050620,0.0,E,D*3C
$GPGGA,075847.00,2753.1524782,N,11251.2200497,E,5,14,1.0,100.563,M,-16.632,M,0.0,*67
$GPRMC,075848.00,A,2753.1525305,N,11251.2199707,E,1.01,185.01,050620,0.0,E,D*39
$GPGGA,075848.00,2753.1525305,N,11251.2199707,E,5,14,1.0,100.556,M,-16.632,M,0.0,*6D
$GPRMC,075849.00,A,2753.1525307,N,11251.2199185,E,1.25,185.01,050620,0.0,E,D*30
$GPGGA,075849.00,2753.1525307,N,11251.2199185,E,5,14,1.0,100.135,M,-16.632,M,0.0,*63
$GPRMC,075850.00,A,2753.1524576,N,11251.2199418,E,1.09,185.01,050620,0.0,E,D*36
$GPGGA,075850.00,2753.1524576,N,11251.2199418,E,5,14,1.0,100.457,M,-16.632,M,0.0,*6A
$GPRMC,075851.00,A,2753.1525037,N,11251.2198947,E,1.11,185.01,050620,0.0,E,D*39
$GPGGA,075851.00,2753.1525037,N,11251.2198947,E,5,14,1.0,100.081,M,-16.632,M,0.0,*63
$GPRMC,075852.00,A,2753.1525694,N,11251.2198714,E,0.51,185.01,050620,0.0,E,D*38
$GPGGA,075852.00,2753.1525694,N,11251.2198714,E,5,14,1.0,99.891,M,-16.632,M,0.0,*5F
$GPRMC,075853.00,A,2753.1525247,N,11251.2199084,E,1.31,185.01,050620,0.0,E,D*3B
$GPGGA,075853.00,2753.1525247,N,11251.2199084,E,5,14,1.0,100.286,M,-16.632,M,0.0,*66
$GPRMC,075854.00,A,2753.1525638,N,11251.2199051,E,0.95,185.01,050620,0.0,E,D*37
$GPGGA,075854.00,2753.1525638,N,11251.2199051,E,5,14,1.0,99.996,M,-16.632,M,0.0,*5E
$GPRMC,075855.00,A,2753.1525291,N,11251.2199608,E,0.61,185.01,050620,0.0,E,D*30
$GPGGA,075855.00,2753.1525291,N,11251.2199608,E,5,14,1.0,100.111,M,-16.632,M,0.0,*64
$GPRMC,075856.00,A,2753.1526004,N,11251.2200287,E,0.90,185.01,050620,0.0,E,D*30
$GPGGA,075856.00,2753.1526004,N,11251.2200287,E,5,14,1.0,99.861,M,-16.632,M,0.0,*55
$GPRMC,075857.00,A,2753.1525142,N,11251.2200924,E,1.42,185.01,050620,0.0,E,D*3D
$GPGGA,075857.00,2753.1525142,N,11251.2200924,E,5,14,1.0,100.254,M,-16.632,M,0.0,*6B
$GPRMC,075858.00,A,2753.1525028,N,11251.2200491,E,1.94,185.01,050620,0.0,E,D*37
$GPGGA,075858.00,2753.1525028,N,11251.2200491,E,5,14,1.0,100.962,M,-16.632,M,0.0,*64
$GPRMC,075859.00,A,2753.1525160,N,11251.2198164,E,2.77,255.81,050620,0.0,E,D*3E
$GPGGA,075859.00,2753.1525160,N,11251.2198164,E,5,14,1.0,100.186,M,-16.632,M,0.0,*67
$GPRMC,075900.00,A,2753.1524750,N,11251.2197420,E,0.46,255.81,050620,0.0,E,D*3D
$GPGGA,075900.00,2753.1524750,N,11251.2197420,E,5,14,1.0,100.004,M,-16.632,M,0.0,*6F
$GPRMC,075901.00,A,2753.1524107,N,11251.2198151,E,2.06,133.95,050620,0.0,E,D*34
$GPGGA,075901.00,2753.1524107,N,11251.2198151,E,5,14,1.0,100.626,M,-16.632,M,0.0,*60
$GPRMC,075902.00,A,2753.1525160,N,11251.2197996,E,2.77,337.73,050620,0.0,E,D*33
$GPGGA,075902.00,2753.1525160,N,11251.2197996,E,5,14,1.0,99.692,M,-16.632,M,0.0,*51
$GPRMC,075903.00,A,2753.1525148,N,11251.2198702,E,0.64,337.73,050620,0.0,E,D*34
$GPGGA,075903.00,2753.1525148,N,11251.2198702,E,5,14,1.0,99.581,M,-16.632,M,0.0,*57
$GPRMC,075904.00,A,2753.1524055,N,11251.2198289,E,3.47,229.24,050620,0.0,E,D*37
$GPGGA,075904.00,2753.1524055,N,11251.2198289,E,5,14,1.0,100.721,M,-16.632,M,0.0,*63
$GPRMC,075905.00,A,2753.1523822,N,11251.2199410,E,0.99,229.24,050620,0.0,E,D*3E
$GPGGA,075905.00,2753.1523822,N,11251.2199410,E,5,14,1.0,101.022,M,-16.632,M,0.0,*6F
$GPRMC,075906.00,A,2753.1524411,N,11251.2198278,E,1.88,229.24,050620,0.0,E,D*3E
$GPGGA,075906.00,2753.1524411,N,11251.2198278,E,5,14,1.0,100.674,M,-16.632,M,0.0,*6A
$GPRMC,075907.00,A,2753.1524874,N,11251.2199229,E,1.23,229.24,050620,0.0,E,D*34
$GPGGA,075907.00,2753.1524874,N,11251.2199229,E,5,14,1.0,100.826,M,-16.632,M,0.0,*68
$GPRMC,075908.00,A,2753.1524643,N,11251.2199642,E,2.65,238.51,050620,0.0,E,D*3B
$GPGGA,075908.00,2753.1524643,N,11251.2199642,E,5,14,1.0,101.773,M,-16.632,M,0.0,*6A
$GPRMC,075909.00,A,2753.1523849,N,11251.2200005,E,0.63,238.51,050620,0.0,E,D*3B
$GPGGA,075909.00,2753.1523849,N,11251.2200005,E,5,14,1.0,102.031,M,-16.632,M,0.0,*6C
$GPRMC,075910.00,A,2753.1525018,N,11251.2200666,E,2.49,10.14,050620,0.0,E,D*09
$GPGGA,075910.00,2753.1525018,N,11251.2200666,E,5,14,1.0,101.334,M,-16.632,M,0.0,*68
$GPRMC,075911.00,A,2753.1525539,N,11251.2200970,E,0.97,10.14,050620,0.0,E,D*07
$GPGGA,075911.00,2753.1525539,N,11251.2200970,E,5,14,1.0,101.627,M,-16.632,M,0.0,*60
$GPRMC,075912.00,A,2753.1525104,N,11251.2201171,E,2.40,162.29,050620,0.0,E,D*34
$GPGGA,075912.00,2753.1525104,N,11251.2201171,E,5,14,1.0,102.468,M,-16.632,M,0.0,*6B
$GPRMC,075913.00,A,2753.1525052,N,11251.2200343,E,1.47,162.29,050620,0.0,E,D*31
$GPGGA,075913.00,2753.1525052,N,11251.2200343,E,5,14,1.0,102.116,M,-16.632,M,0.0,*66
$GPRMC,075914.00,A,2753.1524336,N,11251.2199907,E,1.26,162.29,050620,0.0,E,D*38
$GPGGA,075914.00,2753.1524336,N,11251.2199907,E,5,14,1.0,102.626,M,-16.632,M,0.0,*6C
$GPRMC,075915.00,A,2753.1523964,N,11251.2199684,E,0.86,162.29,050620,0.0,E,D*3C
$GPGGA,075915.00,2753.1523964,N,11251.2199684,E,5,14,1.0,102.347,M,-16.632,M,0.0,*61
$GPRMC,075916.00,A,2753.1524107,N,11251.2198748,E,0.60,162.29,050620,0.0,E,D*3D
$GPGGA,075916.00,2753.1524107,N,11251.2198748,E,5,14,1.0,102.461,M,-16.632,M,0.0,*6B
$GPRMC,075917.00,A,2753.1524759,N,11251.2198918,E,0.49,162.29,050620,0.0,E,D*31
$GPGGA,075917.00,2753.1524759,N,11251.2198918,E,5,14,1.0,102.508,M,-16.632,M,0.0,*62
$GPRMC,075918.00,A,2753.1524093,N,11251.2198828,E,0.69,162.29,050620,0.0,E,D*3F
$GPGGA,075918.00,2753.1524093,N,11251.2198828,E,5,14,1.0,102.465,M,-16.632,M,0.0,*64
$GPRMC,075919.00,A,2753.1525258,N,11251.2199333,E,1.77,162.29,050620,0.0,E,D*34
$GPGGA,075919.00,2753.1525258,N,11251.2199333,E,5,14,1.0,101.949,M,-16.632,M,0.0,*61
$GPRMC,075920.00,A,2753.1525616,N,11251.2199063,E,1.02,162.29,050620,0.0,E,D*34
$GPGGA,075920.00,2753.1525616,N,11251.2199063,E,5,14,1.0,102.205,M,-16.632,M,0.0,*63
$GPRMC,075921.00,A,2753.1525168,N,11251.2199362,E,0.79,162.29,050620,0.0,E,D*34
$GPGGA,075921.00,2753.1525168,N,11251.2199362,E,5,14,1.0,102.430,M,-16.632,M,0.0,*6E
$GPRMC,075922.00,A,2753.1525359,N,11251.2198690,E,0.95,162.29,050620,0.0,E,D*3C
$GPGGA,075922.00,2753.1525359,N,11251.2198690,E,5,14,1.0,102.216,M,-16.632,M,0.0,*66
$GPRMC,075923.00,A,2753.1524906,N,11251.2198193,E,1.93,162.29,050620,0.0,E,D*3F
$GPGGA,075923.00,2753.1524906,N,11251.2198193,E,5,14,1.0,101.518,M,-16.632,M,0.0,*68
$GPRMC,075924.00,A,2753.1523703,N,11251.2198825,E,1.03,162.29,050620,0.0,E,D*39
$GPGGA,075924.00,2753.1523703,N,11251.2198825,E,5,14,1.0,101.699,M,-16.632,M,0.0,*6D
$GPRMC,075925.00,A,2753.1523866,N,11251.2197974,E,2.76,301.01,050620,0.0,E,D*32
$GPGGA,075925.00,2753.1523866,N,11251.2197974,E,5,14,1.0,102.614,M,-16.632,M,0.0,*6C
$GPRMC,075926.00,A,2753.1523177,N,11251.2198352,E,1.23,301.01,050620,0.0,E,D*3A
$GPGGA,075926.00,2753.1523177,N,11251.2198352,E,5,14,1.0,102.539,M,-16.632,M,0.0,*6B
$GPRMC,075927.00,A,2753.1523498,N,11251.2198033,E,2.00,324.77,050620,0.0,E,D*3F
$GPGGA,075927.00,2753.1523498,N,11251.2198033,E,5,14,1.0,101.954,M,-16.632,M,0.0,*6E
$GPRMC,075928.00,A,2753.1522974,N,11251.2198029,E,1.86,324.77,050620,0.0,E,D*38
$GPGGA,075928.00,2753.1522974,N,11251.2198029,E,5,14,1.0,102.518,M,-16.632,M,0.0,*63
$GPRMC,075929.00,A,2753.1522141,N,11251.2198607,E,0.95,324.77,050620,0.0,E,D*3E
$GPGGA,075929.00,2753.1522141,N,11251.2198607,E,5,14,1.0,102.198,M,-16.632,M,0.0,*6A
$GPRMC,075930.00,A,2753.1522184,N,11251.2198414,E,0.44,324.77,050620,0.0,E,D*33
$GPGGA,075930.00,2753.1522184,N,11251.2198414,E,5,14,1.0,102.152,M,-16.632,M,0.0,*6D
$GPRMC,075931.00,A,2753.1523070,N,11251.2198331,E,1.51,324.77,050620,0.0,E,D*3C
$GPGGA,075931.00,2753.1523070,N,11251.2198331,E,5,14,1.0,101.574,M,-16.632,M,0.0,*64
$GPRMC,075932.00,A,2753.1523646,N,11251.2198330,E,0.32,324.77,050620,0.0,E,D*39
$GPGGA,075932.00,2753.1523646,N,11251.2198330,E,5,14,1.0,101.568,M,-16.632,M,0.0,*68
$GPRMC,075933.00,A,2753.1523182,N,11251.2197698,E,1.35,324.77,050620,0.0,E,D*39
$GPGGA,075933.00,2753.1523182,N,11251.2197698,E,5,14,1.0,101.962,M,-16.632,M,0.0,*68
$GPRMC,075934.00,A,2753.1523337,N,11251.2196465,E,0.58,324.77,050620,0.0,E,D*39
$GPGGA,075934.00,2753.1523337,N,11251.2196465,E,5,14,1.0,101.959,M,-16.632,M,0.0,*6A
$GPRMC,075935.00,A,2753.1524391,N,11251.2196834,E,1.76,324.77,050620,0.0,E,D*36
$GPGGA,075935.00,2753.1524391,N,11251.2196834,E,5,14,1.0,101.417,M,-16.632,M,0.0,*6F
$GPRMC,075936.00,A,2753.1523582,N,11251.2196327,E,2.18,217.97,050620,0.0,E,D*3B
$GPGGA,075936.00,2753.1523582,N,11251.2196327,E,5,14,1.0,102.075,M,-16.632,M,0.0,*65
$GPRMC,075937.00,A,2753.1523499,N,11251.2196816,E,2.26,69.04,050620,0.0,E,D*04
$GPGGA,075937.00,2753.1523499,N,11251.2196816,E,5,14,1.0,101.290,M,-16.632,M,0.0,*6C
$GPRMC,075938.00,A,2753.1522929,N,11251.2197304,E,0.71,69.04,050620,0.0,E,D*05
$GPGGA,075938.00,2753.1522929,N,11251.2197304,E,5,14,1.0,101.016,M,-16.632,M,0.0,*61
$GPRMC,075939.00,A,2753.1522257,N,11251.2197592,E,0.98,69.04,050620,0.0,E,D*08
$GPGGA,075939.00,2753.1522257,N,11251.2197592,E,5,14,1.0,101.237,M,-16.632,M,0.0,*6A
$GPRMC,075940.00,A,2753.1522604,N,11251.2197830,E,1.00,69.04,050620,0.0,E,D*01
$GPGGA,075940.00,2753.1522604,N,11251.2197830,E,5,14,1.0,100.871,M,-16.632,M,0.0,*6A
$GPRMC,075941.00,A,2753.1522544,N,11251.2197851,E,0.16,69.04,050620,0.0,E,D*06
$GPGGA,075941.00,2753.1522544,N,11251.2197851,E,5,14,1.0,100.851,M,-16.632,M,0.0,*69
$GPRMC,075942.00,A,2753.1522918,N,11251.2196487,E,0.81,69.04,050620,0.0,E,D*08
$GPGGA,075942.00,2753.1522918,N,11251.2196487,E,5,14,1.0,100.761,M,-16.632,M,0.0,*65
$GPRMC,075943.00,A,2753.1523089,N,11251.2196329,E,0.85,69.04,050620,0.0,E,D*0E
$GPGGA,075943.00,2753.1523089,N,11251.2196329,E,5,14,1.0,101.030,M,-16.632,M,0.0,*65
$GPRMC,075944.00,A,2753.1522934,N,11251.2194877,E,1.73,69.04,050620,0.0,E,D*0D
$GPGGA,075944.00,2753.1522934,N,11251.2194877,E,5,14,1.0,101.598,M,-16.632,M,0.0,*69
$GPRMC,075945.00,A,2753.1523093,N,11251.2194924,E,0.61,69.04,050620,0.0,E,D*0C
$GPGGA,075945.00,2753.1523093,N,11251.2194924,E,5,14,1.0,101.759,M,-16.632,M,0.0,*65
$GPRMC,075946.00,A,2753.1524215,N,11251.2195366,E,2.93,356.84,050620,0.0,E,D*31
$GPGGA,075946.00,2753.1524215,N,11251.2195366,E,4,14,1.0,102.910,M,-16.632,M,0.0,*61
$GPRMC,075947.00,A,2753.1524225,N,11251.2195365,E,0.93,356.84,050620,0.0,E,D*32
$GPGGA,075947.00,2753.1524225,N,11251.2195365,E,4,14,1.0,102.905,M,-16.632,M,0.0,*64
$GPRMC,075948.00,A,2753.1524238,N,11251.2195369,E,0.55,356.84,050620,0.0,E,D*37
$GPGGA,075948.00,2753.1524238,N,11251.2195369,E,4,14,1.0,102.903,M,-16.632,M,0.0,*6D
$GPRMC,075949.00,A,2753.1524426,N,11251.2197333,E,0.79,356.84,050620,0.0,E,D*3C
$GPGGA,075949.00,2753.1524426,N,11251.2197333,E,5,14,1.0,102.984,M,-16.632,M,0.0,*66
$GPRMC,075950.00,A,2753.1524665,N,11251.2197181,E,0.41,356.84,050620,0.0,E,D*31
$GPGGA,075950.00,2753.1524665,N,11251.2197181,E,5,14,1.0,103.012,M,-16.632,M,0.0,*67
$GPRMC,075951.00,A,2753.1523630,N,11251.2198682,E,1.58,356.84,050620,0.0,E,D*35
$GPGGA,075951.00,2753.1523630,N,11251.2198682,E,5,14,1.0,102.687,M,-16.632,M,0.0,*61
$GPRMC,075952.00,A,2753.1522963,N,11251.2198492,E,0.90,356.84,050620,0.0,E,D*38
$GPGGA,075952.00,2753.1522963,N,11251.2198492,E,5,14,1.0,102.824,M,-16.632,M,0.0,*6E
$GPRMC,075953.00,A,2753.1522680,N,11251.2198444,E,0.94,356.84,050620,0.0,E,D*34
$GPGGA,075953.00,2753.1522680,N,11251.2198444,E,5,14,1.0,102.494,M,-16.632,M,0.0,*61
$GPRMC,075954.00,A,2753.1522825,N,11251.2198863,E,1.21,356.84,050620,0.0,E,D*34
$GPGGA,075954.00,2753.1522825,N,11251.2198863,E,5,14,1.0,102.012,M,-16.632,M,0.0,*64
$GPRMC,075955.00,A,2753.1524092,N,11251.2198701,E,1.33,356.84,050620,0.0,E,D*3F
$GPGGA,075955.00,2753.1524092,N,11251.2198701,E,5,14,1.0,101.472,M,-16.632,M,0.0,*6D
$GPRMC,075956.00,A,2753.1523408,N,11251.2198193,E,3.27,194.30,050620,0.0,E,D*35
$GPGGA,075956.00,2753.1523408,N,11251.2198193,E,5,14,1.0,102.521,M,-16.632,M,0.0,*67
$GPRMC,075957.00,A,2753.1523359,N,11251.2199283,E,1.49,194.30,050620,0.0,E,D*3E
$GPGGA,075957.00,2753.1523359,N,11251.2199283,E,5,14,1.0,102.150,M,-16.632,M,0.0,*64
$GPRMC,075958.00,A,2753.1522403,N,11251.2200705,E,0.70,194.30,050620,0.0,E,D*3B
$GPGGA,075958.00,2753.1522403,N,11251.2200705,E,4,14,1.0,102.238,M,-16.632,M,0.0,*66
$GPRMC,075959.00,A,2753.1523285,N,11251.2198892,E,0.81,194.30,050620,0.0,E,D*3E
$GPGGA,075959.00,2753.1523285,N,11251.2198892,E,5,14,1.0,102.794,M,-16.632,M,0.0,*6F
$GPRMC,080000.00,A,2753.1522741,N,11251.2199758,E,0.93,194.30,050620,0.0,E,D*36
$GPGGA,080000.00,2753.1522741,N,11251.2199758,E,5,14,1.0,103.054,M,-16.632,M,0.0,*6E
$GPRMC,080001.00,A,2753.1520989,N,11251.2198947,E,1.13,194.30,050620,0.0,E,D*37
$GPGGA,080001.00,2753.1520989,N,11251.2198947,E,5,14,1.0,103.132,M,-16.632,M,0.0,*67
$GPRMC,080002.00,A,2753.1521428,N,11251.2199034,E,0.98,194.30,050620,0.0,E,D*3D
$GPGGA,080002.00,2753.1521428,N,11251.2199034,E,5,14,1.0,103.137,M,-16.632,M,0.0,*6A
$GPRMC,080003.00,A,2753.1521191,N,11251.2198891,E,1.89,194.30,050620,0.0,E,D*3C
$GPGGA,080003.00,2753.1521191,N,11251.2198891,E,5,14,1.0,102.514,M,-16.632,M,0.0,*6E
$GPRMC,080004.00,A,2753.1520171,N,11251.2200231,E,1.78,194.30,050620,0.0,E,D*38
$GPGGA,080004.00,2753.1520171,N,11251.2200231,E,5,14,1.0,101.833,M,-16.632,M,0.0,*6F
$GPRMC,080005.00,A,2753.1522443,N,11251.2200743,E,2.33,351.83,050620,0.0,E,D*30
$GPGGA,080005.00,2753.1522443,N,11251.2200743,E,4,14,1.0,102.201,M,-16.632,M,0.0,*61
$GPRMC,080006.00,A,2753.1521854,N,11251.2199128,E,0.99,351.83,050620,0.0,E,D*30
$GPGGA,080006.00,2753.1521854,N,11251.2199128,E,5,14,1.0,101.529,M,-16.632,M,0.0,*6C
$GPRMC,080007.00,A,2753.1522684,N,11251.2198307,E,1.21,351.83,050620,0.0,E,D*3D
$GPGGA,080007.00,2753.1522684,N,11251.2198307,E,5,14,1.0,101.190,M,-16.632,M,0.0,*65
$GPRMC,080008.00,A,2753.1523690,N,11251.2196963,E,0.95,351.83,050620,0.0,E,D*3E
$GPGGA,080008.00,2753.1523690,N,11251.2196963,E,4,14,1.0,100.840,M,-16.632,M,0.0,*6C
$GPRMC,080009.00,A,2753.1522535,N,11251.2196906,E,0.88,351.83,050620,0.0,E,D*3D
$GPGGA,080009.00,2753.1522535,N,11251.2196906,E,5,14,1.0,101.474,M,-16.632,M,0.0,*68
$GPRMC,080010.00,A,2753.1521998,N,11251.2197620,E,0.74,351.83,050620,0.0,E,D*34
$GPGGA,080010.00,2753.1521998,N,11251.2197620,E,5,14,1.0,101.278,M,-16.632,M,0.0,*68
$GPRMC,080011.00,A,2753.1521623,N,11251.2197298,E,0.62,351.83,050620,0.0,E,D*3A
$GPGGA,080011.00,2753.1521623,N,11251.2197298,E,5,14,1.0,101.386,M,-16.632,M,0.0,*61
$GPRMC,080012.00,A,2753.1522262,N,11251.2197564,E,1.62,351.83,050620,0.0,E,D*3E
$GPGGA,080012.00,2753.1522262,N,11251.2197564,E,5,14,1.0,101.917,M,-16.632,M,0.0,*66
$GPRMC,080013.00,A,2753.1522129,N,11251.2198549,E,0.65,351.83,050620,0.0,E,D*35
$GPGGA,080013.00,2753.1522129,N,11251.2198549,E,5,14,1.0,101.956,M,-16.632,M,0.0,*6E
$GPRMC,080014.00,A,2753.1522277,N,11251.2198360,E,0.57,351.83,050620,0.0,E,D*36
$GPGGA,080014.00,2753.1522277,N,11251.2198360,E,5,14,1.0,102.087,M,-16.632,M,0.0,*6A
$GPRMC,080015.00,A,2753.1521926,N,11251.2197695,E,1.78,351.83,050620,0.0,E,D*37
$GPGGA,080015.00,2753.1521926,N,11251.2197695,E,5,14,1.0,101.488,M,-16.632,M,0.0,*6F
$GPRMC,080016.00,A,2753.1522040,N,11251.2197662,E,1.59,351.83,050620,0.0,E,D*35
$GPGGA,080016.00,2753.1522040,N,11251.2197662,E,5,14,1.0,100.816,M,-16.632,M,0.0,*64
$GPRMC,080017.00,A,2753.1522200,N,11251.2197691,E,3.36,292.54,050620,0.0,E,D*31
$GPGGA,080017.00,2753.1522200,N,11251.2197691,E,5,14,1.0,101.887,M,-16.632,M,0.0,*66
$GPRMC,080018.00,A,2753.1523680,N,11251.2196935,E,3.11,330.09,050620,0.0,E,D*37
$GPGGA,080018.00,2753.1523680,N,11251.2196935,E,4,14,1.0,100.853,M,-16.632,M,0.0,*6D
$GPRMC,080019.00,A,2753.1523683,N,11251.2196963,E,1.56,330.09,050620,0.0,E,D*37
$GPGGA,080019.00,2753.1523683,N,11251.2196963,E,4,14,1.0,100.837,M,-16.632,M,0.0,*6E
$GPRMC,080020.00,A,2753.1523670,N,11251.2196931,E,1.06,330.09,050620,0.0,E,D*33
$GPGGA,080020.00,2753.1523670,N,11251.2196931,E,4,14,1.0,100.861,M,-16.632,M,0.0,*6C
$GPRMC,080021.00,A,2753.1523725,N,11251.2196989,E,0.92,330.09,050620,0.0,E,D*3C
$GPGGA,080021.00,2753.1523725,N,11251.2196989,E,4,14,1.0,100.816,M,-16.632,M,0.0,*6F
$GPRMC,080022.00,A,2753.1524769,N,11251.2198011,E,1.18,330.09,050620,0.0,E,D*35
$GPGGA,080022.00,2753.1524769,N,11251.2198011,E,5,14,1.0,100.562,M,-16.632,M,0.0,*6A
$GPRMC,080023.00,A,2753.1523610,N,11251.2196901,E,1.72,330.09,050620,0.0,E,D*36
$GPGGA,080023.00,2753.1523610,N,11251.2196901,E,4,14,1.0,100.895,M,-16.632,M,0.0,*61
$GPRMC,080024.00,A,2753.1523642,N,11251.2196925,E,0.99,330.09,050620,0.0,E,D*34
$GPGGA,080024.00,2753.1523642,N,11251.2196925,E,4,14,1.0,100.870,M,-16.632,M,0.0,*6C
$GPRMC,080025.00,A,2753.1523644,N,11251.2196918,E,0.93,330.09,050620,0.0,E,D*37
$GPGGA,080025.00,2753.1523644,N,11251.2196918,E,4,14,1.0,100.869,M,-16.632,M,0.0,*6D
$GPRMC,080026.00,A,2753.1523743,N,11251.2196990,E,1.17,330.09,050620,0.0,E,D*3F
$GPGGA,080026.00,2753.1523743,N,11251.2196990,E,4,14,1.0,100.806,M,-16.632,M,0.0,*61
$GPRMC,080027.00,A,2753.1523676,N,11251.2196964,E,1.66,330.09,050620,0.0,E,D*34
$GPGGA,080027.00,2753.1523676,N,11251.2196964,E,4,14,1.0,100.850,M,-16.632,M,0.0,*6F
$GPRMC,080028.00,A,2753.1523713,N,11251.2196975,E,1.45,330.09,050620,0.0,E,D*38
$GPGGA,080028.00,2753.1523713,N,11251.2196975,E,4,14,1.0,100.826,M,-16.632,M,0.0,*63
$GPRMC,080029.00,A,2753.1523743,N,11251.2197008,E,1.23,330.09,050620,0.0,E,D*3E
$GPGGA,080029.00,2753.1523743,N,11251.2197008,E,4,14,1.0,100.801,M,-16.632,M,0.0,*60
$GPRMC,080030.00,A,2753.1523742,N,11251.2196999,E,1.67,330.09,050620,0.0,E,D*37
$GPGGA,080030.00,2753.1523742,N,11251.2196999,E,4,14,1.0,100.800,M,-16.632,M,0.0,*68
$GPRMC,080031.00,A,2753.1523089,N,11251.2196133,E,0.73,330.09,050620,0.0,E,D*3A
$GPGGA,080031.00,2753.1523089,N,11251.2196133,E,5,14,1.0,100.511,M,-16.632,M,0.0,*6D
$GPRMC,080032.00,A,2753.1523735,N,11251.2197014,E,1.20,330.09,050620,0.0,E,D*3B
$GPGGA,080032.00,2753.1523735,N,11251.2197014,E,4,14,1.0,100.809,M,-16.632,M,0.0,*6E
$GPRMC,080033.00,A,2753.1523763,N,11251.2195868,E,0.85,330.09,050620,0.0,E,D*36
$GPGGA,080033.00,2753.1523763,N,11251.2195868,E,5,14,1.0,100.596,M,-16.632,M,0.0,*67
$GPRMC,080034.00,A,2753.1523716,N,11251.2196988,E,0.93,330.09,050620,0.0,E,D*38
$GPGGA,080034.00,2753.1523716,N,11251.2196988,E,4,14,1.0,100.824,M,-16.632,M,0.0,*6B
$GPRMC,080035.00,A,2753.1523598,N,11251.2195279,E,1.84,330.09,050620,0.0,E,D*3C
$GPGGA,080035.00,2753.1523598,N,11251.2195279,E,5,14,1.0,100.298,M,-16.632,M,0.0,*64
$GPRMC,080036.00,A,2753.1523739,N,11251.2196990,E,2.20,66.02,050620,0.0,E,D*0F
$GPGGA,080036.00,2753.1523739,N,11251.2196990,E,4,14,1.0,100.806,M,-16.632,M,0.0,*6D
$GPRMC,080037.00,A,2753.1523736,N,11251.2196998,E,1.93,66.02,050620,0.0,E,D*02
$GPGGA,080037.00,2753.1523736,N,11251.2196998,E,4,14,1.0,100.800,M,-16.632,M,0.0,*6D
$GPRMC,080038.00,A,2753.1523751,N,11251.2197019,E,1.65,66.02,050620,0.0,E,D*04
$GPGGA,080038.00,2753.1523751,N,11251.2197019,E,4,14,1.0,100.791,M,-16.632,M,0.0,*65
$GPRMC,080039.00,A,2753.1523772,N,11251.2197036,E,1.48,66.02,050620,0.0,E,D*06
$GPGGA,080039.00,2753.1523772,N,11251.2197036,E,4,14,1.0,100.787,M,-16.632,M,0.0,*6F
$GPRMC,080040.00,A,2753.1523731,N,11251.2197016,E,1.27,66.02,050620,0.0,E,D*04
$GPGGA,080040.00,2753.1523731,N,11251.2197016,E,4,14,1.0,100.811,M,-16.632,M,0.0,*64
$GPRMC,080041.00,A,2753.1522121,N,11251.2197175,E,1.01,66.02,050620,0.0,E,D*03
$GPGGA,080041.00,2753.1522121,N,11251.2197175,E,5,14,1.0,101.147,M,-16.632,M,0.0,*6D
$GPRMC,080042.00,A,2753.1522410,N,11251.2196554,E,1.77,66.02,050620,0.0,E,D*00
$GPGGA,080042.00,2753.1522410,N,11251.2196554,E,5,14,1.0,100.656,M,-16.632,M,0.0,*69
$GPRMC,080043.00,A,2753.1523279,N,11251.2196556,E,1.47,66.02,050620,0.0,E,D*08
$GPGGA,080043.00,2753.1523279,N,11251.2196556,E,5,14,1.0,100.083,M,-16.632,M,0.0,*6C
$GPRMC,080044.00,A,2753.1523436,N,11251.2196476,E,1.84,66.02,050620,0.0,E,D*0E
$GPGGA,080044.00,2753.1523436,N,11251.2196476,E,5,14,1.0,99.244,M,-16.632,M,0.0,*5D
$GPRMC,080045.00,A,2753.1522242,N,11251.2195242,E,0.94,66.02,050620,0.0,E,D*09
$GPGGA,080045.00,2753.1522242,N,11251.2195242,E,5,14,1.0,99.136,M,-16.632,M,0.0,*5C
$GPRMC,080046.00,A,2753.1522924,N,11251.2194953,E,1.10,66.02,050620,0.0,E,D*06
$GPGGA,080046.00,2753.1522924,N,11251.2194953,E,5,14,1.0,98.743,M,-16.632,M,0.0,*5B
$GPRMC,080047.00,A,2753.1522900,N,11251.2194016,E,2.16,229.23,050620,0.0,E,D*36
$GPGGA,080047.00,2753.1522900,N,11251.2194016,E,4,14,1.0,97.939,M,-16.632,M,0.0,*59
$GPRMC,080048.00,A,2753.1522983,N,11251.2196591,E,2.04,56.91,050620,0.0,E,D*0A
$GPGGA,080048.00,2753.1522983,N,11251.2196591,E,5,14,1.0,99.152,M,-16.632,M,0.0,*5F
$GPRMC,080049.00,A,2753.1523623,N,11251.2195848,E,1.47,56.91,050620,0.0,E,D*01
$GPGGA,080049.00,2753.1523623,N,11251.2195848,E,5,14,1.0,99.652,M,-16.632,M,0.0,*57
$GPRMC,080050.00,A,2753.1523784,N,11251.2195855,E,0.87,56.91,050620,0.0,E,D*04
$GPGGA,080050.00,2753.1523784,N,11251.2195855,E,5,14,1.0,100.072,M,-16.632,M,0.0,*6A
$GPRMC,080051.00,A,2753.1524197,N,11251.2196362,E,1.83,56.91,050620,0.0,E,D*0F
$GPGGA,080051.00,2753.1524197,N,11251.2196362,E,5,14,1.0,99.522,M,-16.632,M,0.0,*55
$GPRMC,080052.00,A,2753.1524814,N,11251.2194215,E,3.67,282.16,050620,0.0,E,D*31
$GPGGA,080052.00,2753.1524814,N,11251.2194215,E,5,14,1.0,98.191,M,-16.632,M,0.0,*5A
$GPRMC,080053.00,A,2753.1524497,N,11251.2195174,E,4.28,96.95,050620,0.0,E,D*02
$GPGGA,080053.00,2753.1524497,N,11251.2195174,E,5,14,1.0,99.425,M,-16.632,M,0.0,*52
$GPRMC,080054.00,A,2753.1524320,N,11251.2195093,E,1.04,96.95,050620,0.0,E,D*0D
$GPGGA,080054.00,2753.1524320,N,11251.2195093,E,5,14,1.0,99.742,M,-16.632,M,0.0,*54
$GPRMC,080055.00,A,2753.1523251,N,11251.2195064,E,0.96,96.95,050620,0.0,E,D*0E
$GPGGA,080055.00,2753.1523251,N,11251.2195064,E,5,14,1.0,100.231,M,-16.632,M,0.0,*6D
$GPRMC,080056.00,A,2753.1523189,N,11251.2195363,E,1.62,96.95,050620,0.0,E,D*05
$GPGGA,080056.00,2753.1523189,N,11251.2195363,E,5,14,1.0,99.767,M,-16.632,M,0.0,*5B
$GPRMC,080057.00,A,2753.1522758,N,11251.2194800,E,0.59,96.95,050620,0.0,E,D*09
$GPGGA,080057.00,2753.1522758,N,11251.2194800,E,5,14,1.0,99.874,M,-16.632,M,0.0,*53
$GPRMC,080058.00,A,2753.1522614,N,11251.2194349,E,1.99,345.09,050620,0.0,E,D*3C
$GPGGA,080058.00,2753.1522614,N,11251.2194349,E,5,14,1.0,100.565,M,-16.632,M,0.0,*6F
$GPRMC,080059.00,A,2753.1522921,N,11251.2194883,E,1.45,345.09,050620,0.0,E,D*38
$GPGGA,080059.00,2753.1522921,N,11251.2194883,E,5,14,1.0,100.168,M,-16.632,M,0.0,*63
$GPRMC,080100.00,A,2753.1523292,N,11251.2195729,E,0.87,345.09,050620,0.0,E,D*36
$GPGGA,080100.00,2753.1523292,N,11251.2195729,E,5,14,1.0,100.474,M,-16.632,M,0.0,*6A
$GPRMC,080101.00,A,2753.1523698,N,11251.2195197,E,1.40,345.09,050620,0.0,E,D*30
$GPGGA,080101.00,2753.1523698,N,11251.2195197,E,5,14,1.0,100.970,M,-16.632,M,0.0,*6F
$GPRMC,080102.00,A,2753.1524107,N,11251.2194930,E,0.40,345.09,050620,0.0,E,D*30
$GPGGA,080102.00,2753.1524107,N,11251.2194930,E,5,14,1.0,101.208,M,-16.632,M,0.0,*6B
$GPRMC,080103.00,A,2753.1523313,N,11251.2195017,E,0.68,345.09,050620,0.0,E,D*36
$GPGGA,080103.00,2753.1523313,N,11251.2195017,E,5,14,1.0,101.429,M,-16.632,M,0.0,*62
$GPRMC,080104.00,A,2753.1523439,N,11251.2195396,E,0.83,345.09,050620,0.0,E,D*31
$GPGGA,080104.00,2753.1523439,N,11251.2195396,E,5,14,1.0,101.227,M,-16.632,M,0.0,*68
$GPRMC,080105.00,A,2753.1523682,N,11251.2195167,E,0.36,345.09,050620,0.0,E,D*30
$GPGGA,080105.00,2753.1523682,N,11251.2195167,E,5,14,1.0,101.128,M,-16.632,M,0.0,*6B
$GPRMC,080106.00,A,2753.1523015,N,11251.2195637,E,1.97,139.11,050620,0.0,E,D*33
$GPGGA,080106.00,2753.1523015,N,11251.2195637,E,5,14,1.0,100.391,M,-16.632,M,0.0,*63
$GPRMC,080107.00,A,2753.1523289,N,11251.2195546,E,0.63,139.11,050620,0.0,E,D*3A
$GPGGA,080107.00,2753.1523289,N,11251.2195546,E,5,14,1.0,100.275,M,-16.632,M,0.0,*6B
$GPRMC,080108.00,A,2753.1523346,N,11251.2194863,E,1.35,139.11,050620,0.0,E,D*3E
$GPGGA,080108.00,2753.1523346,N,11251.2194863,E,5,14,1.0,100.667,M,-16.632,M,0.0,*6A
$GPRMC,080109.00,A,2753.1525064,N,11251.2193248,E,3.67,326.44,050620,0.0,E,D*37
$GPGGA,080109.00,2753.1525064,N,11251.2193248,E,4,14,1.0,99.426,M,-16.632,M,0.0,*5D
$GPRMC,080110.00,A,2753.1523803,N,11251.2193621,E,0.41,326.44,050620,0.0,E,D*3C
$GPGGA,080110.00,2753.1523803,N,11251.2193621,E,5,14,1.0,99.841,M,-16.632,M,0.0,*5D
$GPRMC,080111.00,A,2753.1522955,N,11251.2193838,E,2.05,139.17,050620,0.0,E,D*30
$GPGGA,080111.00,2753.1522955,N,11251.2193838,E,5,14,1.0,100.486,M,-16.632,M,0.0,*6F
$GPRMC,080112.00,A,2753.1521902,N,11251.2196060,E,2.79,112.82,050620,0.0,E,D*3C
$GPGGA,080112.00,2753.1521902,N,11251.2196060,E,4,14,1.0,101.523,M,-16.632,M,0.0,*63
$GPRMC,080113.00,A,2753.1523878,N,11251.2195223,E,2.41,357.50,050620,0.0,E,D*32
$GPGGA,080113.00,2753.1523878,N,11251.2195223,E,5,14,1.0,100.861,M,-16.632,M,0.0,*61
$GPRMC,080114.00,A,2753.1524658,N,11251.2195403,E,0.82,357.50,050620,0.0,E,D*37
$GPGGA,080114.00,2753.1524658,N,11251.2195403,E,5,14,1.0,100.588,M,-16.632,M,0.0,*63
$GPRMC,080115.00,A,2753.1525149,N,11251.2194821,E,0.77,357.50,050620,0.0,E,D*37
$GPGGA,080115.00,2753.1525149,N,11251.2194821,E,5,14,1.0,100.218,M,-16.632,M,0.0,*67
$GPRMC,080116.00,A,2753.1525169,N,11251.2194892,E,1.39,357.50,050620,0.0,E,D*35
$GPGGA,080116.00,2753.1525169,N,11251.2194892,E,5,14,1.0,100.619,M,-16.632,M,0.0,*6B
$GPRMC,080117.00,A,2753.1524953,N,11251.2195652,E,0.75,357.50,050620,0.0,E,D*3E
$GPGGA,080117.00,2753.1524953,N,11251.2195652,E,5,14,1.0,100.401,M,-16.632,M,0.0,*62
$GPRMC,080118.00,A,2753.1523783,N,11251.2197061,E,1.27,357.50,050620,0.0,E,D*37
$GPGGA,080118.00,2753.1523783,N,11251.2197061,E,4,14,1.0,100.788,M,-16.632,M,0.0,*6E
$GPRMC,080119.00,A,2753.1523762,N,11251.2197031,E,0.92,357.50,050620,0.0,E,D*33
$GPGGA,080119.00,2753.1523762,N,11251.2197031,E,4,14,1.0,100.790,M,-16.632,M,0.0,*6C
$GPRMC,080120.00,A,2753.1524825,N,11251.2195609,E,0.66,357.50,050620,0.0,E,D*36
$GPGGA,080120.00,2753.1524825,N,11251.2195609,E,5,14,1.0,100.581,M,-16.632,M,0.0,*61
$GPRMC,080121.00,A,2753.1524732,N,11251.2197764,E,1.45,357.50,050620,0.0,E,D*36
$GPGGA,080121.00,2753.1524732,N,11251.2197764,E,5,14,1.0,100.535,M,-16.632,M,0.0,*6E
$GPRMC,080122.00,A,2753.1523839,N,11251.2197077,E,1.44,357.50,050620,0.0,E,D*32
$GPGGA,080122.00,2753.1523839,N,11251.2197077,E,4,14,1.0,100.752,M,-16.632,M,0.0,*69
$GPRMC,080123.00,A,2753.1523806,N,11251.2197073,E,0.97,357.50,050620,0.0,E,D*34
$GPGGA,080123.00,2753.1523806,N,11251.2197073,E,4,14,1.0,100.766,M,-16.632,M,0.0,*67
$GPRMC,080124.00,A,2753.1523829,N,11251.2197079,E,0.88,357.50,050620,0.0,E,D*3A
$GPGGA,080124.00,2753.1523829,N,11251.2197079,E,4,14,1.0,100.763,M,-16.632,M,0.0,*62
$GPRMC,080125.00,A,2753.1523809,N,11251.2197065,E,0.97,357.50,050620,0.0,E,D*3A
$GPGGA,080125.00,2753.1523809,N,11251.2197065,E,4,14,1.0,100.772,M,-16.632,M,0.0,*6C
$GPRMC,080126.00,A,2753.1523481,N,11251.2199563,E,0.98,357.50,050620,0.0,E,D*37
$GPGGA,080126.00,2753.1523481,N,11251.2199563,E,5,14,1.0,101.222,M,-16.632,M,0.0,*6E
$GPRMC,080127.00,A,2753.1522450,N,11251.2200232,E,1.28,357.50,050620,0.0,E,D*31
$GPGGA,080127.00,2753.1522450,N,11251.2200232,E,5,14,1.0,101.620,M,-16.632,M,0.0,*64
$GPRMC,080128.00,A,2753.1522401,N,11251.2199723,E,0.61,357.50,050620,0.0,E,D*30
$GPGGA,080128.00,2753.1522401,N,11251.2199723,E,5,14,1.0,101.600,M,-16.632,M,0.0,*6B
$GPRMC,080129.00,A,2753.1522366,N,11251.2200749,E,1.68,357.50,050620,0.0,E,D*30
$GPGGA,080129.00,2753.1522366,N,11251.2200749,E,4,14,1.0,102.209,M,-16.632,M,0.0,*6C
$GPRMC,080130.00,A,2753.1522383,N,11251.2200769,E,1.95,269.84,050620,0.0,E,D*36
$GPGGA,080130.00,2753.1522383,N,11251.2200769,E,4,14,1.0,102.190,M,-16.632,M,0.0,*6E
$GPRMC,080131.00,A,2753.1522406,N,11251.2200791,E,0.45,269.84,050620,0.0,E,D*36
$GPGGA,080131.00,2753.1522406,N,11251.2200791,E,4,14,1.0,102.187,M,-16.632,M,0.0,*64
$GPRMC,080132.00,A,2753.1520984,N,11251.2202078,E,1.53,269.84,050620,0.0,E,D*34
$GPGGA,080132.00,2753.1520984,N,11251.2202078,E,5,14,1.0,102.638,M,-16.632,M,0.0,*62
$GPRMC,080133.00,A,2753.1521102,N,11251.2201509,E,1.79,269.84,050620,0.0,E,D*3A
$GPGGA,080133.00,2753.1521102,N,11251.2201509,E,5,14,1.0,102.158,M,-16.632,M,0.0,*65
$GPRMC,080134.00,A,2753.1521333,N,11251.2201226,E,1.12,269.84,050620,0.0,E,D*3A
$GPGGA,080134.00,2753.1521333,N,11251.2201226,E,5,14,1.0,101.734,M,-16.632,M,0.0,*67
$GPRMC,080135.00,A,2753.1521421,N,11251.2202290,E,0.80,269.84,050620,0.0,E,D*3B
$GPGGA,080135.00,2753.1521421,N,11251.2202290,E,5,14,1.0,101.367,M,-16.632,M,0.0,*6E
$GPRMC,080136.00,A,2753.1521976,N,11251.2199966,E,2.09,279.79,050620,0.0,E,D*34
$GPGGA,080136.00,2753.1521976,N,11251.2199966,E,5,14,1.0,100.756,M,-16.632,M,0.0,*66
$GPRMC,080137.00,A,2753.1522818,N,11251.2199138,E,1.50,279.79,050620,0.0,E,D*33
$GPGGA,080137.00,2753.1522818,N,11251.2199138,E,5,14,1.0,100.104,M,-16.632,M,0.0,*6F
$GPRMC,080138.00,A,2753.1523915,N,11251.2199592,E,1.74,279.79,050620,0.0,E,D*33
$GPGGA,080138.00,2753.1523915,N,11251.2199592,E,5,14,1.0,100.541,M,-16.632,M,0.0,*6C
$GPRMC,080139.00,A,2753.1523000,N,11251.2199207,E,2.80,197.13,050620,0.0,E,D*33
$GPGGA,080139.00,2753.1523000,N,11251.2199207,E,5,14,1.0,101.523,M,-16.632,M,0.0,*6E
$GPRMC,080140.00,A,2753.1522398,N,11251.2200791,E,1.62,197.13,050620,0.0,E,D*38
$GPGGA,080140.00,2753.1522398,N,11251.2200791,E,4,14,1.0,102.184,M,-16.632,M,0.0,*61
$GPRMC,080141.00,A,2753.1523458,N,11251.2202282,E,1.61,197.13,050620,0.0,E,D*35
$GPGGA,080141.00,2753.1523458,N,11251.2202282,E,5,14,1.0,101.163,M,-16.632,M,0.0,*64
$GPRMC,080142.00,A,2753.1522981,N,11251.2201793,E,1.36,197.13,050620,0.0,E,D*3A
$GPGGA,080142.00,2753.1522981,N,11251.2201793,E,5,14,1.0,101.522,M,-16.632,M,0.0,*68
$GPRMC,080143.00,A,2753.1522143,N,11251.2202466,E,4.22,128.14,050620,0.0,E,D*34
$GPGGA,080143.00,2753.1522143,N,11251.2202466,E,4,14,1.0,99.997,M,-16.632,M,0.0,*56
$GPRMC,080144.00,A,2753.1522082,N,11251.2203925,E,0.73,128.14,050620,0.0,E,D*34
$GPGGA,080144.00,2753.1522082,N,11251.2203925,E,5,14,1.0,100.582,M,-16.632,M,0.0,*6E
$GPRMC,080145.00,A,2753.1522181,N,11251.2202524,E,1.86,128.14,050620,0.0,E,D*30
$GPGGA,080145.00,2753.1522181,N,11251.2202524,E,4,14,1.0,99.965,M,-16.632,M,0.0,*54
$GPRMC,080146.00,A,2753.1520977,N,11251.2204252,E,1.27,128.14,050620,0.0,E,D*3B
$GPGGA,080146.00,2753.1520977,N,11251.2204252,E,5,14,1.0,99.813,M,-16.632,M,0.0,*55
$GPRMC,080147.00,A,2753.1521465,N,11251.2203733,E,1.04,128.14,050620,0.0,E,D*31
$GPGGA,080147.00,2753.1521465,N,11251.2203733,E,5,14,1.0,99.655,M,-16.632,M,0.0,*52
$GPRMC,080148.00,A,2753.1521461,N,11251.2202559,E,1.21,128.14,050620,0.0,E,D*32
$GPGGA,080148.00,2753.1521461,N,11251.2202559,E,5,14,1.0,99.190,M,-16.632,M,0.0,*58
$GPRMC,080149.00,A,2753.1521902,N,11251.2200910,E,0.98,128.14,050620,0.0,E,D*3B
$GPGGA,080149.00,2753.1521902,N,11251.2200910,E,5,14,1.0,99.263,M,-16.632,M,0.0,*5D
$GPRMC,080150.00,A,2753.1521977,N,11251.2200045,E,0.29,128.14,050620,0.0,E,D*32
$GPGGA,080150.00,2753.1521977,N,11251.2200045,E,5,14,1.0,99.272,M,-16.632,M,0.0,*5E
$GPRMC,080151.00,A,2753.1523310,N,11251.2200287,E,2.36,13.18,050620,0.0,E,D*0F
$GPGGA,080151.00,2753.1523310,N,11251.2200287,E,5,14,1.0,98.465,M,-16.632,M,0.0,*5B
$GPRMC,080152.00,A,2753.1523390,N,11251.2201634,E,0.91,13.18,050620,0.0,E,D*06
$GPGGA,080152.00,2753.1523390,N,11251.2201634,E,5,14,1.0,98.543,M,-16.632,M,0.0,*58
$GPRMC,080153.00,A,2753.1523410,N,11251.2201209,E,2.19,289.10,050620,0.0,E,D*39
$GPGGA,080153.00,2753.1523410,N,11251.2201209,E,5,14,1.0,99.226,M,-16.632,M,0.0,*59
$GPRMC,080154.00,A,2753.1523096,N,11251.2201282,E,1.16,289.10,050620,0.0,E,D*3B
$GPGGA,080154.00,2753.1523096,N,11251.2201282,E,5,14,1.0,99.738,M,-16.632,M,0.0,*5D
$GPRMC,080155.00,A,2753.1523060,N,11251.2200195,E,1.00,289.10,050620,0.0,E,D*30
$GPGGA,080155.00,2753.1523060,N,11251.2200195,E,5,14,1.0,100.133,M,-16.632,M,0.0,*6D
$GPRMC,080156.00,A,2753.1522675,N,11251.2199653,E,2.26,158.87,050620,0.0,E,D*38
$GPGGA,080156.00,2753.1522675,N,11251.2199653,E,5,14,1.0,99.444,M,-16.632,M,0.0,*57
$GPRMC,080157.00,A,2753.1522878,N,11251.2199437,E,0.51,158.87,050620,0.0,E,D*38
$GPGGA,080157.00,2753.1522878,N,11251.2199437,E,5,14,1.0,99.353,M,-16.632,M,0.0,*54
$GPRMC,080158.00,A,2753.1522911,N,11251.2199466,E,0.99,158.87,050620,0.0,E,D*39
$GPGGA,080158.00,2753.1522911,N,11251.2199466,E,5,14,1.0,99.612,M,-16.632,M,0.0,*51
$GPRMC,080159.00,A,2753.1523035,N,11251.2200730,E,1.54,158.87,050620,0.0,E,D*35
$GPGGA,080159.00,2753.1523035,N,11251.2200730,E,5,14,1.0,99.118,M,-16.632,M,0.0,*50
$GPRMC,080200.00,A,2753.1523728,N,11251.2201036,E,2.90,326.34,050620,0.0,E,D*39
$GPGGA,080200.00,2753.1523728,N,11251.2201036,E,5,14,1.0,98.003,M,-16.632,M,0.0,*5E
$GPRMC,080201.00,A,2753.1523825,N,11251.2200912,E,0.08,326.34,050620,0.0,E,D*37
$GPGGA,080201.00,2753.1523825,N,11251.2200912,E,5,14,1.0,97.775,M,-16.632,M,0.0,*5A
$GPRMC,080202.00,A,2753.1524190,N,11251.2200914,E,2.71,2.11,050620,0.0,E,D*3C
$GPGGA,080202.00,2753.1524190,N,11251.2200914,E,5,14,1.0,98.599,M,-16.632,M,0.0,*50
$GPRMC,080203.00,A,2753.1524654,N,11251.2201269,E,0.83,2.11,050620,0.0,E,D*3D
$GPGGA,080203.00,2753.1524654,N,11251.2201269,E,5,14,1.0,99.020,M,-16.632,M,0.0,*58
$GPRMC,080204.00,A,2753.1523974,N,11251.2200957,E,0.84,2.11,050620,0.0,E,D*30
$GPGGA,080204.00,2753.1523974,N,11251.2200957,E,5,14,1.0,99.442,M,-16.632,M,0.0,*52
$GPRMC,080205.00,A,2753.1524334,N,11251.2200632,E,0.96,2.11,050620,0.0,E,D*37
$GPGGA,080205.00,2753.1524334,N,11251.2200632,E,5,14,1.0,99.854,M,-16.632,M,0.0,*5D
$GPRMC,080206.00,A,2753.1524607,N,11251.2200863,E,1.07,2.11,050620,0.0,E,D*32
$GPGGA,080206.00,2753.1524607,N,11251.2200863,E,5,14,1.0,99.588,M,-16.632,M,0.0,*5D
$GPRMC,080207.00,A,2753.1524008,N,11251.2200469,E,1.41,2.11,050620,0.0,E,D*3E
$GPGGA,080207.00,2753.1524008,N,11251.2200469,E,5,14,1.0,99.085,M,-16.632,M,0.0,*5B
$GPRMC,080208.00,A,2753.1523186,N,11251.2198650,E,2.21,255.31,050620,0.0,E,D*3C
$GPGGA,080208.00,2753.1523186,N,11251.2198650,E,5,14,1.0,99.718,M,-16.632,M,0.0,*5D
$GPRMC,080209.00,A,2753.1523710,N,11251.2198868,E,3.46,65.15,050620,0.0,E,D*06
$GPGGA,080209.00,2753.1523710,N,11251.2198868,E,4,14,1.0,98.503,M,-16.632,M,0.0,*58
$GPRMC,080210.00,A,2753.1523315,N,11251.2199088,E,1.04,65.15,050620,0.0,E,D*0C
$GPGGA,080210.00,2753.1523315,N,11251.2199088,E,5,14,1.0,99.133,M,-16.632,M,0.0,*51
$GPRMC,080211.00,A,2753.1523752,N,11251.2198832,E,0.79,65.15,050620,0.0,E,D*09
$GPGGA,080211.00,2753.1523752,N,11251.2198832,E,5,14,1.0,98.815,M,-16.632,M,0.0,*53
$GPRMC,080212.00,A,2753.1522816,N,11251.2197365,E,1.85,65.15,050620,0.0,E,D*00
$GPGGA,080212.00,2753.1522816,N,11251.2197365,E,5,14,1.0,99.329,M,-16.632,M,0.0,*5D
$GPRMC,080213.00,A,2753.1523096,N,11251.2198115,E,1.74,65.15,050620,0.0,E,D*04
$GPGGA,080213.00,2753.1523096,N,11251.2198115,E,5,14,1.0,99.871,M,-16.632,M,0.0,*51
$GPRMC,080214.00,A,2753.1522778,N,11251.2197601,E,1.07,65.15,050620,0.0,E,D*0C
$GPGGA,080214.00,2753.1522778,N,11251.2197601,E,5,14,1.0,100.216,M,-16.632,M,0.0,*67
$GPRMC,080215.00,A,2753.1523926,N,11251.2197808,E,2.68,28.49,050620,0.0,E,D*04
$GPGGA,080215.00,2753.1523926,N,11251.2197808,E,5,14,1.0,99.419,M,-16.632,M,0.0,*5D
$GPRMC,080216.00,A,2753.1523885,N,11251.2197132,E,3.81,238.03,050620,0.0,E,D*34
$GPGGA,080216.00,2753.1523885,N,11251.2197132,E,4,14,1.0,100.721,M,-16.632,M,0.0,*6E
$GPRMC,080217.00,A,2753.1523183,N,11251.2196587,E,1.49,238.03,050620,0.0,E,D*37
$GPGGA,080217.00,2753.1523183,N,11251.2196587,E,5,14,1.0,99.947,M,-16.632,M,0.0,*55
$GPRMC,080218.00,A,2753.1523631,N,11251.2195598,E,0.74,238.03,050620,0.0,E,D*34
$GPGGA,080218.00,2753.1523631,N,11251.2195598,E,5,14,1.0,99.878,M,-16.632,M,0.0,*54
$GPRMC,080219.00,A,2753.1523963,N,11251.2195897,E,1.00,238.03,050620,0.0,E,D*3D
$GPGGA,080219.00,2753.1523963,N,11251.2195897,E,5,14,1.0,99.496,M,-16.632,M,0.0,*53
$GPRMC,080220.00,A,2753.1523754,N,11251.2197669,E,0.85,238.03,050620,0.0,E,D*3C
$GPGGA,080220.00,2753.1523754,N,11251.2197669,E,5,14,1.0,99.288,M,-16.632,M,0.0,*57
$GPRMC,080221.00,A,2753.1524386,N,11251.2197851,E,0.93,238.03,050620,0.0,E,D*33
$GPGGA,080221.00,2753.1524386,N,11251.2197851,E,5,14,1.0,98.940,M,-16.632,M,0.0,*51
$GPRMC,080222.00,A,2753.1523908,N,11251.2197840,E,0.68,238.03,050620,0.0,E,D*3F
$GPGGA,080222.00,2753.1523908,N,11251.2197840,E,5,14,1.0,99.010,M,-16.632,M,0.0,*54
$GPRMC,080223.00,A,2753.1523875,N,11251.2196159,E,1.87,238.03,050620,0.0,E,D*35
$GPGGA,080223.00,2753.1523875,N,11251.2196159,E,5,14,1.0,99.550,M,-16.632,M,0.0,*5F
$GPRMC,080224.00,A,2753.1524979,N,11251.2196619,E,1.16,238.03,050620,0.0,E,D*33
$GPGGA,080224.00,2753.1524979,N,11251.2196619,E,5,14,1.0,99.424,M,-16.632,M,0.0,*53
$GPRMC,080225.00,A,2753.1524469,N,11251.2195323,E,1.69,238.03,050620,0.0,E,D*39
$GPGGA,080225.00,2753.1524469,N,11251.2195323,E,5,14,1.0,99.086,M,-16.632,M,0.0,*5D
$GPRMC,080226.00,A,2753.1523962,N,11251.2195053,E,2.25,72.53,050620,0.0,E,D*0D
$GPGGA,080226.00,2753.1523962,N,11251.2195053,E,5,14,1.0,99.818,M,-16.632,M,0.0,*54
$GPRMC,080227.00,A,2753.1523855,N,11251.2195893,E,0.54,72.53,050620,0.0,E,D*09
$GPGGA,080227.00,2753.1523855,N,11251.2195893,E,5,14,1.0,99.751,M,-16.632,M,0.0,*56
$GPRMC,080228.00,A,2753.1523866,N,11251.2197567,E,2.47,71.38,050620,0.0,E,D*0C
$GPGGA,080228.00,2753.1523866,N,11251.2197567,E,5,14,1.0,100.697,M,-16.632,M,0.0,*67
$GPRMC,080229.00,A,2753.1523736,N,11251.2196646,E,1.43,71.38,050620,0.0,E,D*01
$GPGGA,080229.00,2753.1523736,N,11251.2196646,E,5,14,1.0,100.491,M,-16.632,M,0.0,*69
$GPRMC,080230.00,A,2753.1525203,N,11251.2195467,E,1.71,71.38,050620,0.0,E,D*0F
$GPGGA,080230.00,2753.1525203,N,11251.2195467,E,5,14,1.0,100.082,M,-16.632,M,0.0,*60
$GPRMC,080231.00,A,2753.1525915,N,11251.2194112,E,1.29,71.38,050620,0.0,E,D*09
$GPGGA,080231.00,2753.1525915,N,11251.2194112,E,5,14,1.0,99.588,M,-16.632,M,0.0,*55
$GPRMC,080232.00,A,2753.1525333,N,11251.2193026,E,1.49,71.38,050620,0.0,E,D*03
$GPGGA,080232.00,2753.1525333,N,11251.2193026,E,5,14,1.0,98.903,M,-16.632,M,0.0,*57
$GPRMC,080233.00,A,2753.1524805,N,11251.2194021,E,1.03,71.38,050620,0.0,E,D*03
$GPGGA,080233.00,2753.1524805,N,11251.2194021,E,5,14,1.0,98.988,M,-16.632,M,0.0,*5A
$GPRMC,080234.00,A,2753.1524438,N,11251.2194775,E,0.92,71.38,050620,0.0,E,D*09
$GPGGA,080234.00,2753.1524438,N,11251.2194775,E,5,14,1.0,99.265,M,-16.632,M,0.0,*50
$GPRMC,080235.00,A,2753.1524844,N,11251.2193991,E,0.82,71.38,050620,0.0,E,D*0D
$GPGGA,080235.00,2753.1524844,N,11251.2193991,E,5,14,1.0,99.112,M,-16.632,M,0.0,*56
$GPRMC,080236.00,A,2753.1524833,N,11251.2194053,E,0.96,71.38,050620,0.0,E,D*0B
$GPGGA,080236.00,2753.1524833,N,11251.2194053,E,5,14,1.0,99.464,M,-16.632,M,0.0,*51
$GPRMC,080237.00,A,2753.1524657,N,11251.2193141,E,0.91,71.38,050620,0.0,E,D*04
$GPGGA,080237.00,2753.1524657,N,11251.2193141,E,5,14,1.0,99.734,M,-16.632,M,0.0,*5F
$GPRMC,080238.00,A,2753.1524077,N,11251.2191418,E,3.43,233.35,050620,0.0,E,D*31
$GPGGA,080238.00,2753.1524077,N,11251.2191418,E,4,14,1.0,98.573,M,-16.632,M,0.0,*5E
$GPRMC,080239.00,A,2753.1524348,N,11251.2193506,E,2.41,56.40,050620,0.0,E,D*03
$GPGGA,080239.00,2753.1524348,N,11251.2193506,E,5,14,1.0,98.184,M,-16.632,M,0.0,*51
$GPRMC,080240.00,A,2753.1525019,N,11251.2193525,E,2.21,282.79,050620,0.0,E,D*3D
$GPGGA,080240.00,2753.1525019,N,11251.2193525,E,5,14,1.0,98.747,M,-16.632,M,0.0,*51
$GPRMC,080241.00,A,2753.1523806,N,11251.2193369,E,1.06,282.79,050620,0.0,E,D*34
$GPGGA,080241.00,2753.1523806,N,11251.2193369,E,5,14,1.0,98.701,M,-16.632,M,0.0,*5C
$GPRMC,080242.00,A,2753.1524271,N,11251.2191937,E,2.03,318.89,050620,0.0,E,D*32
$GPGGA,080242.00,2753.1524271,N,11251.2191937,E,5,14,1.0,99.312,M,-16.632,M,0.0,*56
$GPRMC,080243.00,A,2753.1523639,N,11251.2192936,E,2.03,132.32,050620,0.0,E,D*34
$GPGGA,080243.00,2753.1523639,N,11251.2192936,E,5,14,1.0,99.972,M,-16.632,M,0.0,*56
$GPRMC,080244.00,A,2753.1523153,N,11251.2194538,E,0.42,132.32,050620,0.0,E,D*3B
$GPGGA,080244.00,2753.1523153,N,11251.2194538,E,5,14,1.0,100.207,M,-16.632,M,0.0,*66
$GPRMC,080245.00,A,2753.1522763,N,11251.2193271,E,1.13,132.32,050620,0.0,E,D*36
$GPGGA,080245.00,2753.1522763,N,11251.2193271,E,5,14,1.0,100.507,M,-16.632,M,0.0,*69
$GPRMC,080246.00,A,2753.1522566,N,11251.2193001,E,0.49,132.32,050620,0.0,E,D*39
$GPGGA,080246.00,2753.1522566,N,11251.2193001,E,5,14,1.0,100.489,M,-16.632,M,0.0,*6F
$GPRMC,080247.00,A,2753.1523059,N,11251.2193313,E,1.68,132.32,050620,0.0,E,D*32
$GPGGA,080247.00,2753.1523059,N,11251.2193313,E,5,14,1.0,99.895,M,-16.632,M,0.0,*56
$GPRMC,080248.00,A,2753.1522955,N,11251.2194578,E,2.12,109.55,050620,0.0,E,D*32
$GPGGA,080248.00,2753.1522955,N,11251.2194578,E,5,14,1.0,99.050,M,-16.632,M,0.0,*50
$GPRMC,080249.00,A,2753.1522248,N,11251.2194610,E,0.72,109.55,050620,0.0,E,D*3D
$GPGGA,080249.00,2753.1522248,N,11251.2194610,E,5,14,1.0,99.030,M,-16.632,M,0.0,*5D
$GPRMC,080250.00,A,2753.1522542,N,11251.2193668,E,0.87,109.55,050620,0.0,E,D*3A
$GPGGA,080250.00,2753.1522542,N,11251.2193668,E,5,14,1.0,98.645,M,-16.632,M,0.0,*55
$GPRMC,080251.00,A,2753.1522657,N,11251.2193693,E,0.99,109.55,050620,0.0,E,D*37
$GPGGA,080251.00,2753.1522657,N,11251.2193693,E,5,14,1.0,98.235,M,-16.632,M,0.0,*54
$GPRMC,080252.00,A,2753.1523074,N,11251.2194165,E,0.61,109.55,050620,0.0,E,D*3C
$GPGGA,080252.00,2753.1523074,N,11251.2194165,E,5,14,1.0,97.941,M,-16.632,M,0.0,*5F
$GPRMC,080253.00,A,2753.1522713,N,11251.2194496,E,0.53,109.55,050620,0.0,E,D*32
$GPGGA,080253.00,2753.1522713,N,11251.2194496,E,5,14,1.0,97.968,M,-16.632,M,0.0,*5B
$GPRMC,080254.00,A,2753.1522865,N,11251.2193955,E,1.65,109.55,050620,0.0,E,D*3A
$GPGGA,080254.00,2753.1522865,N,11251.2193955,E,5,14,1.0,98.515,M,-16.632,M,0.0,*5E
$GPRMC,080255.00,A,2753.1522075,N,11251.2192907,E,1.19,109.55,050620,0.0,E,D*3F
$GPGGA,080255.00,2753.1522075,N,11251.2192907,E,5,14,1.0,98.947,M,-16.632,M,0.0,*5B
$GPRMC,080256.00,A,2753.1524171,N,11251.2191504,E,2.32,343.48,050620,0.0,E,D*39
$GPGGA,080256.00,2753.1524171,N,11251.2191504,E,4,14,1.0,98.521,M,-16.632,M,0.0,*5A
$GPRMC,080257.00,A,2753.1522784,N,11251.2193583,E,2.02,139.87,050620,0.0,E,D*30
$GPGGA,080257.00,2753.1522784,N,11251.2193583,E,5,14,1.0,99.342,M,-16.632,M,0.0,*5F
$GPRMC,080258.00,A,2753.1522924,N,11251.2193229,E,1.82,139.87,050620,0.0,E,D*37
$GPGGA,080258.00,2753.1522924,N,11251.2193229,E,5,14,1.0,98.810,M,-16.632,M,0.0,*5E
$GPRMC,080259.00,A,2753.1522323,N,11251.2193826,E,1.30,139.87,050620,0.0,E,D*37
$GPGGA,080259.00,2753.1522323,N,11251.2193826,E,5,14,1.0,99.146,M,-16.632,M,0.0,*5C
$GPRMC,080300.00,A,2753.1522390,N,11251.2193872,E,1.96,310.27,050620,0.0,E,D*3C
$GPGGA,080300.00,2753.1522390,N,11251.2193872,E,5,14,1.0,98.421,M,-16.632,M,0.0,*5D
$GPRMC,080301.00,A,2753.1522594,N,11251.2194308,E,1.94,310.27,050620,0.0,E,D*3C
$GPGGA,080301.00,2753.1522594,N,11251.2194308,E,5,14,1.0,99.040,M,-16.632,M,0.0,*5D
$GPRMC,080302.00,A,2753.1522480,N,11251.2194545,E,0.32,310.27,050620,0.0,E,D*39
$GPGGA,080302.00,2753.1522480,N,11251.2194545,E,5,14,1.0,99.130,M,-16.632,M,0.0,*53
$GPRMC,080303.00,A,2753.1522551,N,11251.2195525,E,1.28,310.27,050620,0.0,E,D*38
$GPGGA,080303.00,2753.1522551,N,11251.2195525,E,5,14,1.0,99.630,M,-16.632,M,0.0,*5F
$GPRMC,080304.00,A,2753.1523325,N,11251.2195105,E,2.24,294.97,050620,0.0,E,D*34
$GPGGA,080304.00,2753.1523325,N,11251.2195105,E,5,14,1.0,98.935,M,-16.632,M,0.0,*51
$GPRMC,080305.00,A,2753.1523004,N,11251.2193671,E,2.04,245.07,050620,0.0,E,D*30
$GPGGA,080305.00,2753.1523004,N,11251.2193671,E,5,14,1.0,99.604,M,-16.632,M,0.0,*5E
$GPRMC,080306.00,A,2753.1523430,N,11251.2194147,E,0.71,245.07,050620,0.0,E,D*35
$GPGGA,080306.00,2753.1523430,N,11251.2194147,E,5,14,1.0,99.587,M,-16.632,M,0.0,*53
$GPRMC,080307.00,A,2753.1522448,N,11251.2195630,E,0.92,245.07,050620,0.0,E,D*31
$GPGGA,080307.00,2753.1522448,N,11251.2195630,E,5,14,1.0,99.685,M,-16.632,M,0.0,*5B
$GPRMC,080308.00,A,2753.1522471,N,11251.2195148,E,1.30,245.07,050620,0.0,E,D*35
$GPGGA,080308.00,2753.1522471,N,11251.2195148,E,5,14,1.0,99.306,M,-16.632,M,0.0,*58
$GPRMC,080309.00,A,2753.1522569,N,11251.2195073,E,0.73,245.07,050620,0.0,E,D*33
$GPGGA,080309.00,2753.1522569,N,11251.2195073,E,5,14,1.0,99.506,M,-16.632,M,0.0,*5E
$GPRMC,080310.00,A,2753.1522581,N,11251.2193720,E,0.94,245.07,050620,0.0,E,D*33
$GPGGA,080310.00,2753.1522581,N,11251.2193720,E,5,14,1.0,99.354,M,-16.632,M,0.0,*56
$GPRMC,080311.00,A,2753.1522903,N,11251.2194127,E,1.45,245.07,050620,0.0,E,D*3F
$GPGGA,080311.00,2753.1522903,N,11251.2194127,E,5,14,1.0,98.895,M,-16.632,M,0.0,*50
$GPRMC,080312.00,A,2753.1522812,N,11251.2195103,E,1.90,245.07,050620,0.0,E,D*32
$GPGGA,080312.00,2753.1522812,N,11251.2195103,E,5,14,1.0,99.505,M,-16.632,M,0.0,*50
$GPRMC,080313.00,A,2753.1521994,N,11251.2195555,E,1.42,245.07,050620,0.0,E,D*37
$GPGGA,080313.00,2753.1521994,N,11251.2195555,E,5,14,1.0,100.046,M,-16.632,M,0.0,*69
$GPRMC,080314.00,A,2753.1522098,N,11251.2194822,E,1.88,245.07,050620,0.0,E,D*3C
$GPGGA,080314.00,2753.1522098,N,11251.2194822,E,5,14,1.0,99.538,M,-16.632,M,0.0,*59
$GPRMC,080315.00,A,2753.1522984,N,11251.2195342,E,0.76,245.07,050620,0.0,E,D*35
$GPGGA,080315.00,2753.1522984,N,11251.2195342,E,5,14,1.0,99.580,M,-16.632,M,0.0,*53
$GPRMC,080316.00,A,2753.1522298,N,11251.2195893,E,1.27,245.07,050620,0.0,E,D*32
$GPGGA,080316.00,2753.1522298,N,11251.2195893,E,5,14,1.0,99.173,M,-16.632,M,0.0,*59
$GPRMC,080317.00,A,2753.1522227,N,11251.2196522,E,2.01,28.59,050620,0.0,E,D*06
$GPGGA,080317.00,2753.1522227,N,11251.2196522,E,5,14,1.0,99.795,M,-16.632,M,0.0,*56
$GPRMC,080318.00,A,2753.1522818,N,11251.2195076,E,1.17,28.59,050620,0.0,E,D*0C
$GPGGA,080318.00,2753.1522818,N,11251.2195076,E,5,14,1.0,100.104,M,-16.632,M,0.0,*67
$GPRMC,080319.00,A,2753.1522167,N,11251.2194747,E,2.88,136.32,050620,0.0,E,D*3E
$GPGGA,080319.00,2753.1522167,N,11251.2194747,E,5,14,1.0,101.286,M,-16.632,M,0.0,*6B
$GPRMC,080320.00,A,2753.1522609,N,11251.2194133,E,0.95,136.32,050620,0.0,E,D*30
$GPGGA,080320.00,2753.1522609,N,11251.2194133,E,5,14,1.0,101.257,M,-16.632,M,0.0,*67
$GPRMC,080321.00,A,2753.1524113,N,11251.2194248,E,2.39,24.73,050620,0.0,E,D*07
$GPGGA,080321.00,2753.1524113,N,11251.2194248,E,5,14,1.0,100.549,M,-16.632,M,0.0,*6A
$GPRMC,080322.00,A,2753.1523564,N,11251.2195074,E,3.12,157.33,050620,0.0,E,D*32
$GPGGA,080322.00,2753.1523564,N,11251.2195074,E,5,14,1.0,101.559,M,-16.632,M,0.0,*66
$GPRMC,080323.00,A,2753.1522895,N,11251.2197068,E,3.23,97.45,050620,0.0,E,D*00
$GPGGA,080323.00,2753.1522895,N,11251.2197068,E,5,14,1.0,102.776,M,-16.632,M,0.0,*66
$GPRMC,080324.00,A,2753.1522949,N,11251.2196693,E,3.39,267.70,050620,0.0,E,D*34
$GPGGA,080324.00,2753.1522949,N,11251.2196693,E,5,14,1.0,101.875,M,-16.632,M,0.0,*6D
$GPRMC,080325.00,A,2753.1523309,N,11251.2197120,E,0.79,267.70,050620,0.0,E,D*33
$GPGGA,080325.00,2753.1523309,N,11251.2197120,E,5,14,1.0,101.781,M,-16.632,M,0.0,*69
$GPRMC,080326.00,A,2753.1522978,N,11251.2198241,E,0.87,267.70,050620,0.0,E,D*37
$GPGGA,080326.00,2753.1522978,N,11251.2198241,E,5,14,1.0,101.423,M,-16.632,M,0.0,*67
$GPRMC,080327.00,A,2753.1522726,N,11251.2195925,E,1.68,267.70,050620,0.0,E,D*37
$GPGGA,080327.00,2753.1522726,N,11251.2195925,E,5,14,1.0,101.576,M,-16.632,M,0.0,*66
$GPRMC,080328.00,A,2753.1523034,N,11251.2195936,E,0.93,267.70,050620,0.0,E,D*3A
$GPGGA,080328.00,2753.1523034,N,11251.2195936,E,5,14,1.0,101.632,M,-16.632,M,0.0,*6D
$GPRMC,080329.00,A,2753.1523595,N,11251.2196005,E,1.13,267.70,050620,0.0,E,D*36
$GPGGA,080329.00,2753.1523595,N,11251.2196005,E,5,14,1.0,101.279,M,-16.632,M,0.0,*63
$GPRMC,080330.00,A,2753.1523561,N,11251.2196455,E,1.38,267.70,050620,0.0,E,D*3D
$GPGGA,080330.00,2753.1523561,N,11251.2196455,E,5,14,1.0,101.720,M,-16.632,M,0.0,*68
$GPRMC,080331.00,A,2753.1522890,N,11251.2196522,E,1.62,267.70,050620,0.0,E,D*30
$GPGGA,080331.00,2753.1522890,N,11251.2196522,E,5,14,1.0,102.333,M,-16.632,M,0.0,*6F
$GPRMC,080332.00,A,2753.1523467,N,11251.2195170,E,4.10,305.59,050620,0.0,E,D*38
$GPGGA,080332.00,2753.1523467,N,11251.2195170,E,5,14,1.0,100.987,M,-16.632,M,0.0,*6E
$GPRMC,080333.00,A,2753.1523952,N,11251.2195128,E,1.88,305.59,050620,0.0,E,D*3B
$GPGGA,080333.00,2753.1523952,N,11251.2195128,E,5,14,1.0,101.516,M,-16.632,M,0.0,*6C
$GPRMC,080334.00,A,2753.1524081,N,11251.2194524,E,1.52,305.59,050620,0.0,E,D*32
$GPGGA,080334.00,2753.1524081,N,11251.2194524,E,5,14,1.0,100.925,M,-16.632,M,0.0,*6F
$GPRMC,080335.00,A,2753.1524010,N,11251.2194889,E,0.87,305.59,050620,0.0,E,D*38
$GPGGA,080335.00,2753.1524010,N,11251.2194889,E,5,14,1.0,101.136,M,-16.632,M,0.0,*67
$GPRMC,080336.00,A,2753.1524545,N,11251.2195654,E,0.52,305.59,050620,0.0,E,D*39
$GPGGA,080336.00,2753.1524545,N,11251.2195654,E,5,14,1.0,101.283,M,-16.632,M,0.0,*63
$GPRMC,080337.00,A,2753.1524145,N,11251.2196721,E,1.49,305.59,050620,0.0,E,D*37
$GPGGA,080337.00,2753.1524145,N,11251.2196721,E,5,14,1.0,101.844,M,-16.632,M,0.0,*67
$GPRMC,080338.00,A,2753.1523869,N,11251.2197296,E,0.30,305.59,050620,0.0,E,D*3F
$GPGGA,080338.00,2753.1523869,N,11251.2197296,E,5,14,1.0,102.066,M,-16.632,M,0.0,*6B
$GPRMC,080339.00,A,2753.1524123,N,11251.2196588,E,1.48,305.59,050620,0.0,E,D*39
$GPGGA,080339.00,2753.1524123,N,11251.2196588,E,5,14,1.0,101.647,M,-16.632,M,0.0,*65
$GPRMC,080340.00,A,2753.1524042,N,11251.2195660,E,0.36,305.59,050620,0.0,E,D*3F
$GPGGA,080340.00,2753.1524042,N,11251.2195660,E,5,14,1.0,101.692,M,-16.632,M,0.0,*63
$GPRMC,080341.00,A,2753.1523714,N,11251.2194821,E,1.08,305.59,050620,0.0,E,D*3B
$GPGGA,080341.00,2753.1523714,N,11251.2194821,E,5,14,1.0,101.265,M,-16.632,M,0.0,*67
$GPRMC,080342.00,A,2753.1524385,N,11251.2193908,E,0.88,305.59,050620,0.0,E,D*37
$GPGGA,080342.00,2753.1524385,N,11251.2193908,E,5,14,1.0,100.974,M,-16.632,M,0.0,*68
$GPRMC,080343.00,A,2753.1523599,N,11251.2194262,E,3.05,152.08,050620,0.0,E,D*38
$GPGGA,080343.00,2753.1523599,N,11251.2194262,E,5,14,1.0,101.977,M,-16.632,M,0.0,*67
$GPRMC,080344.00,A,2753.1523685,N,11251.2195993,E,0.88,152.08,050620,0.0,E,D*33
$GPGGA,080344.00,2753.1523685,N,11251.2195993,E,5,14,1.0,102.195,M,-16.632,M,0.0,*6D
$GPRMC,080345.00,A,2753.1523340,N,11251.2196998,E,1.99,172.37,050620,0.0,E,D*39
$GPGGA,080345.00,2753.1523340,N,11251.2196998,E,5,14,1.0,101.645,M,-16.632,M,0.0,*61
$GPRMC,080346.00,A,2753.1524741,N,11251.2196846,E,1.49,172.37,050620,0.0,E,D*37
$GPGGA,080346.00,2753.1524741,N,11251.2196846,E,5,14,1.0,101.259,M,-16.632,M,0.0,*6B
$GPRMC,080347.00,A,2753.1524180,N,11251.2197306,E,1.17,172.37,050620,0.0,E,D*38
$GPGGA,080347.00,2753.1524180,N,11251.2197306,E,5,14,1.0,101.079,M,-16.632,M,0.0,*6F
$GPRMC,080348.00,A,2753.1525142,N,11251.2195413,E,1.74,172.37,050620,0.0,E,D*3C
$GPGGA,080348.00,2753.1525142,N,11251.2195413,E,5,14,1.0,100.984,M,-16.632,M,0.0,*64
$GPRMC,080349.00,A,2753.1525059,N,11251.2195329,E,2.22,135.99,050620,0.0,E,D*3F
$GPGGA,080349.00,2753.1525059,N,11251.2195329,E,5,14,1.0,101.714,M,-16.632,M,0.0,*66
$GPRMC,080350.00,A,2753.1525811,N,11251.2196454,E,1.49,135.99,050620,0.0,E,D*33
$GPGGA,080350.00,2753.1525811,N,11251.2196454,E,4,14,1.0,102.271,M,-16.632,M,0.0,*60
$GPRMC,080351.00,A,2753.1525788,N,11251.2196433,E,0.64,135.99,050620,0.0,E,D*32
$GPGGA,080351.00,2753.1525788,N,11251.2196433,E,4,14,1.0,102.298,M,-16.632,M,0.0,*68
$GPRMC,080352.00,A,2753.1524699,N,11251.2197188,E,0.57,135.99,050620,0.0,E,D*35
$GPGGA,080352.00,2753.1524699,N,11251.2197188,E,5,14,1.0,102.301,M,-16.632,M,0.0,*6F
$GPRMC,080353.00,A,2753.1523885,N,11251.2197412,E,0.84,135.99,050620,0.0,E,D*38
$GPGGA,080353.00,2753.1523885,N,11251.2197412,E,5,14,1.0,102.550,M,-16.632,M,0.0,*6E
$GPRMC,080354.00,A,2753.1523664,N,11251.2196672,E,2.10,279.11,050620,0.0,E,D*3F
$GPGGA,080354.00,2753.1523664,N,11251.2196672,E,5,14,1.0,101.850,M,-16.632,M,0.0,*63
$GPRMC,080355.00,A,2753.1524838,N,11251.2195792,E,2.61,347.19,050620,0.0,E,D*30
$GPGGA,080355.00,2753.1524838,N,11251.2195792,E,5,14,1.0,100.830,M,-16.632,M,0.0,*69
$GPRMC,080356.00,A,2753.1524426,N,11251.2194842,E,0.86,347.19,050620,0.0,E,D*38
$GPGGA,080356.00,2753.1524426,N,11251.2194842,E,5,14,1.0,100.448,M,-16.632,M,0.0,*69
$GPRMC,080357.00,A,2753.1524090,N,11251.2194199,E,0.99,347.19,050620,0.0,E,D*31
$GPGGA,080357.00,2753.1524090,N,11251.2194199,E,5,14,1.0,100.607,M,-16.632,M,0.0,*67
$GPRMC,080358.00,A,2753.1524231,N,11251.2193965,E,0.68,347.19,050620,0.0,E,D*35
$GPGGA,080358.00,2753.1524231,N,11251.2193965,E,5,14,1.0,100.852,M,-16.632,M,0.0,*63
$GPRMC,080359.00,A,2753.1524146,N,11251.2194563,E,0.39,347.19,050620,0.0,E,D*3E
$GPGGA,080359.00,2753.1524146,N,11251.2194563,E,5,14,1.0,100.891,M,-16.632,M,0.0,*63
$GPRMC,080400.00,A,2753.1522810,N,11251.2195476,E,2.23,158.91,050620,0.0,E,D*38
$GPGGA,080400.00,2753.1522810,N,11251.2195476,E,5,14,1.0,101.710,M,-16.632,M,0.0,*67
$GPRMC,080401.00,A,2753.1523279,N,11251.2194948,E,0.86,158.91,050620,0.0,E,D*31
$GPGGA,080401.00,2753.1523279,N,11251.2194948,E,5,14,1.0,101.774,M,-16.632,M,0.0,*61
$GPRMC,080402.00,A,2753.1523811,N,11251.2195152,E,0.86,158.91,050620,0.0,E,D*34
$GPGGA,080402.00,2753.1523811,N,11251.2195152,E,5,14,1.0,101.605,M,-16.632,M,0.0,*63
$GPRMC,080403.00,A,2753.1523503,N,11251.2194203,E,0.80,158.91,050620,0.0,E,D*3B
$GPGGA,080403.00,2753.1523503,N,11251.2194203,E,5,14,1.0,101.695,M,-16.632,M,0.0,*63
$GPRMC,080404.00,A,2753.1523671,N,11251.2194019,E,0.87,158.91,050620,0.0,E,D*34
$GPGGA,080404.00,2753.1523671,N,11251.2194019,E,5,14,1.0,101.968,M,-16.632,M,0.0,*66
$GPRMC,080405.00,A,2753.1524428,N,11251.2193748,E,3.38,310.92,050620,0.0,E,D*32
$GPGGA,080405.00,2753.1524428,N,11251.2193748,E,5,14,1.0,100.780,M,-16.632,M,0.0,*63
$GPRMC,080406.00,A,2753.1523236,N,11251.2193752,E,3.27,169.84,050620,0.0,E,D*31
$GPGGA,080406.00,2753.1523236,N,11251.2193752,E,5,14,1.0,101.802,M,-16.632,M,0.0,*61
$GPRMC,080407.00,A,2753.1521949,N,11251.2196071,E,1.63,169.84,050620,0.0,E,D*30
$GPGGA,080407.00,2753.1521949,N,11251.2196071,E,4,14,1.0,101.502,M,-16.632,M,0.0,*6E
$GPRMC,080408.00,A,2753.1521936,N,11251.2196059,E,0.79,169.84,050620,0.0,E,D*37
$GPGGA,080408.00,2753.1521936,N,11251.2196059,E,4,14,1.0,101.512,M,-16.632,M,0.0,*62
$GPRMC,080409.00,A,2753.1521992,N,11251.2196099,E,0.89,169.84,050620,0.0,E,D*3B
$GPGGA,080409.00,2753.1521992,N,11251.2196099,E,4,14,1.0,101.478,M,-16.632,M,0.0,*6C
$GPRMC,080410.00,A,2753.1521970,N,11251.2196099,E,0.80,169.84,050620,0.0,E,D*36
$GPGGA,080410.00,2753.1521970,N,11251.2196099,E,4,14,1.0,101.493,M,-16.632,M,0.0,*6D
$GPRMC,080411.00,A,2753.1521998,N,11251.2196111,E,1.00,169.84,050620,0.0,E,D*39
$GPGGA,080411.00,2753.1521998,N,11251.2196111,E,4,14,1.0,101.473,M,-16.632,M,0.0,*65
$GPRMC,080412.00,A,2753.1522844,N,11251.2197124,E,1.15,169.84,050620,0.0,E,D*3A
$GPGGA,080412.00,2753.1522844,N,11251.2197124,E,5,14,1.0,102.343,M,-16.632,M,0.0,*64
$GPRMC,080413.00,A,2753.1523334,N,11251.2195518,E,2.96,254.82,050620,0.0,E,D*3C
$GPGGA,080413.00,2753.1523334,N,11251.2195518,E,5,14,1.0,101.459,M,-16.632,M,0.0,*6E
$GPRMC,080414.00,A,2753.1523649,N,11251.2195015,E,1.58,254.82,050620,0.0,E,D*3D
$GPGGA,080414.00,2753.1523649,N,11251.2195015,E,5,14,1.0,100.787,M,-16.632,M,0.0,*6F
$GPRMC,080415.00,A,2753.1523260,N,11251.2195864,E,2.50,134.58,050620,0.0,E,D*34
$GPGGA,080415.00,2753.1523260,N,11251.2195864,E,5,14,1.0,101.472,M,-16.632,M,0.0,*67
$GPRMC,080416.00,A,2753.1521905,N,11251.2196024,E,0.79,134.58,050620,0.0,E,D*3B
$GPGGA,080416.00,2753.1521905,N,11251.2196024,E,4,14,1.0,101.537,M,-16.632,M,0.0,*60
$GPRMC,080417.00,A,2753.1522671,N,11251.2195589,E,0.66,134.58,050620,0.0,E,D*3A
$GPGGA,080417.00,2753.1522671,N,11251.2195589,E,5,14,1.0,102.391,M,-16.632,M,0.0,*67
$GPRMC,080418.00,A,2753.1523364,N,11251.2195128,E,2.43,290.26,050620,0.0,E,D*3B
$GPGGA,080418.00,2753.1523364,N,11251.2195128,E,5,14,1.0,101.646,M,-16.632,M,0.0,*6B
$GPRMC,080419.00,A,2753.1521934,N,11251.2196047,E,1.17,290.26,050620,0.0,E,D*3E
$GPGGA,080419.00,2753.1521934,N,11251.2196047,E,4,14,1.0,101.513,M,-16.632,M,0.0,*6E
$GPRMC,080420.00,A,2753.1521384,N,11251.2195217,E,2.00,178.98,050620,0.0,E,D*34
$GPGGA,080420.00,2753.1521384,N,11251.2195217,E,5,14,1.0,102.181,M,-16.632,M,0.0,*6C
$GPRMC,080421.00,A,2753.1521015,N,11251.2195854,E,0.86,178.98,050620,0.0,E,D*3F
$GPGGA,080421.00,2753.1521015,N,11251.2195854,E,5,14,1.0,102.566,M,-16.632,M,0.0,*66
$GPRMC,080422.00,A,2753.1519854,N,11251.2194886,E,1.45,178.98,050620,0.0,E,D*3A
$GPGGA,080422.00,2753.1519854,N,11251.2194886,E,4,14,1.0,102.349,M,-16.632,M,0.0,*67
$GPRMC,080423.00,A,2753.1522181,N,11251.2194771,E,4.01,46.88,050620,0.0,E,D*0D
$GPGGA,080423.00,2753.1522181,N,11251.2194771,E,5,14,1.0,100.983,M,-16.632,M,0.0,*67
$GPRMC,080424.00,A,2753.1522128,N,11251.2194446,E,2.05,240.38,050620,0.0,E,D*33
$GPGGA,080424.00,2753.1522128,N,11251.2194446,E,5,14,1.0,101.430,M,-16.632,M,0.0,*60
$GPRMC,080425.00,A,2753.1521690,N,11251.2195131,E,1.12,240.38,050620,0.0,E,D*34
$GPGGA,080425.00,2753.1521690,N,11251.2195131,E,5,14,1.0,101.026,M,-16.632,M,0.0,*61
$GPRMC,080426.00,A,2753.1521938,N,11251.2194692,E,1.82,240.38,050620,0.0,E,D*3C
$GPGGA,080426.00,2753.1521938,N,11251.2194692,E,5,14,1.0,100.381,M,-16.632,M,0.0,*6F
$GPRMC,080427.00,A,2753.1521256,N,11251.2194580,E,1.29,240.38,050620,0.0,E,D*3F
$GPGGA,080427.00,2753.1521256,N,11251.2194580,E,5,14,1.0,100.673,M,-16.632,M,0.0,*65
$GPRMC,080428.00,A,2753.1520667,N,11251.2193865,E,0.51,240.38,050620,0.0,E,D*38
$GPGGA,080428.00,2753.1520667,N,11251.2193865,E,5,14,1.0,100.614,M,-16.632,M,0.0,*6D
$GPRMC,080429.00,A,2753.1520757,N,11251.2194122,E,2.07,72.71,050620,0.0,E,D*09
$GPGGA,080429.00,2753.1520757,N,11251.2194122,E,5,14,1.0,99.890,M,-16.632,M,0.0,*50
$GPRMC,080430.00,A,2753.1521132,N,11251.2193695,E,0.73,72.71,050620,0.0,E,D*08
$GPGGA,080430.00,2753.1521132,N,11251.2193695,E,5,14,1.0,99.577,M,-16.632,M,0.0,*54
$GPRMC,080431.00,A,2753.1521135,N,11251.2195007,E,2.74,95.50,050620,0.0,E,D*0A
$GPGGA,080431.00,2753.1521135,N,11251.2195007,E,5,14,1.0,100.392,M,-16.632,M,0.0,*65
$GPRMC,080432.00,A,2753.1521206,N,11251.2195553,E,1.83,95.50,050620,0.0,E,D*05
$GPGGA,080432.00,2753.1521206,N,11251.2195553,E,5,14,1.0,99.823,M,-16.632,M,0.0,*51
$GPRMC,080433.00,A,2753.1521115,N,11251.2195932,E,0.68,95.50,050620,0.0,E,D*0A
$GPGGA,080433.00,2753.1521115,N,11251.2195932,E,5,14,1.0,99.596,M,-16.632,M,0.0,*59
$GPRMC,080434.00,A,2753.1520274,N,11251.2196103,E,3.11,187.54,050620,0.0,E,D*3A
$GPGGA,080434.00,2753.1520274,N,11251.2196103,E,5,14,1.0,100.638,M,-16.632,M,0.0,*64
$GPRMC,080435.00,A,2753.1520950,N,11251.2194641,E,1.00,187.54,050620,0.0,E,D*37
$GPGGA,080435.00,2753.1520950,N,11251.2194641,E,5,14,1.0,100.702,M,-16.632,M,0.0,*63
