     3.01           OBSERVATION DATA    M: Mixed            RINEX VERSION / TYPE
RTKCONV 2.4.3 b33                       20200607 015419 UTC PGM / RUN BY / DATE 
log: C:\Users\LW\Desktop\test\1.ubx                         COMMENT             
format: u-blox                                              COMMENT             
                                                            MARKER NAME         
                                                            MARKER NUMBER       
                                                            MARKER TYPE         
                                                            OBSERVER / AGENCY   
                                                            REC # / TYPE / VERS 
                                                            ANT # / TYPE        
 -2005042.8407  5411172.8105  2707861.2111                  APPROX POSITION XYZ 
        0.0000        0.0000        0.0000                  ANTENNA: DELTA H/E/N
G    4 C1C L1C D1C S1C                                      SYS / # / OBS TYPES 
S    4 C1C L1C D1C S1C                                      SYS / # / OBS TYPES 
  2019     3    22     6    36    6.4900000     GPS         TIME OF FIRST OBS   
  2019     3    22     7    13   48.4910000     GPS         TIME OF LAST OBS    
G                                                           SYS / PHASE SHIFT   
S                                                           SYS / PHASE SHIFT   
                                                            END OF HEADER       
> 2019  3 22  6 36  6.4900000  0 12                     
G27  17330129.250    91070447.863       -1273.462          50.000  
G 8  17505561.576    91992336.434         960.177          50.000  
G23  18041242.480    94807354.954        -804.519          46.000  
G16  18916001.496    99404251.358       -2186.963          45.000  
G 9  19030624.193   100006612.376         976.952          46.000  
G26  20636366.077   108444795.625       -2433.877          40.000  
G 7  21192012.089   111364744.557        2639.458          36.000  
G11  21504773.563   113008344.294        3097.059          38.000  
G18  21502814.497   112998022.376        2785.607          37.000  
G31  21759994.253   114349533.313       -2755.303          40.000  
G 3  22622912.127   118884203.257       -1941.761          31.000  
G 4  20167447.962   105980646.037        1936.853          39.000  
> 2019  3 22  6 36  6.9900000  0 12                     
G27  17330250.477    91071084.621       -1273.830          49.000  
G 8  17505470.050    91991856.353         959.850          50.000  
G23  18041318.790    94807757.184        -804.756          46.000  
G16  18916209.642    99405344.799       -2187.134          45.000  
G 9  19030531.254   100006124.009         976.516          46.000  
G26  20636597.746   108446012.521       -2433.830          40.000  
G 7  21191760.998   111363424.527        2640.322          36.000  
G11  21504478.759   113006795.606        3097.069          38.000  
G18  21502549.515   112996629.660        2785.240          37.000  
G31  21760256.425   114350911.076       -2755.717          40.000  
G 3  22623096.593   118885173.738       -1941.437          31.000  
G 4  20167263.792   105979677.623        1936.758          39.000  
> 2019  3 22  6 36  7.4900000  0 12                     
G27  17330371.721    91071721.770       -1274.590          50.000  
G 8  17505378.785    91991376.652         959.227          51.000  
G23  18041395.274    94808159.819        -805.495          47.000  
G16  18916417.788    99406438.480       -2187.513          46.000  
G 9  19030438.540   100005636.018         975.670          47.000  
G26  20636829.223   108447229.620       -2434.241          41.000  
G 7  21191510.081   111362104.794        2639.238          37.000  
G11  21504184.130   113005247.158        3096.720          38.000  
G18  21502284.534   112995237.107        2785.277          38.000  
G31  21760518.684   114352289.094       -2756.236          40.000  
G 3  22623281.199   118886144.436       -1941.729          31.000  
G 4  20167079.797   105978709.586        1936.129          39.000  
> 2019  3 22  6 36  7.9900000  0 12                     
G27  17330492.878    91072359.050       -1274.583          50.000  
G 8  17505287.329    91990897.081         959.144          51.000  
G23  18041471.880    94808562.579        -805.528          47.000  
G16  18916625.812    99407532.148       -2187.246          46.000  
G 9  19030345.723   100005148.147         975.546          47.000  
G26  20637060.701   108448446.686       -2434.119          41.000  
G 7  21191258.938   111360784.961        2639.906          37.000  
G11  21503889.448   113003698.669        3097.122          38.000  
G18  21502019.517   112993844.506        2785.450          38.000  
G31  21760780.856   114353667.141       -2755.892          40.000  
G 3  22623465.752   118887114.978       -1941.042          32.000  
G 4  20166895.436   105977741.641        1935.495          39.000  
> 2019  3 22  6 36  8.4900000  0 12                     
G27  17330614.087    91072996.536       -1275.148          49.000  
G 8  17505196.151    91990417.706         958.599          49.000  
G23  18041548.487    94808965.541        -806.053          46.000  
G16  18916833.749    99408625.882       -2187.625          45.000  
G 9  19030252.783   100004660.468         975.137          46.000  
G26  20637292.160   108449663.795       -2434.458          40.000  
G 7  21191007.759   111359465.137        2640.201          37.000  
G11  21503594.731   113002150.192        3097.160          38.000  
G18  21501754.483   112992451.895        2785.613          37.000  
G31  21761042.836   114355045.299       -2756.237          40.000  
G 3  22623650.620   118888085.516       -1940.480          32.000  
G 4  20166711.371   105976773.856        1935.003          39.000  
> 2019  3 22  6 36  8.9900000  0 12                     
G27  17330735.418    91073634.143       -1275.372          51.000  
G 8  17505104.485    91989938.459         958.362          51.000  
G23  18041625.163    94809368.646        -806.407          48.000  
G16  18917041.738    99409719.585       -2187.375          46.000  
G 9  19030160.035   100004172.920         974.881          48.000  
G26  20637523.515   108450880.853       -2434.125          41.000  
G 7  21190756.528   111358145.352        2639.291          38.000  
G11  21503299.997   113000601.695        3097.183          39.000  
G18  21501489.676   112991059.267        2784.879          38.000  
G31  21761305.375   114356423.474       -2756.046          41.000  
G 3  22623835.418   118889055.960       -1940.733          32.000  
G 4  20166527.149   105975806.127        1935.290          41.000  
> 2019  3 22  6 36  9.4900000  0 12                     
G27  17330856.907    91074271.999       -1276.256          51.000  
G 8  17505013.186    91989459.438         957.554          51.000  
G23  18041701.944    94809771.970        -807.080          47.000  
G16  18917249.727    99410813.383       -2187.966          46.000  
G 9  19030067.217   100003685.585         974.195          48.000  
G26  20637754.870   108452097.988       -2434.534          42.000  
G 7  21190505.385   111356825.524        2639.525          38.000  
G11  21503005.245   112999053.270        3096.483          39.000  
G18  21501224.485   112989666.625        2785.254          38.000  
G31  21761567.285   114357801.809       -2757.402          41.000  
G 3  22624020.181   118890026.451       -1941.527          33.000  
G 4  20166342.892   105974838.617        1934.677          40.000  
> 2019  3 22  6 36  9.9900000  0 12                     
G27  17330978.570    91074910.324       -1277.198          51.000  
G 8  17504922.026    91988980.886         956.762          51.000  
G23  18041778.987    94810175.789        -808.215          47.000  
G16  18917457.943    99411907.511       -2188.475          46.000  
G 9  19029974.644   100003198.737         973.138          47.000  
G26  20637986.714   108453315.422       -2435.176          41.000  
G 7  21190254.433   111355506.072        2638.738          37.000  
G11  21502710.651   112997505.112        3096.383          39.000  
G18  21500959.626   112988274.320        2784.000          38.000  
G31  21761829.492   114359180.466       -2757.599          41.000  
G 3  22624204.909   118890997.132       -1941.821          32.000  
G 4  20166158.914   105973871.565        1933.749          40.000  
> 2019  3 22  6 36 10.4900000  0 12                     
G27  17331099.884    91075548.983       -1277.305          51.000  
G 8  17504831.110    91988502.668         956.453          51.000  
G23  18041856.117    94810579.937        -808.329          48.000  
G16  18917665.967    99413001.842       -2188.635          46.000  
G 9  19029881.966   100002712.206         973.127          47.000  
G26  20638218.296   108454533.029       -2435.081          41.000  
G 7  21190003.464   111354186.721        2639.388          38.000  
G11  21502416.073   112995957.179        3096.155          39.000  
G18  21500694.540   112986882.115        2784.452          38.000  
G31  21762091.996   114360559.367       -2757.516          40.000  
G 3  22624389.637   118891967.939       -1940.961          33.000  
G 4  20165974.832   105972904.805        1933.100          40.000  
> 2019  3 22  6 36 10.9900000  0 12                     
G27  17331221.302    91076187.712       -1277.369          51.000  
G 8  17504739.898    91988024.512         956.298          51.000  
G23  18041933.020    94810984.148        -808.384          47.000  
G16  18917874.026    99414096.085       -2188.263          46.000  
G 9  19029789.323   100002225.729         973.209          47.000  
G26  20638449.947   108455750.540       -2434.838          41.000  
G 7  21189752.513   111352867.306        2639.762          38.000  
G11  21502121.479   112994409.101        3096.443          39.000  
G18  21500429.471   112985489.790        2784.528          38.000  
G31  21762354.622   114361938.248       -2757.537          40.000  
G 3  22624574.312   118892938.636       -1941.424          33.000  
G 4  20165790.593   105971938.071        1933.405          39.000  
> 2019  3 22  6 36 11.4900000  0 12                     
G27  17331342.773    91076826.529       -1277.807          51.000  
G 8  17504648.459    91987546.426         955.985          50.000  
G23  18042009.993    94811388.448        -808.811          47.000  
G16  18918082.242    99415190.260       -2188.293          46.000  
G 9  19029696.854   100001739.332         972.620          47.000  
G26  20638681.599   108456967.951       -2434.927          41.000  
G 7  21189501.404   111351547.809        2638.873          37.000  
G11  21501826.797   112992860.956        3096.224          39.000  
G18  21500164.629   112984097.340        2784.634          38.000  
G31  21762616.724   114363317.109       -2757.970          40.000  
G 3  22624759.163   118893909.134       -1941.419          33.000  
G 4  20165606.405   105970971.342        1933.432          39.000  
> 2019  3 22  6 36 11.9900000  0 12                     
G27  17331464.209    91077465.390       -1277.953          51.000  
G 8  17504557.386    91987068.377         955.949          51.000  
G23  18042086.844    94811792.794        -808.970          47.000  
G16  18918290.354    99416284.343       -2188.317          46.000  
G 9  19029604.333   100001252.967         972.534          47.000  
G26  20638913.128   108458185.241       -2434.366          41.000  
G 7  21189250.295   111350228.178        2638.541          37.000  
G11  21501532.185   112991312.657        3096.754          39.000  
G18  21499899.717   112982704.787        2784.778          38.000  
G31  21762878.844   114364695.901       -2757.861          40.000  
G 3  22624943.891   118894879.434       -1940.488          34.000  
G 4  20165422.585   105970004.685        1932.769          39.000  
> 2019  3 22  6 36 12.4900000  0 12                     
G27  17331586.169    91078104.446       -1278.484          50.000  
G 8  17504466.593    91986590.529         955.406          50.000  
G23  18042163.816    94812197.329        -809.367          47.000  
G16  18918498.482    99417378.476       -2188.455          45.000  
G 9  19029511.882   100000766.802         972.026          47.000  
G26  20639144.710   108459402.583       -2435.038          40.000  
G 7  21188999.379   111348908.519        2639.248          37.000  
G11  21501237.625   112989764.422        3096.400          38.000  
G18  21499634.666   112981312.224        2784.775          37.000  
G31  21763141.225   114366074.771       -2758.062          40.000  
G 3  22625128.496   118895849.720       -1940.865          33.000  
G 4  20165238.729   105969038.167        1932.500          39.000  
> 2019  3 22  6 36 12.9900000  0 12                     
G27  17331707.901    91078743.714       -1278.796          50.000  
G 8  17504375.782    91986112.883         955.150          50.000  
G23  18042240.842    94812602.089        -809.847          47.000  
G16  18918706.855    99418472.675       -2188.600          45.000  
G 9  19029419.186   100000280.830         971.723          47.000  
G26  20639376.187   108460619.930       -2434.569          40.000  
G 7  21188748.375   111347588.921        2639.036          37.000  
G11  21500942.961   112988216.194        3096.499          38.000  
G18  21499369.440   112979919.657        2785.178          37.000  
G31  21763403.607   114367453.764       -2758.303          40.000  
G 3  22625313.102   118896819.983       -1939.893          34.000  
G 4  20165054.699   105968071.799        1932.327          39.000  
> 2019  3 22  6 36 13.4900000  0 12                     
G27  17331829.320    91079382.917       -1278.248          50.000  
G 8  17504284.849    91985635.173         955.596          50.000  
G23  18042317.832    94813006.769        -809.204          47.000  
G16  18918914.845    99419566.646       -2187.643          46.000  
G 9  19029326.997    99999794.781         972.193          47.000  
G26  20639607.839   108461837.061       -2433.998          40.000  
G 7  21188497.144   111346269.074        2640.245          37.000  
G11  21500648.401   112986667.740        3097.332          38.000  
G18  21499104.389   112978526.860        2785.807          37.000  
G31  21763665.953   114368832.569       -2757.280          40.000  
G 3  22625497.516   118897789.975       -1939.650          34.000  
G 4  20164870.739   105967105.318        1933.316          39.000  
> 2019  3 22  6 36 13.9900000  0 12                     
G27  17331950.966    91080022.028       -1278.241          50.000  
G 8  17504194.090    91985157.365         955.560          50.000  
G23  18042394.857    94813411.368        -809.195          47.000  
G16  18919123.078    99420660.398       -2187.430          46.000  
G 9  19029234.475    99999308.642         972.283          48.000  
G26  20639839.351   108463053.942       -2433.704          40.000  
G 7  21188245.774   111344948.973        2640.244          37.000  
G11  21500353.685   112985119.040        3097.446          38.000  
G18  21498839.215   112977133.769        2786.252          38.000  
G31  21763928.230   114370211.201       -2757.245          40.000  
G 3  22625681.913   118898759.621       -1938.635          34.000  
G 4  20164686.639   105966138.732        1933.456          39.000  
> 2019  3 22  6 36 14.4900000  0 12                     
G27  17332072.785    91080661.221       -1278.597          51.000  
G 8  17504103.174    91984679.633         955.045          50.000  
G23  18042472.005    94813816.046        -809.662          47.000  
G16  18919331.381    99421754.088       -2187.622          46.000  
G 9  19029142.077    99998822.560         972.040          48.000  
G26  20640070.933   108464270.723       -2433.785          40.000  
G 7  21187994.787   111343628.783        2640.275          37.000  
G11  21500059.003   112983570.226        3097.628          38.000  
G18  21498574.094   112975740.557        2786.800          38.000  
G31  21764190.576   114371589.795       -2757.522          40.000  
G 3  22625866.361   118899729.168       -1939.000          35.000  
G 4  20164502.487   105965172.199        1932.995          39.000  
> 2019  3 22  6 36 14.9900000  0 12                     
G27  17332194.640    91081300.524       -1278.489          50.000  
G 8  17504012.451    91984202.001         955.156          50.000  
G23  18042549.222    94814220.846        -809.646          47.000  
G16  18919539.650    99422847.733       -2187.057          46.000  
G 9  19029049.939    99998336.604         971.814          48.000  
G26  20640302.480   108465487.459       -2433.331          40.000  
G 7  21187743.574   111342308.516        2640.497          37.000  
G11  21499764.338   112982021.377        3097.815          38.000  
G18  21498309.147   112974347.281        2786.783          38.000  
G31  21764452.783   114372968.384       -2756.831          40.000  
G 3  22626050.671   118900698.608       -1939.284          35.000  
G 4  20164318.562   105964205.730        1933.301          39.000  
> 2019  3 22  6 36 15.4900000  0 12                     
G27  17332316.286    91081939.859       -1278.756          51.000  
G 8  17503921.605    91983724.379         955.243          50.000  
G23  18042626.143    94814625.645        -809.423          48.000  
G16  18919747.778    99423941.255       -2186.849          46.000  
G 9  19028957.418    99997850.640         971.865          47.000  
G26  20640534.114   108466704.045       -2433.321          41.000  
G 7  21187492.465   111340988.062        2641.441          37.000  
G11  21499469.465   112980472.354        3098.153          39.000  
G18  21498043.974   112972953.830        2786.891          38.000  
G31  21764715.252   114374346.920       -2756.971          40.000  
G 3  22626235.172   118901667.760       -1937.998          35.000  
G 4  20164134.654   105963239.253        1933.090          39.000  
> 2019  3 22  6 36 15.9900000  0 12                     
G27  17332438.176    91082579.405       -1279.615          51.000  
G 8  17503830.881    91983246.965         954.398          51.000  
G23  18042703.307    94815030.689        -810.691          47.000  
G16  18919955.593    99425034.860       -2187.588          46.000  
G 9  19028864.897    99997364.893         971.020          48.000  
G26  20640765.626   108467920.660       -2433.573          41.000  
G 7  21187241.409   111339667.688        2640.510          37.000  
G11  21499174.765   112978923.408        3097.252          39.000  
G18  21497778.992   112971560.391        2786.459          38.000  
G31  21764977.529   114375725.549       -2757.553          40.000  
G 3  22626419.394   118902636.945       -1938.721          35.000  
G 4  20163950.537   105962272.972        1931.973          39.000  
> 2019  3 22  6 36 16.4900000  0 12                     
G27  17332560.030    91083219.511       -1280.800          51.000  
G 8  17503740.070    91982770.110         953.306          51.000  
G23  18042780.472    94815436.279        -811.701          47.000  
G16  18920163.512    99426128.866       -2188.339          46.000  
G 9  19028772.760    99996879.698         969.939          47.000  
G26  20640997.173   108469137.675       -2434.315          41.000  
G 7  21186990.213   111338347.710        2639.660          37.000  
G11  21498879.839   112977374.827        3096.803          39.000  
G18  21497514.150   112970167.314        2785.740          38.000  
G31  21765239.858   114377104.625       -2758.555          40.000  
G 3  22626603.773   118903606.444       -1939.124          36.000  
G 4  20163766.664   105961307.175        1931.067          39.000  
> 2019  3 22  6 36 16.9900000  0 12                     
G27  17332681.903    91083859.943       -1280.967          51.000  
G 8  17503649.556    91982293.585         953.070          51.000  
G23  18042857.672    94815842.199        -811.941          47.000  
G16  18920371.868    99427223.055       -2188.322          46.000  
G 9  19028680.483    99996394.812         969.819          48.000  
G26  20641228.982   108470354.855       -2434.278          41.000  
G 7  21186739.314   111337027.847        2640.077          37.000  
G11  21498585.367   112975826.421        3096.730          39.000  
G18  21497249.204   112968774.378        2785.822          38.000  
G31  21765502.414   114378483.939       -2758.619          40.000  
G 3  22626788.396   118904576.065       -1938.739          36.000  
G 4  20163582.861   105960341.692        1930.399          39.000  
> 2019  3 22  6 36 17.4900000  0 12                     
G27  17332803.670    91084500.430       -1280.796          50.000  
G 8  17503558.797    91981817.119         953.199          50.000  
G23  18042934.662    94816248.173        -811.643          47.000  
G16  18920579.892    99428317.163       -2187.973          45.000  
G 9  19028588.119    99995909.985         969.834          47.000  
G26  20641460.790   108471571.916       -2433.683          40.000  
G 7  21186487.961   111335707.893        2640.341          37.000  
G11  21498290.842   112974277.874        3097.400          38.000  
G18  21496984.100   112967381.299        2786.659          37.000  
G31  21765765.127   114379863.203       -2758.269          39.000  
G 3  22626972.740   118905545.525       -1938.403          36.000  
G 4  20163399.023   105959376.164        1931.745          39.000  
> 2019  3 22  6 36 17.9900000  0 12                     
G27  17332925.490    91085140.947       -1281.114          50.000  
G 8  17503468.318    91981340.692         952.777          50.000  
G23  18043011.897    94816654.197        -812.214          47.000  
G16  18920787.968    99429411.147       -2187.746          45.000  
G 9  19028495.912    99995425.175         969.630          47.000  
G26  20641692.233   108472788.855       -2433.880          40.000  
G 7  21186236.695   111334387.760        2640.767          37.000  
G11  21497996.230   112972729.193        3097.823          38.000  
G18  21496718.944   112965988.053        2786.520          37.000  
G31  21766027.456   114381242.378       -2758.346          39.000  
G 3  22627157.294   118906514.770       -1938.114          36.000  
G 4  20163215.202   105958410.711        1931.051          39.000  
> 2019  3 22  6 36 18.4900000  0 12                     
G27  17333047.485    91085781.541       -1281.317          50.000  
G 8  17503377.786    91980864.313         952.714          50.000  
G23  18043089.219    94817060.277        -812.210          47.000  
G16  18920996.307    99430505.061       -2187.944          45.000  
G 9  19028403.653    99994940.435         969.323          47.000  
G26  20641923.640   108474005.684       -2433.849          40.000  
G 7  21185985.360   111333067.564        2639.926          37.000  
G11  21497701.531   112971180.453        3097.384          38.000  
G18  21496453.735   112964594.692        2786.771          38.000  
G31  21766290.082   114382621.538       -2758.473          40.000  
G 3  22627341.708   118907483.839       -1937.748          36.000  
G 4  20163031.399   105957445.268        1930.615          39.000  
> 2019  3 22  6 36 18.9900000  0 12                     
G27  17333169.444    91086422.114       -1281.128          49.000  
G 8  17503287.167    91980387.914         952.857          49.000  
G23  18043166.541    94817466.347        -812.067          46.000  
G16  18921204.383    99431598.818       -2187.469          45.000  
G 9  19028311.254    99994455.661         969.681          46.000  
G26  20642155.100   108475222.319       -2432.944          40.000  
G 7  21185734.059   111331747.138        2640.809          37.000  
G11  21497406.849   112969631.501        3097.672          38.000  
G18  21496188.597   112963201.119        2787.609          37.000  
G31  21766552.603   114384000.557       -2758.179          39.000  
G 3  22627526.174   118908452.688       -1937.159          36.000  
G 4  20162847.788   105956479.761        1930.798          37.000  
> 2019  3 22  6 36 19.4900000  0 12                     
G27  17333291.387    91087062.648       -1280.722          49.000  
G 8  17503196.566    91979911.470         953.255          49.000  
G23  18043243.863    94817872.378        -811.641          46.000  
G16  18921412.616    99432692.375       -2186.657          44.000  
G 9  19028219.065    99993970.845         969.886          46.000  
G26  20642386.507   108476438.774       -2432.593          39.000  
G 7  21185482.671   111330426.513        2641.413          36.000  
G11  21497111.958   112968082.311        3099.140          37.000  
G18  21495923.353   112961807.316        2788.160          37.000  
G31  21766815.124   114385379.429       -2757.490          39.000  
G 3  22627710.396   118909421.273       -1936.668          35.000  
G 4  20162664.037   105955514.184        1931.472          38.000  
> 2019  3 22  6 36 19.9900000  0 12                     
G27  17333413.590    91087703.074       -1281.046          49.000  
G 8  17503105.860    91979434.903         952.953          49.000  
G23  18043321.464    94818278.304        -812.074          46.000  
G16  18921620.832    99433785.686       -2186.677          44.000  
G 9  19028126.736    99993485.892         969.725          46.000  
G26  20642617.862   108477654.927       -2432.257          39.000  
G 7  21185231.475   111329105.599        2641.547          36.000  
G11  21496817.258   112966532.883        3098.746          37.000  
G18  21495658.232   112960413.221        2788.284          37.000  
G31  21767077.750   114386758.091       -2757.495          39.000  
G 3  22627894.757   118910389.508       -1936.562          35.000  
G 4  20162480.426   105954548.452        1931.443          38.000  
> 2019  3 22  6 36 20.4900000  0 12                     
G27  17333535.428    91088343.529       -1281.098          49.000  
G 8  17503015.223    91978958.356         952.960          48.000  
G23  18043398.873    94818684.253        -812.044          45.000  
G16  18921828.874    99434878.878       -2186.422          44.000  
G 9  19028034.476    99993000.976         969.776          46.000  
G26  20642849.147   108478870.939       -2432.000          39.000  
G 7  21184980.105   111327784.495        2642.261          36.000  
G11  21496522.507   112964983.287        3099.170          37.000  
G18  21495393.094   112959018.941        2789.038          36.000  
G31  21767340.341   114388136.669       -2757.049          39.000  
G 3  22628078.979   118911357.543       -1936.158          35.000  
G 4  20162296.570   105953582.700        1931.879          38.000  
> 2019  3 22  6 36 20.9900000  0 12                     
G27  17333657.318    91088984.017       -1281.126          50.000  
G 8  17502924.744    91978481.846         952.928          49.000  
G23  18043476.125    94819090.251        -812.113          46.000  
G16  18922036.776    99435971.965       -2186.114          44.000  
G 9  19027942.217    99992516.095         969.710          46.000  
G26  20643080.520   108480086.834       -2431.752          39.000  
G 7  21184728.682   111326463.316        2642.038          36.000  
G11  21496227.703   112963433.567        3099.686          37.000  
G18  21495127.711   112957624.544        2788.812          37.000  
G31  21767602.809   114389515.186       -2756.929          39.000  
G 3  22628262.992   118912325.400       -1935.790          35.000  
G 4  20162112.732   105952616.986        1931.557          38.000  
> 2019  3 22  6 36 21.4900000  0 12                     
G27  17333779.120    91089624.586       -1281.333          50.000  
G 8  17502834.003    91978005.406         952.727          49.000  
G23  18043553.517    94819496.313        -812.294          46.000  
G16  18922244.852    99437064.982       -2186.191          44.000  
G 9  19027850.028    99992031.266         969.460          47.000  
G26  20643312.102   108481302.639       -2431.580          39.000  
G 7  21184477.242   111325142.016        2642.626          36.000  
G11  21495932.620   112961883.746        3099.467          37.000  
G18  21494862.241   112956229.986        2789.409          37.000  
G31  21767865.488   114390893.683       -2757.290          39.000  
G 3  22628447.092   118913293.079       -1935.354          35.000  
G 4  20161928.981   105951651.291        1931.200          38.000  
> 2019  3 22  6 36 21.9900000  0 12                     
G27  17333901.010    91090265.323       -1281.871          49.000  
G 8  17502743.453    91977529.118         952.201          49.000  
G23  18043630.856    94819902.552        -812.975          46.000  
G16  18922452.754    99438158.019       -2186.462          44.000  
G 9  19027757.908    99991546.600         968.821          46.000  
G26  20643543.369   108482518.431       -2432.035          39.000  
G 7  21184225.767   111323820.680        2642.370          36.000  
G11  21495637.885   112960333.932        3099.249          37.000  
G18  21494596.823   112954835.425        2788.619          36.000  
G31  21768128.078   114392272.220       -2757.449          39.000  
G 3  22628631.226   118914260.704       -1935.342          35.000  
G 4  20161745.231   105950685.711        1930.968          38.000  
> 2019  3 22  6 36 22.4900000  0 12                     
G27  17334022.830    91090906.124       -1281.620          49.000  
G 8  17502652.363    91977052.912         952.400          50.000  
G23  18043708.126    94820308.864        -812.856          46.000  
G16  18922660.586    99439250.983       -2185.901          45.000  
G 9  19027665.526    99991061.991         969.119          47.000  
G26  20643774.689   108483734.112       -2431.248          39.000  
G 7  21183974.449   111322499.277        2643.048          36.000  
G11  21495342.924   112958784.024        3099.528          37.000  
G18  21494331.475   112953440.709        2789.629          36.000  
G31  21768390.460   114393650.724       -2757.025          39.000  
G 3  22628815.221   118915228.186       -1934.791          35.000  
G 4  20161561.323   105949720.187        1931.151          38.000  
> 2019  3 22  6 36 22.9900000  0 12                     
G27  17334145.034    91091547.071       -1282.005          50.000  
G 8  17502561.936    91976576.828         952.073          50.000  
G23  18043785.483    94820715.307        -813.041          47.000  
G16  18922868.645    99440343.934       -2185.774          45.000  
G 9  19027573.442    99990577.528         968.815          47.000  
G26  20644006.027   108484949.776       -2431.097          39.000  
G 7  21183722.974   111321177.827        2643.130          36.000  
G11  21495047.946   112957234.049        3100.285          38.000  
G18  21494065.935   112952045.979        2789.636          37.000  
G31  21768652.876   114395029.268       -2757.143          40.000  
G 3  22628999.304   118916195.569       -1934.802          35.000  
G 4  20161377.624   105948754.763        1930.800          38.000  
> 2019  3 22  6 36 23.4900000  0 12                     
G27  17334267.063    91092188.307       -1282.937          50.000  
G 8  17502471.352    91976101.035         951.161          50.000  
G23  18043862.909    94821122.044        -813.873          47.000  
G16  18923076.599    99441437.037       -2186.459          45.000  
G 9  19027481.060    99990093.329         968.001          47.000  
G26  20644237.347   108486165.569       -2431.876          40.000  
G 7  21183471.324   111319856.468        2642.374          37.000  
G11  21494753.037   112955684.234        3099.319          38.000  
G18  21493800.412   112950651.342        2788.728          37.000  
G31  21768915.432   114396408.001       -2757.835          40.000  
G 3  22629183.177   118917163.013       -1935.317          35.000  
G 4  20161193.961   105947789.587        1929.696          38.000  
> 2019  3 22  6 36 23.9900000  0 12                     
G27  17334389.005    91092829.965       -1283.541          50.000  
G 8  17502380.890    91975625.658         950.635          50.000  
G23  18043940.475    94821529.211        -814.500          47.000  
G16  18923284.641    99442530.413       -2186.810          45.000  
G 9  19027388.923    99989609.541         967.558          47.000  
G26  20644468.650   108487381.613       -2432.272          40.000  
G 7  21183219.762   111318535.372        2642.190          37.000  
G11  21494458.163   112954134.634        3099.496          38.000  
G18  21493535.064   112949256.891        2788.857          37.000  
G31  21769178.058   114397787.035       -2758.099          40.000  
G 3  22629367.346   118918130.665       -1935.480          35.000  
G 4  20161010.088   105946824.764        1929.416          38.000  
> 2019  3 22  6 36 24.4900000  0 12                     
G27  17334511.104    91093471.924       -1284.204          50.000  
G 8  17502290.376    91975150.585         949.844          50.000  
G23  18044017.902    94821936.682        -815.310          47.000  
G16  18923492.665    99443623.947       -2187.178          45.000  
G 9  19027296.995    99989126.076         966.469          47.000  
G26  20644700.144   108488597.789       -2432.529          40.000  
G 7  21182968.339   111317214.417        2641.473          36.000  
G11  21494163.098   112952585.219        3098.781          38.000  
G18  21493269.629   112947862.584        2788.536          37.000  
G31  21769440.649   114399166.283       -2758.802          40.000  
G 3  22629551.341   118919098.361       -1935.400          35.000  
G 4  20160826.459   105945860.256        1928.617          38.000  
> 2019  3 22  6 36 24.9900000  0 12                     
G27  17334632.977    91094114.080       -1284.734          50.000  
G 8  17502199.809    91974675.693         949.498          50.000  
G23  18044095.468    94822344.338        -815.510          47.000  
G16  18923700.654    99444717.533       -2187.378          45.000  
G 9  19027204.893    99988642.766         966.437          47.000  
G26  20644931.569   108489813.982       -2432.446          40.000  
G 7  21182717.091   111315893.426        2642.370          37.000  
G11  21493868.259   112951035.771        3098.568          38.000  
G18  21493004.246   112946468.287        2788.195          37.000  
G31  21769703.118   114400545.590       -2758.527          40.000  
G 3  22629735.354   118920066.055       -1935.637          35.000  
G 4  20160642.866   105944895.873        1928.295          38.000  
> 2019  3 22  6 36 25.4900000  0 12                     
G27  17334754.989    91094756.546       -1284.986          50.000  
G 8  17502109.278    91974201.125         948.980          50.000  
G23  18044172.912    94822752.322        -816.019          47.000  
G16  18923908.591    99445811.284       -2187.472          45.000  
G 9  19027112.738    99988159.786         965.784          47.000  
G26  20645162.872   108491030.330       -2432.580          40.000  
G 7  21182465.668   111314572.631        2641.913          37.000  
G11  21493573.437   112949486.506        3098.462          38.000  
G18  21492738.828   112945074.090        2788.318          37.000  
G31  21769965.656   114401925.152       -2759.002          40.000  
G 3  22629919.454   118921033.813       -1935.325          35.000  
G 4  20160459.167   105943931.763        1928.182          38.000  
> 2019  3 22  6 36 25.9900000  0 12                     
G27  17334877.193    91095399.211       -1285.383          50.000  
G 8  17502018.746    91973726.736         948.644          50.000  
G23  18044250.356    94823160.500        -816.470          47.000  
G16  18924116.702    99446905.087       -2187.630          45.000  
G 9  19027020.654    99987676.980         965.440          47.000  
G26  20645394.331   108492246.704       -2432.789          40.000  
G 7  21182214.176   111313251.834        2641.570          37.000  
G11  21493278.651   112947937.241        3098.564          38.000  
G18  21492473.480   112943679.910        2788.220          37.000  
G31  21770228.230   114403304.770       -2759.237          40.000  
G 3  22630103.536   118922001.548       -1935.302          35.000  
G 4  20160275.591   105942967.833        1927.825          38.000  
> 2019  3 22  6 36 26.4900000  0 12                     
G27  17334999.414    91096042.021       -1285.941          50.000  
G 8  17501928.563    91973252.479         948.371          50.000  
G23  18044327.992    94823568.807        -816.856          46.000  
G16  18924324.709    99447998.871       -2187.631          45.000  
G 9  19026928.831    99987194.303         965.140          47.000  
G26  20645625.739   108493463.057       -2432.886          39.000  
G 7  21181962.858   111311930.997        2641.743          37.000  
G11  21492983.725   112946387.944        3098.722          38.000  
G18  21492208.167   112942285.650        2788.392          37.000  
G31  21770490.733   114404684.433       -2759.374          40.000  
G 3  22630287.427   118922969.191       -1935.300          35.000  
G 4  20160092.137   105942004.005        1927.203          38.000  
> 2019  3 22  6 36 26.9900000  0 12                     
G27  17335121.653    91096684.969       -1286.266          50.000  
G 8  17501838.154    91972778.370         948.009          50.000  
G23  18044405.594    94823977.275        -817.307          47.000  
G16  18924532.715    99449092.676       -2187.826          45.000  
G 9  19026836.973    99986711.769         964.694          47.000  
G26  20645857.059   108494679.375       -2432.777          40.000  
G 7  21181711.435   111310610.164        2641.574          37.000  
G11  21492688.921   112944838.640        3098.613          38.000  
G18  21491942.697   112940891.373        2788.212          37.000  
G31  21770753.202   114406064.135       -2759.567          40.000  
G 3  22630471.422   118923936.736       -1935.104          35.000  
G 4  20159908.630   105941040.267        1927.188          38.000  
> 2019  3 22  6 36 27.4900000  0 12                     
G27  17335243.891    91097327.993       -1285.794          50.000  
G 8  17501747.971    91972304.329         948.248          50.000  
G23  18044483.264    94824385.806        -816.891          47.000  
G16  18924740.827    99450186.394       -2187.154          44.000  
G 9  19026745.150    99986229.289         965.176          47.000  
G26  20646088.606   108495895.594       -2432.122          40.000  
G 7  21181460.047   111309289.177        2642.163          37.000  
G11  21492393.925   112943289.238        3099.098          38.000  
G18  21491677.244   112939496.943        2789.354          37.000  
G31  21771015.723   114407443.814       -2759.058          40.000  
G 3  22630655.434   118924904.168       -1934.485          35.000  
G 4  20159725.124   105940076.583        1927.280          38.000  
> 2019  3 22  6 36 27.9900000  0 12                     
G27  17335366.357    91097970.962       -1286.283          50.000  
G 8  17501657.753    91971830.218         947.954          50.000  
G23  18044561.005    94824794.274        -817.167          46.000  
G16  18924948.990    99451279.903       -2187.174          44.000  
G 9  19026653.344    99985746.754         964.710          47.000  
G26  20646319.978   108497111.589       -2432.075          39.000  
G 7  21181208.764   111307967.957        2642.409          37.000  
G11  21492099.191   112941739.618        3098.922          38.000  
G18  21491411.914   112938102.301        2789.132          37.000  
G31  21771278.366   114408823.314       -2759.277          40.000  
G 3  22630839.359   118925871.262       -1934.025          34.000  
G 4  20159541.739   105939112.768        1927.634          38.000  
> 2019  3 22  6 36 28.4900000  0 12                     
G27  17335488.561    91098614.230       -1286.891          49.000  
G 8  17501567.675    91971356.410         947.283          49.000  
G23  18044638.659    94825203.074        -817.992          46.000  
G16  18925157.119    99452373.584       -2187.483          44.000  
G 9  19026561.434    99985264.521         963.986          46.000  
G26  20646551.228   108498327.736       -2432.409          39.000  
G 7  21180957.306   111306646.887        2641.934          37.000  
G11  21491804.334   112940190.118        3098.718          38.000  
G18  21491146.636   112936707.747        2788.875          37.000  
G31  21771540.975   114410203.026       -2759.482          40.000  
G 3  22631023.442   118926838.478       -1934.326          34.000  
G 4  20159358.372   105938149.264        1926.752          38.000  
> 2019  3 22  6 36 28.9900000  0 12                     
G27  17335611.288    91099257.876       -1287.625          50.000  
G 8  17501477.493    91970882.966         946.619          50.000  
G23  18044716.242    94825612.219        -818.567          46.000  
G16  18925365.300    99453467.492       -2188.041          44.000  
G 9  19026469.750    99984782.626         963.573          47.000  
G26  20646782.706   108499544.077       -2432.942          39.000  
G 7  21180705.866   111305326.016        2641.695          37.000  
G11  21491509.495   112938640.810        3098.769          38.000  
G18  21490881.357   112935313.389        2788.445          37.000  
G31  21771803.548   114411582.995       -2760.072          40.000  
G 3  22631207.227   118927805.815       -1934.764          34.000  
G 4  20159175.093   105937186.086        1925.831          38.000  
> 2019  3 22  6 36 29.4900000  0 12                     
G27  17335733.859    91099901.751       -1287.957          50.000  
G 8  17501387.380    91970409.751         946.395          50.000  
G23  18044794.210    94826021.604        -818.928          47.000  
G16  18925573.324    99454561.485       -2188.051          45.000  
G 9  19026378.102    99984300.967         963.276          47.000  
G26  20647014.218   108500760.477       -2432.893          40.000  
G 7  21180454.583   111304005.197        2641.439          37.000  
G11  21491214.534   112937091.594        3098.331          38.000  
G18  21490615.957   112933919.039        2788.564          37.000  
G31  21772066.261   114412963.104       -2760.390          40.000  
G 3  22631391.310   118928773.178       -1934.736          34.000  
G 4  20158991.743   105936223.096        1925.464          38.000  
> 2019  3 22  6 36 29.9900000  0 12                     
G27  17335856.254    91100545.820       -1288.289          50.000  
G 8  17501297.267    91969936.736         945.885          49.000  
G23  18044872.265    94826431.194        -819.393          46.000  
G16  18925781.383    99455655.532       -2188.194          45.000  
G 9  19026286.593    99983819.507         962.739          47.000  
G26  20647245.538   108501976.903       -2432.701          40.000  
G 7  21180203.178   111302684.410        2641.401          37.000  
G11  21490919.765   112935542.375        3098.572          38.000  
G18  21490350.609   112932524.697        2788.904          37.000  
G31  21772328.939   114414343.285       -2760.372          40.000  
G 3  22631575.497   118929740.505       -1934.965          34.000  
G 4  20158808.551   105935260.255        1925.479          38.000  
> 2019  3 22  6 36 30.4900000  0 12                     
G27  17335978.738    91101190.024       -1288.378          50.000  
G 8  17501207.363    91969463.834         945.844          50.000  
G23  18044950.232    94826840.909        -819.511          47.000  
G16  18925989.774    99456749.555       -2188.048          45.000  
G 9  19026195.101    99983338.160         962.573          47.000  
G26  20647477.311   108503193.299       -2432.715          40.000  
G 7  21179951.929   111301363.540        2641.662          37.000  
G11  21490625.049   112933993.128        3098.917          38.000  
G18  21490085.453   112931130.311        2789.000          37.000  
G31  21772591.513   114415723.497       -2760.289          40.000  
G 3  22631759.684   118930707.712       -1934.604          34.000  
G 4  20158625.306   105934297.517        1925.377          38.000  
> 2019  3 22  6 36 30.9900000  0 12                     
G27  17336101.674    91101834.323       -1288.901          50.000  
G 8  17501117.460    91968991.029         945.323          50.000  
G23  18045028.427    94827250.726        -820.085          47.000  
G16  18926198.007    99457843.528       -2188.226          45.000  
G 9  19026103.540    99982856.897         962.043          47.000  
G26  20647708.858   108504409.615       -2432.963          40.000  
G 7  21179700.699   111300042.611        2641.742          37.000  
G11  21490329.965   112932443.813        3098.518          38.000  
G18  21489820.087   112929735.847        2788.676          37.000  
G31  21772854.365   114417103.700       -2760.455          40.000  
G 3  22631943.505   118931674.774       -1933.842          34.000  
G 4  20158442.114   105933334.824        1925.168          38.000  
> 2019  3 22  6 36 31.4900000  0 12                     
G27  17336224.367    91102478.884       -1289.405          50.000  
G 8  17501027.207    91968518.473         944.884          49.000  
G23  18045106.325    94827660.795        -820.509          47.000  
G16  18926406.188    99458937.619       -2188.396          45.000  
G 9  19026011.944    99982375.886         961.714          47.000  
G26  20647940.580   108505626.034       -2433.077          40.000  
G 7  21179449.363   111298721.765        2641.283          37.000  
G11  21490035.214   112930894.561        3098.451          38.000  
G18  21489554.617   112928341.437        2788.611          37.000  
G31  21773117.113   114418484.061       -2760.857          40.000  
G 3  22632127.482   118932641.916       -1934.307          33.000  
G 4  20158259.009   105932372.377        1924.643          38.000  
> 2019  3 22  6 36 31.9900000  0 12                     
G27  17336347.042    91103123.754       -1290.335          50.000  
G 8  17500937.548    91968046.218         944.095          50.000  
G23  18045184.449    94828071.181        -821.341          47.000  
G16  18926614.439    99460031.876       -2188.865          45.000  
G 9  19025920.417    99981895.184         960.681          47.000  
G26  20648172.197   108506842.592       -2433.636          40.000  
G 7  21179198.062   111297401.062        2640.883          37.000  
G11  21489740.532   112929345.469        3097.969          38.000  
G18  21489289.304   112926947.125        2788.304          37.000  
G31  21773379.809   114419864.628       -2761.633          40.000  
G 3  22632311.547   118933609.136       -1934.929          33.000  
G 4  20158075.781   105931410.221        1923.267          38.000  
> 2019  3 22  6 36 32.4900000  0 12                     
G27  17336469.822    91103768.874       -1290.746          50.000  
G 8  17500847.906    91967574.214         943.620          50.000  
G23  18045262.626    94828481.811        -821.722          47.000  
G16  18926822.742    99461126.238       -2189.010          45.000  
G 9  19025828.908    99981414.711         960.373          47.000  
G26  20648403.761   108508059.215       -2433.448          40.000  
G 7  21178946.762   111296080.406        2641.077          37.000  
G11  21489445.362   112927796.467        3097.798          38.000  
G18  21489023.974   112925552.882        2788.346          37.000  
G31  21773642.679   114421245.330       -2761.671          40.000  
G 3  22632495.612   118934576.316       -1934.440          33.000  
G 4  20157892.641   105930448.207        1924.074          39.000  
> 2019  3 22  6 36 32.9900000  0 12                     
G27  17336592.549    91104414.385       -1291.311          50.000  
G 8  17500758.125    91967102.607         942.789          49.000  
G23  18045340.821    94828892.844        -822.383          47.000  
G16  18927031.063    99462220.844       -2189.457          45.000  
G 9  19025737.382    99980934.629         959.843          47.000  
G26  20648635.203   108509276.078       -2433.931          40.000  
G 7  21178695.304   111294759.984        2640.816          37.000  
G11  21489150.610   112926247.692        3097.183          38.000  
G18  21488758.695   112924158.859        2787.617          37.000  
G31  21773905.444   114422626.324       -2762.315          40.000  
G 3  22632679.677   118935543.734       -1935.330          33.000  
G 4  20157709.589   105929486.607        1922.979          38.000  
> 2019  3 22  6 36 33.4900000  0 12                     
G27  17336715.259    91105059.956       -1290.780          50.000  
G 8  17500668.308    91966631.036         943.465          50.000  
G23  18045418.823    94829303.932        -821.853          47.000  
G16  18927239.279    99463315.362       -2188.578          45.000  
G 9  19025646.065    99980454.604         960.473          47.000  
G26  20648866.506   108510492.815       -2432.951          40.000  
G 7  21178443.812   111293439.437        2641.947          37.000  
G11  21488855.980   112924698.779        3098.128          38.000  
G18  21488493.347   112922764.655        2789.336          37.000  
G31  21774167.913   114424007.267       -2761.480          40.000  
G 3  22632863.794   118936510.926       -1934.119          32.000  
G 4  20157526.798   105928525.006        1923.436          39.000  
> 2019  3 22  6 36 33.9900000  0 12                     
G27  17336838.108    91105705.343       -1290.623          50.000  
G 8  17500578.667    91966159.279         943.548          50.000  
G23  18045497.035    94829714.830        -821.726          47.000  
G16  18927447.443    99464409.547       -2188.091          45.000  
G 9  19025554.696    99979974.381         960.476          47.000  
G26  20649097.791   108511709.220       -2432.512          40.000  
G 7  21178192.337   111292118.539        2642.186          37.000  
G11  21488560.984   112923149.504        3099.015          38.000  
G18  21488227.965   112921370.107        2789.508          37.000  
G31  21774430.504   114425387.930       -2761.257          40.000  
G 3  22633047.702   118937477.714       -1933.403          32.000  
G 4  20157343.762   105927563.177        1923.873          39.000  
> 2019  3 22  6 36 34.4900000  0 12                     
G27  17336960.801    91106350.756       -1291.161          50.000  
G 8  17500488.816    91965687.536         943.205          49.000  
G23  18045575.037    94830125.752        -822.101          47.000  
G16  18927655.589    99465503.606       -2188.163          45.000  
G 9  19025463.326    99979494.169         960.287          47.000  
G26  20649329.059   108512925.447       -2432.263          40.000  
G 7  21177940.931   111290797.481        2642.232          37.000  
G11  21488266.128   112921600.125        3098.478          38.000  
G18  21487962.459   112919975.386        2789.441          37.000  
G31  21774693.042   114426768.488       -2761.037          40.000  
G 3  22633231.592   118938444.322       -1934.034          32.000  
G 4  20157160.692   105926601.348        1923.419          39.000  
> 2019  3 22  6 36 34.9900000  0 12                     
G27  17337083.685    91106996.298       -1291.107          50.000  
G 8  17500398.807    91965215.933         943.041          50.000  
G23  18045653.319    94830536.823        -822.389          47.000  
G16  18927863.840    99466597.668       -2188.022          45.000  
G 9  19025372.114    99979014.096         959.875          47.000  
G26  20649560.449   108514141.688       -2432.423          40.000  
G 7  21177689.369   111289476.378        2642.022          37.000  
G11  21487971.237   112920050.679        3098.934          38.000  
G18  21487697.111   112918580.597        2789.476          37.000  
G31  21774955.738   114428149.097       -2761.126          40.000  
G 3  22633415.657   118939410.809       -1933.167          32.000  
G 4  20156977.622   105925639.605        1923.623          39.000  
> 2019  3 22  6 36 35.4900000  0 12                     
G27  17337206.552    91107642.068       -1292.154          50.000  
G 8  17500309.131    91964744.544         942.208          50.000  
G23  18045731.601    94830948.111        -823.034          47.000  
G16  18928072.108    99467691.809       -2188.718          45.000  
G 9  19025280.640    99978534.227         959.249          47.000  
G26  20649792.048   108515357.973       -2433.068          40.000  
G 7  21177437.719   111288155.329        2641.354          37.000  
G11  21487676.258   112918501.290        3098.472          38.000  
G18  21487431.659   112917185.830        2789.358          37.000  
G31  21775218.503   114429529.837       -2762.244          40.000  
G 3  22633599.495   118940377.329       -1933.656          32.000  
G 4  20156794.569   105924678.098        1922.513          39.000  
> 2019  3 22  6 36 35.9900000  0 12                     
G27  17337329.541    91108288.098       -1292.304          50.000  
G 8  17500219.419    91964273.422         941.933          49.000  
G23  18045809.935    94831359.675        -823.451          47.000  
G16  18928280.289    99468786.061       -2188.605          45.000  
G 9  19025189.323    99978054.621         958.956          46.000  
G26  20650023.525   108516574.342       -2433.044          40.000  
G 7  21177186.558   111286834.379        2641.740          37.000  
G11  21487381.297   112916952.007        3098.463          38.000  
G18  21487166.206   112915791.169        2788.989          37.000  
G31  21775481.251   114430910.699       -2761.802          40.000  
G 3  22633783.455   118941343.818       -1932.900          32.000  
G 4  20156611.726   105923716.764        1922.661          39.000  
> 2019  3 22  6 36 36.4900000  0 12                     
G27  17337452.688    91108934.337       -1292.601          50.000  
G 8  17500130.074    91963802.497         941.712          50.000  
G23  18045888.408    94831771.429        -823.735          47.000  
G16  18928488.715    99469880.368       -2188.591          45.000  
G 9  19025098.163    99977575.206         958.779          47.000  
G26  20650255.107   108517790.735       -2432.781          40.000  
G 7  21176935.223   111285513.463        2641.832          37.000  
G11  21487086.459   112915402.754        3098.725          37.000  
G18  21486900.718   112914396.490        2789.109          37.000  
G31  21775744.017   114432291.682       -2762.005          40.000  
G 3  22633967.468   118942310.343       -1932.928          32.000  
G 4  20156428.917   105922755.603        1922.306          39.000  
> 2019  3 22  6 36 36.9900000  0 12                     
G27  17337576.008    91109580.568       -1292.331          50.000  
G 8  17500040.502    91963331.565         941.876          49.000  
G23  18045966.969    94832183.178        -823.409          47.000  
G16  18928697.140    99470974.528       -2188.006          45.000  
G 9  19025007.108    99977095.778         959.016          47.000  
G26  20650486.619   108519006.967       -2432.337          40.000  
G 7  21176683.905   111284192.355        2641.831          37.000  
G11  21486791.480   112913853.322        3098.865          37.000  
G18  21486635.318   112913001.600        2789.905          37.000  
G31  21776006.869   114433672.539       -2761.354          40.000  
G 3  22634151.306   118943276.588       -1931.742          32.000  
G 4  20156245.917   105921794.393        1922.842          39.000  
> 2019  3 22  6 36 37.4900000  0 12                     
G27  17337698.945    91110226.859       -1292.870          50.000  
G 8  17499951.017    91962860.680         941.576          49.000  
G23  18046045.251    94832595.000        -823.955          46.000  
G16  18928905.321    99472068.611       -2188.343          44.000  
G 9  19024915.896    99976616.407         958.476          46.000  
G26  20650718.026   108520223.090       -2432.312          40.000  
G 7  21176432.674   111282871.099        2642.448          37.000  
G11  21486496.816   112912303.780        3099.005          37.000  
G18  21486369.813   112911606.604        2789.975          37.000  
G31  21776269.600   114435053.371       -2761.928          40.000  
G 3  22634335.179   118944242.731       -1932.645          32.000  
G 4  20156062.951   105920833.240        1922.033          39.000  
> 2019  3 22  6 36 37.9900000  0 12                     
G27  17337821.690    91110873.473       -1293.739          50.000  
G 8  17499861.550    91962390.123         940.616          49.000  
G23  18046123.585    94833007.136        -824.797          47.000  
G16  18929113.555    99473162.862       -2188.965          44.000  
G 9  19024824.526    99976137.343         957.735          46.000  
G26  20650949.538   108521439.372       -2432.937          40.000  
G 7  21176181.443   111281550.028        2641.640          37.000  
G11  21486202.081   112910754.399        3098.397          37.000  
G18  21486104.360   112910211.717        2789.458          37.000  
G31  21776532.400   114436434.409       -2762.452          40.000  
G 3  22634518.912   118945208.932       -1932.883          32.000  
G 4  20155880.195   105919872.349        1921.356          39.000  
> 2019  3 22  6 36 38.4900000  0 12                     
G27  17337944.766    91111520.528       -1294.484          50.000  
G 8  17499771.943    91961919.996         939.861          49.000  
G23  18046202.041    94833419.726        -825.686          47.000  
G16  18929321.753    99474257.401       -2189.278          45.000  
G 9  19024733.349    99975658.718         956.735          46.000  
G26  20651181.242   108522655.907       -2433.258          40.000  
G 7  21175930.143   111280229.187        2641.961          37.000  
G11  21485907.173   112909205.271        3098.054          38.000  
G18  21485838.995   112908817.100        2789.094          37.000  
G31  21776795.288   114437815.771       -2763.138          40.000  
G 3  22634702.750   118946175.315       -1932.852          32.000  
G 4  20155697.509   105918911.875        1920.495          39.000  
> 2019  3 22  6 36 38.9900000  0 12                     
G27  17338068.174    91112167.649       -1294.345          50.000  
G 8  17499682.546    91961449.931         939.969          49.000  
G23  18046280.619    94833832.368        -825.421          46.000  
G16  18929530.213    99475351.863       -2188.809          44.000  
G 9  19024642.206    99975180.137         957.137          46.000  
G26  20651412.824   108523872.359       -2433.091          39.000  
G 7  21175678.615   111278908.253        2642.041          37.000  
G11  21485612.456   112907656.060        3098.350          37.000  
G18  21485573.612   112907422.354        2789.590          37.000  
G31  21777058.070   114439197.099       -2762.696          40.000  
G 3  22634886.728   118947141.577       -1932.064          32.000  
G 4  20155514.648   105917951.421        1920.629          38.000  
> 2019  3 22  6 36 39.4900000  0 12                     
G27  17338191.233    91112814.901       -1294.609          50.000  
G 8  17499593.148    91960979.980         939.795          49.000  
G23  18046359.180    94834245.144        -825.722          46.000  
G16  18929738.517    99476446.312       -2188.922          45.000  
G 9  19024551.430    99974701.688         956.696          46.000  
G26  20651644.319   108525088.751       -2432.942          39.000  
G 7  21175427.036   111277587.292        2642.238          37.000  
G11  21485317.600   112906106.803        3098.537          37.000  
G18  21485308.334   112906027.520        2790.176          37.000  
G31  21777320.940   114440578.452       -2762.820          40.000  
G 3  22635070.706   118948107.703       -1932.020          32.000  
