     3.02           OBSERVATION DATA    M: Mixed            RINEX VERSION / TYPE
RTKCONV 2.4.3 b33                       20200605 120401 UTC PGM / RUN BY / DATE 
log: C:\Users\204\Desktop\test\²âÊÔÊý¾Ý\base_202006050758.  COMMENT             
format: u-blox                                              COMMENT             
                                                            MARKER NAME         
                                                            MARKER NUMBER       
                                                            MARKER TYPE         
                                                            OBSERVER / AGENCY   
                                                            REC # / TYPE / VERS 
                                                            ANT # / TYPE        
 -2191133.4751  5198853.0764  2965380.4641                  APPROX POSITION XYZ 
        0.0000        0.0000        0.0000                  ANTENNA: DELTA H/E/N
G    4 C1C L1C D1C S1C                                      SYS / # / OBS TYPES 
C    4 C1I L1I D1I S1I                                      SYS / # / OBS TYPES 
  2020     6     5     7    58   58.0000000     GPS         TIME OF FIRST OBS   
  2020     6     5     8    27   58.0000000     GPS         TIME OF LAST OBS    
G                                                           SYS / PHASE SHIFT   
C                                                           SYS / PHASE SHIFT   
  0                                                         GLONASS SLOT / FRQ #
 C1C    0.000 C1P    0.000 C2C    0.000 C2P    0.000        GLONASS COD/PHS/BIS 
                                                            END OF HEADER       
> 2020  6  5  7 58 58.0000000  0 25                     
G12  23877918.368    -7490611.500        3297.402          38.750  
G 3  25096745.019    -7199568.239       -3253.359          36.000  
C13  36778408.211   -21820390.4372          6.855          45.000  
G17  20960554.949   -25394566.894         122.910          46.000  
C23  26068440.326   -11189616.4912      -2278.770          37.000  
C28  22299282.238   -23413144.9772        789.404          48.250  
G 5  23948849.594    -9955960.717        3954.902          36.500  
G 4  24315756.301    -8507060.005         753.389          36.000  
G19  20470292.372   -30642931.386         843.145          46.250  
G 2  22682362.070   -15057882.358        1294.180          43.250  
C 3  36203047.729   -20402992.7462        292.051          43.750  
C14  23202258.379   -10068507.9402      -1100.156          43.500  
C 2  37239449.071   -19745236.8692        324.229          39.750  
G23  23625152.557   -10958140.513        2198.574          40.250  
C 1  37666346.591   -20174941.5402        277.207          41.500  
C27  24448872.775   -11668085.0592       2213.252          42.000  
C 4  38584943.887   -20458855.6782        274.551          38.500  
C 5  39255836.459   -19870835.5713        313.164          36.000  
C11  25930623.445    -1861107.7412      -1427.607          36.000  
C 7  37049794.381   -40067447.1922      -1013.447          41.250  
G 9  23498250.839   -13735427.035        2063.438          39.000  
C10  36239205.679   -28965573.2112       -614.023          42.750  
G28  21937500.031   -23753432.318       -2613.984          41.750  
G 6  21043477.284   -23693773.993         157.871          46.750  
C 8  36761770.668   -21781513.6182       -131.680          43.500  
> 2020  6  5  7 58 59.0000000  0 25                     
G12  23877291.276    -7493908.553        3296.953          38.750  
G 3  25097364.293    -7196314.688       -3253.652          36.250  
C13  36778406.658   -21820397.2092          6.777          45.000  
G17  20960531.722   -25394689.485         122.480          46.000  
C23  26068878.100   -11187337.6522      -2278.818          37.000  
C28  22299130.736   -23413934.2152        789.199          48.250  
G 5  23948096.879    -9959915.368        3954.580          36.500  
G 4  24315613.157    -8507812.957         752.822          36.000  
G19  20470131.900   -30643774.186         842.705          46.250  
G 2  22682115.830   -15059176.324        1293.965          43.250  
C 3  36202991.853   -20403284.6902        291.943          43.750  
C14  23202469.771   -10067407.3372      -1100.762          43.500  
C 2  37239386.896   -19745560.9892        324.082          39.750  
G23  23624733.978   -10960338.877        2198.330          40.500  
C 1  37666293.473   -20175218.6352        277.070          41.500  
C27  24448447.984   -11670298.2382       2213.223          41.750  
C 4  38584891.275   -20459130.0522        274.375          38.500  
C 5  39255776.308   -19871148.5592        313.057          36.250  
C11  25930897.448    -1859680.0492      -1427.686          36.000  
C 7  37049989.091   -40066433.5732      -1013.652          41.250  
G 9  23497858.052   -13737490.097        2063.008          39.000  
C10  36239323.660   -28964959.0242       -614.209          42.750  
G28  21937997.450   -23750818.058       -2614.346          41.750  
G 6  21043447.078   -23693931.652         157.607          46.750  
C 8  36761795.988   -21781381.8612       -131.768          43.500  
> 2020  6  5  7 59  0.0000000  0 25                     
G12  23876664.133    -7497205.183        3296.533          39.000  
G 3  25097983.287    -7193061.033       -3253.770          36.250  
C13  36778405.297   -21820403.9782          6.729          45.000  
G17  20960508.217   -25394811.727         122.109          46.000  
C23  26069315.682   -11185058.9332      -2278.662          37.000  
C28  22298979.111   -23414723.3302        789.043          48.250  
G 5  23947344.425    -9963869.835        3954.434          36.750  
G 4  24315470.362    -8508565.366         752.207          36.250  
G19  20469971.550   -30644616.642         842.324          46.250  
G 2  22681869.642   -15060470.112        1293.770          43.250  
C 3  36202935.716   -20403576.6002        291.865          43.750  
C14  23202681.354   -10066306.2032      -1101.348          43.750  
C 2  37239324.826   -19745885.0612        324.072          39.750  
G23  23624315.749   -10962537.089        2198.213          40.250  
C 1  37666240.389   -20175495.7012        276.963          41.500  
C27  24448022.949   -11672511.4082       2213.125          41.750  
C 4  38584838.575   -20459404.4232        274.355          38.500  
C 5  39255716.175   -19871461.5392        312.939          36.000  
C11  25931171.696    -1858252.2322      -1427.930          36.000  
C 7  37050183.783   -40065419.8302      -1013.740          41.250  
G 9  23497465.527   -13739552.867        2062.637          39.000  
C10  36239441.694   -28964344.6382       -614.492          42.750  
G28  21938495.130   -23748203.426       -2614.727          41.750  
G 6  21043417.220   -23694089.066         157.324          46.750  
C 8  36761821.291   -21781250.1592       -131.768          43.500  
> 2020  6  5  7 59  1.0000000  0 25                     
G12  23876036.745    -7500501.381        3296.211          39.000  
G 3  25098602.403    -7189807.151       -3253.838          36.250  
C13  36778404.093   -21820410.6782          6.787          45.000  
G17  20960485.148   -25394933.566         121.826          46.000  
C23  26069753.019   -11182780.2442      -2278.662          36.750  
C28  22298827.678   -23415512.2222        788.955          48.250  
G 5  23946592.024    -9967824.031        3954.229          36.750  
G 4  24315327.323    -8509317.244         751.768          36.250  
G19  20469811.479   -30645458.671         842.031          46.500  
G 2  22681623.419   -15061763.674        1293.633          43.250  
C 3  36202879.945   -20403868.4002        291.807          43.750  
C14  23202892.956   -10065204.4812      -1101.807          43.500  
C 2  37239262.406   -19746209.0482        324.033          39.750  
G23  23623897.642   -10964735.004        2197.910          40.250  
C 1  37666187.079   -20175772.6712        276.992          41.500  
C27  24447597.932   -11674724.5212       2213.154          41.750  
C 4  38584785.963   -20459678.6552        274.268          38.500  
C 5  39255655.989   -19871774.3842        312.900          36.250  
C11  25931445.926    -1856824.1672      -1428.018          36.000  
C 7  37050378.283   -40064405.8512      -1013.975          41.250  
G 9  23497073.229   -13741615.211        2062.334          39.000  
C10  36239559.762   -28963730.0142       -614.619          42.750  
G28  21938992.845   -23745588.339       -2615.098          41.750  
G 6  21043387.101   -23694246.196         157.158          46.750  
C 8  36761846.524   -21781118.4042       -131.699          43.500  
> 2020  6  5  7 59  2.0000000  0 25                     
G12  23875409.602    -7503797.387        3295.850          39.000  
G 3  25099221.711    -7186553.359       -3253.867          36.250  
C13  36778402.994   -21820417.5522          6.855          45.000  
G17  20960462.131   -25395055.280         121.572          46.000  
C23  26070190.671   -11180501.9042      -2278.320          36.750  
C28  22298676.245   -23416301.2042        788.887          48.250  
G 5  23945839.309    -9971778.283        3954.170          36.500  
G 4  24315184.353    -8510068.864         751.475          36.250  
G19  20469651.234   -30646300.583         841.768          46.250  
G 2  22681377.493   -15063057.288        1293.516          43.250  
C 3  36202823.720   -20404160.4012        291.934          43.750  
C14  23203104.540   -10064102.4512      -1102.227          43.500  
C 2  37239200.179   -19746533.2142        324.141          39.750  
G23  23623479.168   -10966933.002        2197.949          40.250  
C 1  37666133.943   -20176049.8202        277.021          41.500  
C27  24447172.897   -11676937.8682       2213.330          41.750  
C 4  38584733.263   -20459953.0952        274.365          38.500  
C 5  39255595.891   -19872087.4302        312.871          36.250  
C11  25931720.191    -1855396.1642      -1428.076          36.000  
C 7  37050572.975   -40063391.9732      -1013.945          41.250  
G 9  23496680.738   -13743677.464        2062.070          38.750  
C10  36239677.725   -28963115.4222       -614.678          42.750  
G28  21939490.560   -23742973.133       -2615.391          41.750  
G 6  21043357.331   -23694403.337         157.031          46.750  
C 8  36761871.931   -21780986.8952       -131.572          43.500  
> 2020  6  5  7 59  3.0000000  0 25                     
G12  23874782.633    -7507092.928        3295.430          39.000  
G 3  25099840.775    -7183299.359       -3254.102          36.250  
C13  36778401.755   -21820424.3322          6.807          45.000  
G17  20960438.835   -25395176.581         121.230          46.000  
C23  26070628.531   -11178223.5892      -2278.301          36.750  
C28  22298524.707   -23417089.9742        788.721          48.250  
G 5  23945086.838    -9975732.255        3953.955          36.500  
G 4  24315041.279    -8510819.842         750.811          36.250  
G19  20469491.058   -30647142.045         841.357          46.500  
G 2  22681131.323   -15064350.649        1293.311          43.250  
C 3  36202767.566   -20404452.2922        291.875          43.750  
C14  23203316.211   -10062999.8322      -1102.764          43.500  
C 2  37239137.812   -19746857.2812        324.082          39.750  
G23  23623060.817   -10969130.709        2197.793          40.000  
C 1  37666080.545   -20176326.8802        277.100          41.500  
C27  24446747.827   -11679151.1362       2213.262          41.750  
C 4  38584680.651   -20460227.4382        274.287          38.500  
C 5  39255535.618   -19872400.3882        313.008          36.250  
C11  25931994.544    -1853967.9482      -1428.301          36.000  
C 7  37050767.667   -40062377.8852      -1014.111          41.250  
G 9  23496288.178   -13745739.328        2061.777          38.750  
C10  36239795.898   -28962500.5682       -614.922          42.750  
G28  21939988.380   -23740357.482       -2615.752          41.750  
G 6  21043327.788   -23694560.164         156.768          46.750  
C 8  36761897.234   -21780855.3422       -131.484          43.500  
> 2020  6  5  7 59  4.0000000  0 25                     
G12  23874155.542    -7510388.061        3295.068          39.000  
G 3  25100459.979    -7180045.192       -3254.268          36.250  
C13  36778400.376   -21820431.0492          6.699          45.000  
G17  20960416.027   -25395297.472         120.801          46.000  
C23  26071065.834   -11175945.3632      -2278.184          36.500  
C28  22298373.431   -23417878.5422        788.545          48.250  
G 5  23944334.245    -9979685.984        3953.613          36.750  
G 4  24314898.396    -8511570.293         750.283          36.250  
G19  20469330.935   -30647983.106         840.938          46.250  
G 2  22680885.188   -15065643.813        1293.135          43.250  
C 3  36202711.358   -20404744.0642        291.797          43.750  
C14  23203527.847   -10061896.6252      -1103.379          43.500  
C 2  37239075.724   -19747181.2712        323.965          39.750  
G23  23622642.709   -10971328.155        2197.412          40.250  
C 1  37666027.409   -20176603.8232        276.943          41.500  
C27  24446322.635   -11681364.3492       2213.213          41.750  
C 4  38584627.916   -20460501.6532        274.209          38.500  
C 5  39255475.414   -19872713.2082        312.773          36.250  
C11  25932268.948    -1852539.5062      -1428.467          36.000  
C 7  37050962.290   -40061363.5892      -1014.355          41.250  
G 9  23495895.810   -13747800.771        2061.328          39.000  
C10  36239914.036   -28961885.4542       -615.205          42.750  
G28  21940486.200   -23737741.410       -2616.201          41.750  
G 6  21043297.704   -23694716.724         156.484          46.750  
C 8  36761922.450   -21780723.7442       -131.562          43.500  
> 2020  6  5  7 59  5.0000000  0 25                     
G12  23873528.800    -7513682.853        3294.707          38.750  
G 3  25101079.304    -7176790.976       -3254.141          36.250  
C13  36778399.085   -21820437.8342          6.855          45.000  
G17  20960392.801   -25395418.117         120.605          46.000  
C23  26071503.189   -11173667.2992      -2278.008          36.500  
C28  22298222.033   -23418667.0582        788.574          48.250  
G 5  23943581.705    -9983639.613        3953.711          36.750  
G 4  24314755.828    -8512320.315         749.912          36.250  
G19  20469171.056   -30648823.896         840.781          46.250  
G 2  22680639.262   -15066936.862        1293.066          43.250  
C 3  36202655.483   -20405035.9112        291.953          43.750  
C14  23203739.780   -10060792.9902      -1103.682          43.500  
C 2  37239013.427   -19747505.2922        324.111          39.750  
G23  23622224.515   -10973525.525        2197.422          40.000  
C 1  37665974.343   -20176880.8332        277.070          41.500  
C27  24445897.757   -11683577.6582       2213.418          41.750  
C 4  38584575.461   -20460775.9512        274.385          38.500  
C 5  39255415.263   -19873026.1242        313.027          36.250  
C11  25932543.370    -1851111.0232      -1428.418          36.000  
C 7  37051156.964   -40060349.2492      -1014.297          41.250  
G 9  23495503.442   -13749862.013        2061.279          39.000  
C10  36240032.226   -28961270.2442       -615.166          42.750  
G28  21940984.002   -23735125.066       -2616.367          41.750  
G 6  21043267.846   -23694873.153         156.465          46.750  
C 8  36761947.735   -21780592.2562       -131.357          43.500  
> 2020  6  5  7 59  6.0000000  0 25                     
G12  23872901.936    -7516977.404        3294.492          39.000  
G 3  25101698.613    -7173536.745       -3254.219          36.500  
C13  36778397.636   -21820444.7112          7.002          45.000  
G17  20960369.906   -25395538.537         120.420          46.000  
C23  26071940.613   -11171389.4752      -2277.676          36.500  
C28  22298070.338   -23419455.5752        788.584          48.250  
G 5  23942829.513    -9987593.183        3953.584          36.750  
G 4  24314613.260    -8513069.985         749.609          36.250  
G19  20469011.003   -30649664.454         840.557          46.250  
G 2  22680392.952   -15068229.916        1293.135          43.250  
C 3  36202599.415   -20405327.8362        292.002          43.750  
C14  23203951.905   -10059688.9472      -1104.092          43.500  
C 2  37238951.042   -19747829.4092        324.248          39.750  
G23  23621806.321   -10975722.818        2197.363          40.000  
C 1  37665921.050   -20177157.9332        277.207          41.500  
C27  24445472.774   -11685791.1052       2213.545          41.750  
C 4  38584522.726   -20461050.3202        274.482          38.500  
C 5  39255355.200   -19873339.1092        313.027          36.250  
C11  25932817.845    -1849682.4912      -1428.496          35.750  
C 7  37051351.970   -40059334.8652      -1014.336          41.250  
G 9  23495111.283   -13751923.054        2061.016          39.000  
C10  36240150.347   -28960654.9812       -615.205          42.750  
G28  21941481.822   -23732508.479       -2616.611          41.500  
G 6  21043238.006   -23695029.477         156.377          46.750  
C 8  36761972.898   -21780460.8912       -131.260          43.500  
> 2020  6  5  7 59  7.0000000  0 25                     
G12  23872275.037    -7520271.587        3294.111          40.000  
G 3  25102317.816    -7170282.434       -3254.326          36.500  
C13  36778396.031   -21820451.6002          6.934          45.000  
G17  20960347.291   -25395658.665         120.146          46.250  
C23  26072377.951   -11169111.8332      -2277.480          36.500  
C28  22297919.010   -23420243.9892        788.447          48.250  
G 5  23942077.356    -9991546.648        3953.486          36.500  
G 4  24314470.726    -8513819.179         749.062          36.000  
G19  20468851.176   -30650504.715         840.254          46.500  
G 2  22680146.852   -15069522.824        1292.920          43.250  
C 3  36202543.452   -20405619.7782        291.982          43.750  
C14  23204164.082   -10058584.4352      -1104.600          43.500  
C 2  37238888.867   -19748153.5592        324.229          39.750  
G23  23621388.178   -10977920.004        2197.158          40.000  
C 1  37665867.810   -20177435.0462        277.188          41.500  
C27  24445047.635   -11688004.5812       2213.545          41.750  
C 4  38584470.062   -20461324.7102        274.395          38.500  
C 5  39255295.206   -19873652.1072        313.047          36.250  
C11  25933092.005    -1848253.8742      -1428.555          35.750  
C 7  37051546.697   -40058320.4102      -1014.443          41.250  
G 9  23494719.037   -13753983.798        2060.693          39.000  
C10  36240268.607   -28960039.5722       -615.391          42.750  
G28  21941979.747   -23729891.575       -2616.865          41.500  
G 6  21043208.341   -23695185.628         156.152          46.750  
C 8  36761998.236   -21780329.6132       -131.152          43.500  
> 2020  6  5  7 59  8.0000000  0 25                     
G12  23871648.295    -7523565.472        3293.789          39.250  
G 3  25102937.142    -7167028.050       -3254.316          36.500  
C13  36778394.391   -21820458.5442          6.992          45.000  
G17  20960324.571   -25395778.521         119.844          46.250  
C23  26072815.532   -11166834.3612      -2277.314          36.500  
C28  22297767.734   -23421032.3352        788.350          48.250  
G 5  23941324.903    -9995499.950        3953.252          36.750  
G 4  24314327.966    -8514567.940         748.564          36.000  
G19  20468691.298   -30651344.689         839.883          46.500  
G 2  22679901.118   -15070815.646        1292.842          43.250  
C 3  36202487.228   -20405911.7482        292.012          43.750  
C14  23204376.312   -10057479.4582      -1105.098          43.500  
C 2  37238826.587   -19748477.6912        324.258          39.750  
G23  23620970.473   -10980117.062        2197.109          40.000  
C 1  37665814.656   -20177712.2082        277.236          41.250  
C27  24444622.512   -11690218.1392       2213.604          41.750  
C 4  38584417.222   -20461599.1362        274.453          38.500  
C 5  39255234.811   -19873965.1582        313.096          36.000  
C11  25933366.427    -1846825.1732      -1428.662          35.750  
C 7  37051741.546   -40057305.9012      -1014.502          41.250  
G 9  23494327.018   -13756044.280        2060.391          39.000  
C10  36240386.919   -28959424.0362       -615.537          42.750  
G28  21942477.776   -23727274.378       -2617.285          41.500  
G 6  21043178.833   -23695341.628         155.967          46.750  
C 8  36762023.417   -21780198.4122       -131.123          43.500  
> 2020  6  5  7 59  9.0000000  0 25                     
G12  23871021.431    -7526858.947        3293.291          39.250  
G 3  25103556.468    -7163773.537       -3254.580          36.750  
C13  36778393.134   -21820465.4562          6.865          45.000  
G17  20960301.711   -25395898.027         119.434          46.250  
C23  26073252.957   -11164556.9842      -2277.373          36.250  
C28  22297616.284   -23421820.5472        788.174          48.250  
G 5  23940572.589    -9999453.085        3953.076          36.750  
G 4  24314185.660    -8515316.199         748.027          36.000  
G19  20468531.576   -30652184.316         839.531          46.500  
G 2  22679655.035   -15072108.303        1292.666          43.250  
C 3  36202431.317   -20406203.6962        292.012          43.750  
C14  23204588.559   -10056373.9782      -1105.605          43.500  
C 2  37238764.482   -19748801.8502        324.170          39.750  
G23  23620552.418   -10982313.915        2196.836          40.000  
C 1  37665761.433   -20177989.3112        277.119          41.250  
C27  24444197.547   -11692431.7162       2213.604          41.750  
C 4  38584364.400   -20461873.5192        274.326          38.500  
C 5  39255174.677   -19874278.1432        312.969          36.000  
C11  25933640.745    -1845396.3022      -1428.828          35.750  
C 7  37051936.361   -40056291.2072      -1014.727          41.250  
G 9  23493935.173   -13758104.421        2060.000          39.000  
C10  36240505.214   -28958808.3062       -615.811          42.750  
G28  21942975.945   -23724656.822       -2617.646          41.750  
G 6  21043149.080   -23695497.407         155.723          46.750  
C 8  36762048.737   -21780067.2312       -131.182          43.500  
> 2020  6  5  7 59 10.0000000  0 25                     
G12  23870394.444    -7530152.053        3293.115          39.250  
G 3  25104175.933    -7160518.902       -3254.658          36.500  
C13  36778391.895   -21820472.3562          6.914          45.000  
G17  20960279.340   -25396017.180         119.062          46.000  
C23  26073690.050   -11162279.7452      -2277.041          36.250  
C28  22297464.816   -23422608.6032        788.018          48.250  
G 5  23939820.607   -10003406.033        3952.891          36.750  
G 4  24314043.388    -8516063.948         747.598          35.750  
G19  20468371.662   -30653023.567         839.160          46.250  
G 2  22679409.126   -15073400.768        1292.383          43.250  
C 3  36202375.075   -20406495.5792        291.914          43.750  
C14  23204800.998   -10055267.9552      -1106.143          43.500  
C 2  37238702.167   -19749125.9172        324.053          39.750  
G23  23620134.398   -10984510.579        2196.680          39.750  
C 1  37665708.350   -20178266.3812        277.051          41.250  
C27  24443772.495   -11694645.2552       2213.574          41.750  
C 4  38584311.666   -20462147.8532        274.287          38.500  
C 5  39255114.491   -19874591.1212        312.959          36.000  
C11  25933915.062    -1843967.3142      -1428.857          35.500  
C 7  37052131.070   -40055276.3792      -1014.844          41.250  
G 9  23493543.381   -13760164.242        2059.717          39.250  
C10  36240623.492   -28958192.4082       -615.938          42.750  
G28  21943474.271   -23722038.878       -2618.027          41.750  
G 6  21043119.415   -23695652.958         155.518          46.750  
C 8  36762073.760   -21779936.0702       -131.094          43.500  
> 2020  6  5  7 59 11.0000000  0 25                     
G12  23869767.667    -7533444.714        3292.549          39.000  
G 3  25104795.346    -7157264.129       -3254.814          36.500  
C13  36778390.621   -21820479.2432          6.895          45.000  
G17  20960256.655   -25396135.986         118.691          46.000  
C23  26074127.178   -11160002.5792      -2277.080          36.500  
C28  22297313.592   -23423396.5242        787.881          48.250  
G 5  23939068.345   -10007358.764        3952.686          36.750  
G 4  24313900.977    -8516811.226         747.031          36.000  
G19  20468211.940   -30653862.470         838.779          46.250  
G 2  22679163.270   -15074693.072        1292.207          43.250  
C 3  36202319.252   -20406787.4262        291.826          43.750  
C14  23205013.454   -10054161.4122      -1106.719          43.250  
C 2  37238639.818   -19749449.9772        324.072          39.750  
G23  23619716.273   -10986707.034        2196.406          39.750  
C 1  37665655.301   -20178543.4252        276.963          41.500  
C27  24443347.495   -11696858.8422       2213.594          42.000  
C 4  38584259.158   -20462422.1442        274.238          38.500  
C 5  39255054.567   -19874904.0232        312.852          36.000  
C11  25934189.240    -1842538.1172      -1429.326          35.750  
C 7  37052325.832   -40054261.4292      -1015.068          41.250  
G 9  23493151.571   -13762223.737        2059.346          39.250  
C10  36240741.595   -28957576.3032       -616.172          42.750  
G28  21943972.579   -23719420.588       -2618.418          41.750  
G 6  21043089.767   -23695808.288         155.254          46.500  
C 8  36762098.976   -21779804.9402       -131.123          43.500  
> 2020  6  5  7 59 12.0000000  0 25                     
G12  23869141.013    -7536737.072        3292.412          39.000  
G 3  25105414.933    -7154009.225       -3254.902          36.750  
C13  36778389.278   -21820486.1392          6.992          45.000  
G17  20960234.109   -25396254.499         118.506          46.000  
C23  26074564.253   -11157725.5702      -2276.904          36.250  
C28  22297162.351   -23424184.3442        787.861          48.250  
G 5  23938316.468   -10011311.369        3952.568          36.750  
G 4  24313758.915    -8517557.991         746.719          36.250  
G19  20468052.463   -30654701.052         838.564          46.250  
G 2  22678917.135   -15075985.252        1292.188          43.250  
C 3  36202263.097   -20407079.2722        291.895          43.750  
C14  23205226.120   -10053054.3802      -1107.090          43.250  
C 2  37238577.677   -19749774.0172        324.150          39.750  
G23  23619298.323   -10988903.347        2196.328          40.000  
C 1  37665602.043   -20178820.4922        277.188          41.250  
C27  24442922.355   -11699072.4322       2213.711          42.000  
C 4  38584206.336   -20462696.4802        274.355          38.500  
C 5  39254994.626   -19875216.9242        312.891          36.000  
C11  25934463.680    -1841108.8262      -1429.229          35.750  
C 7  37052520.803   -40053246.3742      -1014.990          41.250  
G 9  23492759.797   -13764282.925        2059.170          39.000  
C10  36240860.169   -28956960.0612       -616.191          42.750  
G28  21944471.027   -23716801.969       -2618.652          41.750  
G 6  21043060.363   -23695963.426         155.176          46.750  
C 8  36762124.174   -21779673.8552       -131.025          43.500  
> 2020  6  5  7 59 13.0000000  0 25                     
G12  23868514.672    -7540029.125        3291.963          39.250  
G 3  25106034.433    -7150754.352       -3254.922          36.750  
C13  36778387.986   -21820493.1242          6.992          45.000  
G17  20960211.476   -25396372.778         118.184          46.000  
C23  26075001.259   -11155448.7792      -2276.729          36.250  
C28  22297011.005   -23424972.1322        787.754          48.250  
G 5  23937564.346   -10015263.927        3952.549          36.750  
G 4  24313616.940    -8518304.366         746.182          36.000  
G19  20467893.002   -30655539.394         838.271          46.500  
G 2  22678671.244   -15077277.389        1292.090          43.250  
C 3  36202207.187   -20407371.2032        291.885          43.750  
C14  23205438.681   -10051946.9262      -1107.617          43.250  
C 2  37238515.555   -19750098.1392        324.131          39.750  
G23  23618880.425   -10991099.588        2196.240          40.000  
C 1  37665548.890   -20179097.6122        277.139          41.500  
C27  24442497.530   -11701286.1382       2213.691          41.750  
C 4  38584153.567   -20462970.8592        274.316          38.250  
C 5  39254934.667   -19875529.9562        312.959          36.000  
C11  25934738.259    -1839679.4922      -1429.395          36.000  
C 7  37052715.792   -40052231.2712      -1015.146          41.250  
G 9  23492368.074   -13766341.912        2058.936          39.000  
C10  36240978.412   -28956343.7232       -616.377          42.750  
G28  21944969.370   -23714183.110       -2618.955          41.750  
G 6  21043030.803   -23696118.452         154.961          46.500  
C 8  36762149.302   -21779542.9232       -130.957          43.500  
> 2020  6  5  7 59 14.0000000  0 25                     
G12  23867888.279    -7543320.871        3291.562          39.000  
G 3  25106653.759    -7147499.386       -3255.107          37.000  
C13  36778386.695   -21820500.1522          6.904          45.000  
G17  20960189.000   -25396490.796         117.822          46.000  
C23  26075438.300   -11153172.2082      -2276.709          36.250  
C28  22296859.607   -23425759.8632        787.578          48.250  
G 5  23936812.085   -10019216.322        3952.178          36.750  
G 4  24313475.174    -8519050.340         745.811          36.000  
G19  20467733.525   -30656377.467         837.822          46.500  
G 2  22678425.510   -15078569.413        1291.885          43.250  
C 3  36202151.102   -20407663.1712        291.826          43.750  
C14  23205651.312   -10050839.0382      -1108.154          43.250  
C 2  37238453.379   -19750422.3082        324.072          39.750  
G23  23618462.597   -10993295.709        2195.947          40.000  
C 1  37665495.440   -20179374.7832        277.051          41.500  
C27  24442072.303   -11703499.9432       2213.682          41.750  
C 4  38584101.007   -20463245.2752        274.297          38.500  
C 5  39254874.481   -19875843.0082        312.910          36.250  
C11  25935012.908    -1838250.1162      -1429.434          36.000  
C 7  37052910.816   -40051216.1252      -1015.332          41.250  
G 9  23491976.072   -13768400.649        2058.584          39.000  
C10  36241096.777   -28955727.2932       -616.602          42.750  
G28  21945467.731   -23711563.958       -2619.365          41.500  
G 6  21043000.998   -23696273.348         154.717          46.500  
C 8  36762174.378   -21779412.0702       -130.947          43.500  
> 2020  6  5  7 59 15.0000000  0 25                     
G12  23867262.183    -7546612.216        3291.279          39.000  
G 3  25107273.155    -7144244.293       -3255.000          36.750  
C13  36778385.317   -21820507.1562          7.070          45.000  
G17  20960166.734   -25396608.445         117.607          46.000  
C23  26075875.323   -11150895.7012      -2276.387          36.500  
C28  22296708.506   -23426547.4352        787.598          48.000  
G 5  23936059.841   -10023168.534        3952.197          36.750  
G 4  24313333.374    -8519795.779         745.361          36.250  
G19  20467574.187   -30657215.165         837.646          46.500  
G 2  22678179.881   -15079861.269        1291.904          43.250  
C 3  36202095.069   -20407955.0882        291.982          43.750  
C14  23205864.222   -10049730.6102      -1108.516          43.250  
C 2  37238391.204   -19750746.4052        324.160          39.750  
G23  23618044.560   -10995491.623        2195.869          40.000  
C 1  37665442.269   -20179651.8962        277.178          41.500  
C27  24441647.006   -11705713.7232       2213.818          42.000  
C 4  38584048.377   -20463519.6872        274.570          38.500  
C 5  39254814.365   -19876156.0032        313.037          36.250  
C11  25935287.365    -1836820.5272      -1429.521          36.250  
C 7  37053105.857   -40050200.8022      -1015.293          41.500  
G 9  23491584.332   -13770459.032        2058.320          39.000  
C10  36241215.072   -28955110.6652       -616.631          42.750  
G28  21945965.795   -23708944.418       -2619.609          41.500  
G 6  21042971.751   -23696428.007         154.688          46.750  
C 8  36762199.542   -21779281.2182       -130.840          43.500  
> 2020  6  5  7 59 16.0000000  0 25                     
G12  23866635.894    -7549903.255        3291.045          39.250  
G 3  25107892.480    -7140989.165       -3255.234          37.000  
C13  36778383.921   -21820514.2172          7.090          45.000  
G17  20960144.258   -25396725.861         117.305          46.000  
C23  26076312.643   -11148619.4292      -2276.260          36.250  
C28  22296557.125   -23427334.9712        787.500          48.000  
G 5  23935307.684   -10027120.688        3952.119          36.750  
G 4  24313191.399    -8520540.836         744.951          36.000  
G19  20467414.779   -30658052.610         837.324          46.250  
G 2  22677934.077   -15081153.034        1291.748          43.250  
C 3  36202038.914   -20408247.0632        291.963          43.750  
C14  23206077.324   -10048621.7562      -1109.004          43.500  
C 2  37238328.855   -19751070.5842        324.180          39.750  
G23  23617626.540   -10997687.449        2195.771          39.750  
C 1  37665389.115   -20179929.0782        277.188          41.250  
C27  24441221.901   -11707927.6272       2213.896          41.750  
C 4  38583995.660   -20463794.0912        274.365          38.500  
C 5  39254754.197   -19876469.0792        313.027          36.000  
C11  25935562.101    -1835390.9152      -1429.648          36.250  
C 7  37053300.915   -40049185.4662      -1015.381          41.250  
G 9  23491192.575   -13772517.187        2058.125          39.000  
C10  36241333.454   -28954493.9332       -616.797          42.500  
G28  21946464.121   -23706324.623       -2619.932          41.500  
G 6  21042942.417   -23696582.528         154.492          46.750  
C 8  36762224.635   -21779150.4842       -130.791          43.500  
> 2020  6  5  7 59 17.0000000  0 25                     
G12  23866009.536    -7553193.764        3290.312          39.500  
G 3  25108512.068    -7137733.780       -3255.518          36.750  
C13  36778382.437   -21820521.1512          6.904          45.000  
G17  20960122.427   -25396842.809         116.855          46.000  
C23  26076749.946   -11146343.1542      -2276.289          36.500  
C28  22296405.989   -23428122.2422        787.197          48.000  
G 5  23934555.684   -10031072.501        3951.729          36.750  
G 4  24313049.965    -8521285.227         744.248          36.250  
G19  20467255.337   -30658889.579         836.846          46.250  
G 2  22677687.976   -15082444.539        1291.475          43.250  
C 3  36201983.091   -20408538.8922        291.777          43.750  
C14  23206290.408   -10047512.2582      -1109.717          43.250  
C 2  37238266.488   -19751394.6062        324.023          39.750  
G23  23617208.747   -10999882.961        2195.439          39.750  
C 1  37665335.962   -20180206.1102        277.002          41.500  
C27  24440796.831   -11710141.3992       2213.818          41.750  
C 4  38583942.856   -20464068.3942        274.229          38.500  
C 5  39254694.203   -19876781.9792        312.861          36.000  
C11  25935836.733    -1833961.0012      -1429.932          36.250  
C 7  37053495.974   -40048169.8642      -1015.684          41.250  
G 9  23490800.940   -13774574.884        2057.598          39.000  
C10  36241451.749   -28953876.9012       -617.090          42.500  
G28  21946962.569   -23703704.346       -2620.449          41.250  
G 6  21042913.083   -23696736.713         154.111          46.750  
C 8  36762249.641   -21779019.6622       -130.850          43.500  
> 2020  6  5  7 59 18.0000000  0 25                     
G12  23865383.806    -7556483.901        3290.098          39.500  
G 3  25109131.498    -7134478.255       -3255.557          36.500  
C13  36778381.251   -21820528.0472          6.904          45.000  
G17  20960100.126   -25396959.375         116.436          46.000  
C23  26077186.986   -11144066.9452      -2276.172          36.750  
C28  22296254.852   -23428909.3612        787.070          48.000  
G 5  23933803.894   -10035024.099        3951.543          37.000  
G 4  24312908.496    -8522029.106         743.789          36.250  
G19  20467096.208   -30659726.160         836.465          46.250  
G 2  22677442.173   -15083735.802        1291.162          43.250  
C 3  36201926.919   -20408830.6422        291.816          43.750  
C14  23206503.720   -10046402.2092      -1110.195          43.250  
C 2  37238203.998   -19751718.5442        323.916          39.750  
G23  23616790.831   -11002078.252        2195.234          39.750  
C 1  37665282.809   -20180483.0802        277.031          41.250  
C27  24440371.884   -11712355.1592       2213.779          41.750  
C 4  38583890.191   -20464342.6082        274.248          38.500  
C 5  39254634.192   -19877094.8192        312.852          36.000  
C11  25936111.242    -1832530.9222      -1430.078          36.000  
C 7  37053690.893   -40047154.0752      -1015.840          41.250  
G 9  23490409.601   -13776632.229        2057.305          39.000  
C10  36241570.341   -28953259.6602       -617.295          42.750  
G28  21947461.261   -23701083.657       -2620.781          41.250  
G 6  21042883.645   -23696890.641         153.887          46.750  
C 8  36762274.682   -21778888.8182       -130.840          43.250  
> 2020  6  5  7 59 19.0000000  0 25                     
G12  23864757.780    -7559773.774        3289.971          39.500  
G 3  25109751.173    -7131222.698       -3255.547          36.500  
C13  36778380.169   -21820535.0432          7.119          45.000  
G17  20960078.052   -25397075.754         116.426          46.250  
C23  26077623.957   -11141791.0052      -2275.811          36.500  
C28  22296103.594   -23429696.4622        787.178          48.250  
G 5  23933052.226   -10038975.641        3951.709          37.000  
G 4  24312767.166    -8522772.620         743.496          36.250  
G19  20466937.079   -30660562.540         836.406          46.500  
G 2  22677196.509   -15085027.094        1291.387          43.250  
C 3  36201870.869   -20409122.4912        291.982          43.750  
C14  23206716.997   -10045291.7742      -1110.449          43.500  
C 2  37238141.771   -19752042.6232        324.180          39.750  
G23  23616372.864   -11004273.502        2195.264          39.750  
C 1  37665229.690   -20180760.1562        277.207          41.500  
C27  24439946.814   -11714569.0312       2213.975          41.750  
C 4  38583837.526   -20464616.9512        274.443          38.500  
C 5  39254574.215   -19877407.7302        313.008          36.000  
C11  25936385.821    -1831100.8462      -1430.020          36.000  
C 7  37053886.178   -40046138.3272      -1015.596          41.250  
G 9  23490018.193   -13778689.391        2057.168          39.250  
C10  36241688.810   -28952642.3452       -617.246          42.750  
G28  21947959.971   -23698462.766       -2620.850          41.250  
G 6  21042854.765   -23697044.503         153.926          46.750  
C 8  36762299.880   -21778758.1372       -130.547          43.500  
> 2020  6  5  7 59 20.0000000  0 25                     
G12  23864131.840    -7563063.367        3289.648          39.500  
G 3  25110370.621    -7127967.188       -3255.439          36.500  
C13  36778378.668   -21820542.1862          7.305          44.750  
G17  20960056.012   -25397191.932         116.260          46.000  
C23  26078061.277   -11139515.3302      -2275.479          36.250  
C28  22295952.353   -23430483.5802        787.246          48.000  
G 5  23932300.470   -10042927.167        3951.699          37.000  
G 4  24312625.959    -8523515.770         743.135          36.250  
G19  20466778.003   -30661398.704         836.201          46.500  
G 2  22676950.862   -15086318.358        1291.416          43.500  
C 3  36201814.679   -20409414.4732        292.178          43.750  
C14  23206930.308   -10044180.9652      -1110.801          43.500  
C 2  37238079.631   -19752366.7952        324.424          39.750  
G23  23615955.071   -11006468.716        2195.361          39.750  
C 1  37665176.502   -20181037.3402        277.285          41.500  
C27  24439521.377   -11716783.0912       2214.248          41.750  
C 4  38583784.844   -20464891.3742        274.541          38.500  
C 5  39254514.099   -19877720.8192        313.184          36.000  
C11  25936660.330    -1829670.7532      -1429.961          36.250  
C 7  37054081.184   -40045122.5512      -1015.615          41.250  
G 9  23489626.610   -13780746.367        2057.070          39.500  
C10  36241807.681   -28952024.9832       -617.217          42.750  
G28  21948458.681   -23695841.658       -2621.074          41.500  
G 6  21042825.326   -23697198.292         153.887          46.750  
C 8  36762324.939   -21778627.6222       -130.361          43.500  
> 2020  6  5  7 59 21.0000000  0 25                     
G12  23863505.971    -7566352.730        3289.199          39.500  
G 3  25110990.208    -7124711.665       -3255.625          36.500  
C13  36778377.412   -21820549.4292          7.168          44.750  
G17  20960033.641   -25397307.881         115.781          46.250  
C23  26078498.353   -11137239.8692      -2275.371          36.250  
C28  22295801.374   -23431270.6782        787.002          48.000  
G 5  23931548.366   -10046878.609        3951.328          36.750  
G 4  24312484.455    -8524258.571         742.627          36.250  
G19  20466619.084   -30662234.640         835.771          46.500  
G 2  22676705.041   -15087609.561        1291.152          43.250  
C 3  36201758.699   -20409706.5182        292.021          43.750  
C14  23207143.724   -10043069.7622      -1111.416          43.500  
C 2  37238017.491   -19752691.0642        324.199          39.750  
G23  23615537.487   -11008663.850        2195.029          39.750  
C 1  37665123.157   -20181314.6162        277.217          41.250  
C27  24439096.116   -11718997.2442       2214.082          41.750  
C 4  38583732.214   -20465165.9032        274.424          38.500  
C 5  39254453.879   -19878033.9592        313.096          35.750  
C11  25936935.032    -1828240.6132      -1430.273          36.250  
C 7  37054276.330   -40044106.7622      -1015.850          41.250  
G 9  23489235.446   -13782803.127        2056.562          39.500  
C10  36241926.116   -28951407.5732       -617.520          42.750  
G28  21948957.495   -23693220.307       -2621.494          41.500  
G 6  21042796.045   -23697351.980         153.574          46.750  
C 8  36762350.032   -21778497.2542       -130.420          43.500  
> 2020  6  5  7 59 22.0000000  0 25                     
G12  23862879.944    -7569641.633        3288.857          39.500  
G 3  25111609.743    -7121455.983       -3255.693          36.500  
C13  36778376.120   -21820556.6262          7.227          45.000  
G17  20960011.776   -25397423.460         115.508          46.250  
C23  26078935.393   -11134964.5102      -2275.225          36.500  
C28  22295650.255   -23432057.6102        786.943          48.000  
G 5  23930796.925   -10050829.858        3951.309          36.750  
G 4  24312343.248    -8525000.814         742.197          36.250  
G19  20466459.746   -30663070.183         835.469          46.500  
G 2  22676459.324   -15088900.570        1291.006          43.250  
C 3  36201702.492   -20409998.5022        292.031          43.750  
C14  23207357.245   -10041957.9962      -1111.865          43.500  
C 2  37237955.123   -19753015.2332        324.189          39.750  
G23  23615119.729   -11010858.769        2194.863          39.750  
C 1  37665069.794   -20181591.8282        277.227          41.250  
C27  24438670.959   -11721211.3882       2214.150          41.750  
C 4  38583679.392   -20465440.3822        274.551          38.500  
C 5  39254393.867   -19878347.0302        313.086          36.250  
C11  25937209.646    -1826810.3072      -1430.342          36.250  
C 7  37054471.581   -40043090.7862      -1016.006          41.500  
G 9  23488843.898   -13784859.546        2056.387          39.500  
C10  36242044.568   -28950789.9502       -617.637          42.750  
G28  21949456.746   -23690598.554       -2621.816          41.500  
G 6  21042766.903   -23697505.408         153.359          46.750  
C 8  36762374.986   -21778366.8802       -130.332          43.500  
> 2020  6  5  7 59 23.0000000  0 25                     
G12  23862254.127    -7572930.172        3288.496          39.500  
G 3  25112229.051    -7118200.211       -3255.771          36.250  
C13  36778374.846   -21820563.8292          7.227          45.000  
G17  20959989.876   -25397538.725         115.186          46.000  
C23  26079372.190   -11132689.2732      -2275.137          36.500  
C28  22295499.206   -23432844.4332        786.816          48.000  
G 5  23930045.117   -10054780.884        3950.977          36.750  
G 4  24312201.954    -8525742.565         741.621          36.250  
G19  20466300.775   -30663905.409         835.127          46.500  
G 2  22676213.782   -15090191.457        1290.879          43.250  
C 3  36201646.546   -20410290.4862        291.982          43.750  
C14  23207570.679   -10040845.7452      -1112.373          43.500  
C 2  37237892.913   -19753339.4442        324.297          39.750  
G23  23614701.953   -11013053.528        2194.795          39.750  
C 1  37665016.640   -20181869.0522        277.207          41.500  
C27  24438245.627   -11723425.5792       2214.219          41.750  
C 4  38583626.658   -20465714.8212        274.443          38.500  
C 5  39254333.769   -19878660.1192        313.037          36.250  
C11  25937484.487    -1825379.8952      -1430.361          36.250  
C 7  37054666.639   -40042074.7262      -1016.104          41.500  
G 9  23488452.664   -13786915.648        2056.055          39.500  
C10  36242163.072   -28950172.1912       -617.764          42.750  
G28  21949955.665   -23687976.487       -2622.188          41.750  
G 6  21042737.552   -23697658.661         153.203          46.500  
C 8  36762400.114   -21778236.5542       -130.312          43.500  
> 2020  6  5  7 59 24.0000000  0 25                     
G12  23861628.502    -7576218.243        3288.057          39.750  
G 3  25112848.883    -7114944.198       -3256.055          36.500  
C13  36778373.590   -21820570.8972          7.109          45.000  
G17  20959968.220   -25397653.566         114.795          46.250  
C23  26079809.056   -11130414.0672      -2275.117          36.500  
C28  22295348.139   -23433631.0372        786.611          48.000  
G 5  23929292.786   -10058731.717        3950.918          36.750  
G 4  24312060.816    -8526483.752         741.104          36.250  
G19  20466142.030   -30664740.200         834.756          46.500  
G 2  22675968.048   -15091482.073        1290.625          43.000  
C 3  36201590.479   -20410582.3532        291.895          43.750  
C14  23207784.339   -10039732.8892      -1112.930          43.500  
C 2  37237830.529   -19753663.5242        324.150          39.750  
G23  23614284.352   -11015247.990        2194.521          39.750  
C 1  37664963.487   -20182146.1302        277.148          41.500  
C27  24437820.732   -11725639.6812       2214.180          41.750  
C 4  38583573.975   -20465989.1822        274.473          38.500  
C 5  39254273.635   -19878973.0852        313.076          36.000  
C11  25937759.328    -1823949.2412      -1430.615          36.500  
C 7  37054861.855   -40041058.4472      -1016.309          41.250  
G 9  23488061.482   -13788971.341        2055.615          39.500  
C10  36242281.873   -28949554.1172       -618.018          42.750  
G28  21950455.003   -23685353.988       -2622.578          41.750  
G 6  21042708.427   -23697811.611         152.939          46.750  
C 8  36762424.963   -21778106.1822       -130.303          43.500  
> 2020  6  5  7 59 25.0000000  0 25                     
G12  23861002.737    -7579505.983        3287.793          39.500  
G 3  25113468.575    -7111688.142       -3255.977          36.250  
C13  36778371.967   -21820578.0362          7.256          45.000  
G17  20959946.180   -25397768.137         114.629          46.250  
C23  26080245.922   -11128139.0582      -2274.883          36.500  
C28  22295196.916   -23434417.5652        786.621          48.000  
G 5  23928540.594   -10062682.375        3950.703          36.500  
G 4  24311919.731    -8527224.524         740.732          36.250  
G19  20465983.565   -30665574.706         834.561          46.500  
G 2  22675722.558   -15092772.609        1290.605          43.250  
C 3  36201534.516   -20410874.2472        292.021          43.750  
C14  23207998.157   -10038619.5712      -1113.301          43.500  
C 2  37237768.319   -19753987.6202        324.219          39.750  
G23  23613866.960   -11017442.342        2194.424          39.750  
C 1  37664910.107   -20182423.2802        277.256          41.500  
C27  24437395.540   -11727853.8512       2214.316          41.750  
C 4  38583521.572   -20466263.5602        274.521          38.500  
C 5  39254213.432   -19879286.0782        313.164          36.000  
C11  25938034.029    -1822518.4912      -1430.625          36.500  
C 7  37055057.070   -40040042.0852      -1016.250          41.250  
G 9  23487670.371   -13791026.791        2055.479          39.250  
C10  36242400.657   -28948935.9762       -618.105          42.750  
G28  21950954.463   -23682731.220       -2622.734          41.750  
G 6  21042679.408   -23697964.401         152.852          46.750  
C 8  36762449.900   -21777975.9002       -130.176          43.250  
> 2020  6  5  7 59 26.0000000  0 25                     
G12  23860377.077    -7582793.479        3287.549          39.750  
G 3  25114088.302    -7108432.086       -3255.986          36.250  
C13  36778370.693   -21820585.3222          7.441          45.000  
G17  20959924.455   -25397882.510         114.443          46.000  
C23  26080682.631   -11125864.3062      -2274.551          36.750  
C28  22295045.884   -23435204.1022        786.650          48.000  
G 5  23927788.647   -10066633.032        3950.752          36.500  
G 4  24311778.908    -8527964.909         740.420          36.250  
G19  20465824.803   -30666409.000         834.346          46.500  
G 2  22675477.086   -15094063.111        1290.596          43.250  
C 3  36201478.343   -20411166.2562        292.168          43.750  
C14  23208212.253   -10037505.8812      -1113.691          43.500  
C 2  37237706.161   -19754311.8762        324.434          39.750  
G23  23613449.516   -11019636.686        2194.492          40.000  
C 1  37664856.866   -20182700.5182        277.373          41.500  
C27  24436970.348   -11730068.1592       2214.473          42.000  
C 4  38583468.977   -20466538.0552        274.658          38.500  
C 5  39254153.281   -19879599.2112        313.311          36.000  
C11  25938308.940    -1821087.7492      -1430.586          36.500  
C 7  37055252.356   -40039025.7362      -1016.240          41.250  
G 9  23487279.486   -13793082.034        2055.195          39.000  
C10  36242519.545   -28948317.7562       -618.096          42.750  
G28  21951453.889   -23680108.215       -2622.910          41.750  
G 6  21042650.475   -23698117.127         152.842          46.750  
C 8  36762474.976   -21777845.7692       -129.971          43.500  
> 2020  6  5  7 59 27.0000000  0 25                     
G12  23859751.591    -7586080.629        3287.051          39.750  
G 3  25114707.785    -7105175.950       -3256.240          36.500  
C13  36778369.105   -21820592.6052          7.285          45.000  
G17  20959902.747   -25397996.564         113.896          46.000  
C23  26081119.742   -11123589.7282      -2274.580          36.500  
C28  22294895.027   -23435990.5302        786.367          48.000  
G 5  23927036.455   -10070583.475        3950.352          36.500  
G 4  24311638.102    -8528704.840         739.854          36.250  
G19  20465665.918   -30667242.974         833.828          46.500  
G 2  22675231.649   -15095353.498        1290.283          43.250  
C 3  36201422.293   -20411458.2662        291.982          43.750  
C14  23208426.298   -10036391.7062      -1114.326          43.500  
C 2  37237644.003   -19754636.0892        324.209          39.750  
G23  23613032.054   -11021830.851        2194.072          40.000  
C 1  37664803.556   -20182977.7662        277.178          41.500  
C27  24436544.999   -11732282.5302       2214.326          41.750  
C 4  38583416.225   -20466812.5452        274.531          38.500  
C 5  39254093.025   -19879912.2862        313.066          36.000  
C11  25938583.763    -1819656.9002      -1430.869          36.500  
C 7  37055447.362   -40038009.2852      -1016.562          41.250  
G 9  23486888.043   -13795136.999        2054.824          39.000  
C10  36242638.224   -28947699.4162       -618.379          42.750  
G28  21951953.017   -23677484.884       -2623.467          42.000  
G 6  21042621.403   -23698269.652         152.461          46.750  
C 8  36762500.052   -21777715.6932       -130.059          43.500  
> 2020  6  5  7 59 28.0000000  0 25                     
G12  23859125.931    -7589367.533        3286.855          39.500  
G 3  25115327.477    -7101919.838       -3256.104          36.500  
C13  36778367.814   -21820599.9872          7.441          45.000  
G17  20959880.951   -25398110.439         113.828          46.250  
C23  26081556.538   -11121315.3752      -2274.229          36.500  
C28  22294743.960   -23436776.9782        786.475          48.000  
G 5  23926284.246   -10074533.947        3950.605          36.000  
G 4  24311497.401    -8529444.398         739.473          36.250  
G19  20465507.278   -30668076.741         833.711          46.500  
G 2  22674985.897   -15096643.863        1290.371          43.250  
C 3  36201366.051   -20411750.3812        292.168          43.750  
C14  23208640.342   -10035277.1492      -1114.639          43.500  
C 2  37237581.776   -19754960.4182        324.365          39.750  
G23  23612614.628   -11024024.973        2194.092          40.000  
C 1  37664750.158   -20183255.1332        277.432          41.250  
C27  24436119.754   -11734497.0532       2214.580          41.750  
C 4  38583363.369   -20467087.1212        274.629          38.500  
C 5  39254032.997   -19880225.5242        313.271          36.000  
C11  25938858.552    -1818226.0212      -1430.859          36.500  
C 7  37055642.612   -40036992.8362      -1016.475          41.250  
G 9  23486496.878   -13797191.791        2054.707          39.000  
C10  36242757.130   -28947081.0272       -618.340          42.750  
G28  21952452.198   -23674861.349       -2623.545          41.750  
G 6  21042592.383   -23698422.112         152.480          46.750  
C 8  36762524.796   -21777585.7872       -129.824          43.250  
> 2020  6  5  7 59 29.0000000  0 25                     
G12  23858500.533    -7592653.931        3286.211          39.750  
G 3  25115946.820    -7098663.489       -3256.416          36.500  
C13  36778366.470   -21820607.2662          7.246          45.000  
G17  20959859.610   -25398223.851         113.262          46.250  
C23  26081993.370   -11119041.0352      -2274.346          36.500  
C28  22294592.911   -23437563.1652        786.113          48.000  
G 5  23925532.403   -10078484.072        3950.000          35.750  
G 4  24311356.683    -8530183.358         738.848          36.250  
G19  20465348.639   -30668910.038         833.125          46.500  
G 2  22674740.286   -15097933.954        1289.980          43.250  
C 3  36201310.071   -20412042.3612        291.914          43.750  
C14  23208854.596   -10034161.9652      -1115.352          43.500  
C 2  37237519.496   -19755284.6032        324.082          39.750  
G23  23612197.376   -11026218.822        2193.818          40.000  
C 1  37664696.953   -20183532.3572        277.139          41.500  
C27  24435694.580   -11736711.4502       2214.365          41.750  
C 4  38583310.582   -20467361.5642        274.375          38.500  
C 5  39253972.951   -19880538.5942        313.027          36.000  
C11  25939133.428    -1816794.9112      -1431.299          36.250  
C 7  37055837.811   -40035976.1512      -1016.807          41.500  
G 9  23486105.924   -13799246.127        2054.160          39.250  
C10  36242875.914   -28946462.3112       -618.867          42.750  
G28  21952951.484   -23672237.332       -2624.180          41.750  
G 6  21042563.294   -23698574.249         152.041          46.750  
C 8  36762549.715   -21777455.8092       -130.020          43.500  
> 2020  6  5  7 59 30.0000000  0 25                     
G12  23857875.431    -7595940.056        3286.123          39.500  
G 3  25116566.408    -7095407.055       -3256.455          36.750  
C13  36778365.127   -21820614.6092          7.402          44.750  
G17  20959837.971   -25398337.001         113.096          46.000  
C23  26082430.253   -11116766.9022      -2273.975          36.750  
C28  22294441.880   -23438349.2982        786.123          48.000  
G 5  23924780.718   -10082434.130        3949.990          35.750  
G 4  24311215.842    -8530921.853         738.398          36.500  
G19  20465190.033   -30669743.070         832.979          46.500  
G 2  22674495.040   -15099223.939        1289.932          43.250  
C 3  36201253.916   -20412334.3562        292.070          43.750  
C14  23209068.972   -10033046.3342      -1115.723          43.750  
C 2  37237457.164   -19755608.8552        324.268          39.750  
G23  23611780.089   -11028412.510        2193.652          40.000  
C 1  37664643.799   -20183809.6352        277.334          41.500  
C27  24435269.318   -11738925.9402       2214.570          41.750  
C 4  38583257.865   -20467636.0632        274.531          38.500  
C 5  39253912.643   -19880851.7032        313.232          36.000  
C11  25939408.269    -1815363.6792      -1431.309          36.500  
C 7  37056033.253   -40034959.3892      -1016.729          41.250  
G 9  23485715.039   -13801300.209        2054.033          39.250  
C10  36242994.697   -28945843.5112       -618.828          42.750  
G28  21953450.752   -23669613.035       -2624.365          41.750  
G 6  21042534.326   -23698726.221         151.943          46.750  
C 8  36762574.651   -21777325.8962       -129.854          43.500  
> 2020  6  5  7 59 31.0000000  0 25                     
G12  23857250.050    -7599225.673        3285.537          39.500  
G 3  25117186.239    -7092150.462       -3256.680          36.750  
C13  36778363.521   -21820621.8502          7.197          44.750  
