% program   : RTKPOST ver.2.4.3 b33
% inp file  : D:\Documents\Visual Studio 2019\rtklib_portToVS\rtklib_2.4.3\data\1.obs
% inp file  : D:\Documents\Visual Studio 2019\rtklib_portToVS\rtklib_2.4.3\data\2.obs
% inp file  : D:\Documents\Visual Studio 2019\rtklib_portToVS\rtklib_2.4.3\data\2.nav
% obs start : 2020/06/05 07:58:58.0 GPST (week2108 460738.0s)
% obs end   : 2020/06/05 08:27:58.0 GPST (week2108 462478.0s)
% pos mode  : static
% freqs     : L1
% solution  : forward
% elev mask : 10.0 deg
% dynamics  : off
% tidecorr  : off
% ionos opt : broadcast
% tropo opt : saastamoinen
% ephemeris : broadcast
% navi sys  : gps beidou
% amb res   : fix and hold
% val thres : 3.0
% antenna1  :                       ( 0.0000  0.0000  0.0000)
% antenna2  :                       ( 0.0000  0.0000  0.0000)
% ref pos   : -2191136.5960   5198843.8105   2965370.9859
%
% (x/y/z-ecef=WGS84,Q=1:fix,2:float,3:sbas,4:dgps,5:single,6:ppp,ns=# of satellites)
%  GPST                      x-ecef(m)      y-ecef(m)      z-ecef(m)   Q  ns   sdx(m)   sdy(m)   sdz(m)  sdxy(m)  sdyz(m)  sdzx(m) age(s)  ratio
2020/06/05 07:58:58.000  -2191132.8697   5198844.5149   2965370.9077   2  23   0.5036   0.8918   0.4985  -0.5297   0.5183  -0.3561   0.00    2.6
2020/06/05 07:58:59.000  -2191132.8319   5198844.4223   2965370.9027   2  23   0.3591   0.6368   0.3554  -0.3781   0.3704  -0.2543   0.00    2.0
2020/06/05 07:59:00.000  -2191132.8367   5198844.4735   2965370.9298   2  23   0.2940   0.5216   0.2910  -0.3097   0.3035  -0.2083   0.00    2.1
2020/06/05 07:59:01.000  -2191132.8191   5198844.4836   2965370.9338   2  23   0.2550   0.4524   0.2523  -0.2686   0.2633  -0.1807   0.00    2.1
2020/06/05 07:59:02.000  -2191132.8173   5198844.5037   2965370.9483   2  23   0.2282   0.4050   0.2258  -0.2404   0.2357  -0.1617   0.00    2.0
2020/06/05 07:59:03.000  -2191132.8170   5198844.4995   2965370.9425   2  23   0.2084   0.3699   0.2062  -0.2196   0.2153  -0.1477   0.00    2.1
2020/06/05 07:59:04.000  -2191132.7919   5198844.4921   2965370.9255   2  23   0.1930   0.3425   0.1910  -0.2033   0.1994  -0.1368   0.00    2.1
2020/06/05 07:59:05.000  -2191132.7861   5198844.5010   2965370.9248   2  23   0.1805   0.3204   0.1787  -0.1902   0.1865  -0.1279   0.00    2.2
2020/06/05 07:59:06.000  -2191132.7841   5198844.5380   2965370.9483   2  23   0.1702   0.3021   0.1684  -0.1793   0.1758  -0.1206   0.00    2.2
2020/06/05 07:59:07.000  -2191132.7843   5198844.5703   2965370.9665   2  23   0.1614   0.2866   0.1598  -0.1700   0.1668  -0.1144   0.00    2.3
2020/06/05 07:59:08.000  -2191132.7892   5198844.5949   2965370.9708   2  23   0.1539   0.2732   0.1523  -0.1621   0.1590  -0.1090   0.00    2.4
2020/06/05 07:59:09.000  -2191132.7902   5198844.6139   2965370.9757   2  23   0.1473   0.2615   0.1458  -0.1551   0.1522  -0.1043   0.00    2.5
2020/06/05 07:59:10.000  -2191132.7921   5198844.6324   2965370.9880   2  23   0.1415   0.2512   0.1400  -0.1489   0.1461  -0.1002   0.00    2.6
2020/06/05 07:59:11.000  -2191132.7958   5198844.6512   2965370.9984   2  23   0.1363   0.2419   0.1349  -0.1434   0.1407  -0.0965   0.00    2.6
2020/06/05 07:59:12.000  -2191132.7981   5198844.6629   2965371.0103   2  23   0.1316   0.2336   0.1302  -0.1385   0.1359  -0.0932   0.00    2.6
2020/06/05 07:59:13.000  -2191132.8109   5198844.6871   2965371.0237   2  23   0.1274   0.2261   0.1260  -0.1340   0.1315  -0.0901   0.00    2.7
2020/06/05 07:59:14.000  -2191132.8220   5198844.7024   2965371.0380   2  23   0.1235   0.2192   0.1222  -0.1299   0.1275  -0.0874   0.00    2.6
2020/06/05 07:59:15.000  -2191132.8375   5198844.7179   2965371.0479   2  23   0.1200   0.2130   0.1187  -0.1261   0.1238  -0.0848   0.00    2.7
2020/06/05 07:59:16.000  -2191132.8498   5198844.7333   2965371.0569   2  23   0.1167   0.2071   0.1155  -0.1227   0.1204  -0.0825   0.00    2.7
2020/06/05 07:59:17.000  -2191132.8467   5198844.7389   2965371.0570   2  23   0.1137   0.2018   0.1125  -0.1195   0.1173  -0.0803   0.00    2.7
2020/06/05 07:59:18.000  -2191132.8477   5198844.7583   2965371.0598   2  23   0.1109   0.1968   0.1097  -0.1165   0.1143  -0.0783   0.00    2.8
2020/06/05 07:59:19.000  -2191132.8566   5198844.7875   2965371.0646   2  23   0.1083   0.1921   0.1071  -0.1137   0.1116  -0.0764   0.00    3.0
2020/06/05 07:59:20.000  -2191132.9449   5198845.4300   2965370.8256   1  23   0.0016   0.0035   0.0015  -0.0018   0.0015  -0.0010   0.00    3.1
2020/06/05 07:59:21.000  -2191132.9449   5198845.4299   2965370.8257   1  23   0.0016   0.0034   0.0015  -0.0017   0.0014  -0.0009   0.00    3.1
2020/06/05 07:59:22.000  -2191132.9448   5198845.4297   2965370.8256   1  23   0.0015   0.0034   0.0014  -0.0017   0.0014  -0.0009   0.00    3.2
2020/06/05 07:59:23.000  -2191132.9448   5198845.4296   2965370.8257   1  23   0.0015   0.0033   0.0014  -0.0017   0.0014  -0.0009   0.00    3.3
2020/06/05 07:59:24.000  -2191132.9448   5198845.4294   2965370.8258   1  23   0.0015   0.0032   0.0014  -0.0016   0.0013  -0.0009   0.00    3.4
2020/06/05 07:59:25.000  -2191132.9448   5198845.4293   2965370.8258   1  23   0.0014   0.0032   0.0014  -0.0016   0.0013  -0.0009   0.00  167.4
2020/06/05 07:59:26.000  -2191132.9449   5198845.4293   2965370.8258   1  23   0.0014   0.0031   0.0013  -0.0016   0.0013  -0.0008   0.00  267.5
2020/06/05 07:59:27.000  -2191132.9448   5198845.4291   2965370.8258   1  23   0.0014   0.0031   0.0013  -0.0015   0.0013  -0.0008   0.00  375.5
2020/06/05 07:59:28.000  -2191132.9448   5198845.4290   2965370.8257   1  23   0.0014   0.0030   0.0013  -0.0015   0.0013  -0.0008   0.00  497.1
2020/06/05 07:59:29.000  -2191132.9449   5198845.4291   2965370.8258   1  23   0.0014   0.0030   0.0013  -0.0015   0.0012  -0.0008   0.00  621.8
2020/06/05 07:59:30.000  -2191132.9450   5198845.4290   2965370.8257   1  23   0.0013   0.0029   0.0013  -0.0015   0.0012  -0.0008   0.00  761.2
2020/06/05 07:59:31.000  -2191132.9450   5198845.4289   2965370.8257   1  23   0.0013   0.0029   0.0012  -0.0015   0.0012  -0.0008   0.00  880.1
2020/06/05 07:59:32.000  -2191132.9451   5198845.4289   2965370.8257   1  23   0.0013   0.0028   0.0012  -0.0014   0.0012  -0.0008   0.00  999.9
2020/06/05 07:59:33.000  -2191132.9450   5198845.4289   2965370.8256   1  23   0.0013   0.0028   0.0012  -0.0014   0.0012  -0.0008   0.00  999.9
2020/06/05 07:59:34.000  -2191132.9450   5198845.4288   2965370.8256   1  23   0.0013   0.0028   0.0012  -0.0014   0.0012  -0.0008   0.00  999.9
2020/06/05 07:59:35.000  -2191132.9450   5198845.4288   2965370.8255   1  23   0.0012   0.0027   0.0012  -0.0014   0.0011  -0.0007   0.00  999.9
2020/06/05 07:59:36.000  -2191132.9450   5198845.4287   2965370.8255   1  23   0.0012   0.0027   0.0012  -0.0014   0.0011  -0.0007   0.00  999.9
2020/06/05 07:59:37.000  -2191132.9451   5198845.4287   2965370.8254   1  23   0.0012   0.0027   0.0011  -0.0013   0.0011  -0.0007   0.00  999.9
2020/06/05 07:59:38.000  -2191132.9451   5198845.4287   2965370.8253   1  23   0.0012   0.0026   0.0011  -0.0013   0.0011  -0.0007   0.00  999.9
2020/06/05 07:59:39.000  -2191132.9451   5198845.4287   2965370.8253   1  23   0.0012   0.0026   0.0011  -0.0013   0.0011  -0.0007   0.00  999.9
2020/06/05 07:59:40.000  -2191132.9451   5198845.4288   2965370.8253   1  23   0.0012   0.0026   0.0011  -0.0013   0.0011  -0.0007   0.00  999.9
2020/06/05 07:59:41.000  -2191132.9451   5198845.4289   2965370.8253   1  23   0.0012   0.0025   0.0011  -0.0013   0.0011  -0.0007   0.00  999.9
2020/06/05 07:59:42.000  -2191132.9452   5198845.4290   2965370.8252   1  23   0.0011   0.0025   0.0011  -0.0013   0.0010  -0.0007   0.00  999.9
2020/06/05 07:59:43.000  -2191132.9452   5198845.4290   2965370.8252   1  23   0.0011   0.0025   0.0011  -0.0012   0.0010  -0.0007   0.00  999.9
2020/06/05 07:59:44.000  -2191132.9452   5198845.4289   2965370.8253   1  23   0.0011   0.0025   0.0011  -0.0012   0.0010  -0.0007   0.00  999.9
2020/06/05 07:59:45.000  -2191132.9451   5198845.4288   2965370.8252   1  23   0.0011   0.0024   0.0010  -0.0012   0.0010  -0.0007   0.00  999.9
2020/06/05 07:59:46.000  -2191132.9452   5198845.4287   2965370.8252   1  23   0.0011   0.0024   0.0010  -0.0012   0.0010  -0.0007   0.00  999.9
2020/06/05 07:59:47.000  -2191132.9452   5198845.4288   2965370.8252   1  23   0.0011   0.0024   0.0010  -0.0012   0.0010  -0.0006   0.00  999.9
2020/06/05 07:59:48.000  -2191132.9452   5198845.4288   2965370.8252   1  23   0.0011   0.0024   0.0010  -0.0012   0.0010  -0.0006   0.00  999.9
2020/06/05 07:59:49.000  -2191132.9452   5198845.4287   2965370.8251   1  23   0.0011   0.0023   0.0010  -0.0012   0.0010  -0.0006   0.00  999.9
2020/06/05 07:59:50.000  -2191132.9453   5198845.4288   2965370.8251   1  23   0.0010   0.0023   0.0010  -0.0012   0.0010  -0.0006   0.00  999.9
2020/06/05 07:59:51.000  -2191132.9453   5198845.4287   2965370.8250   1  23   0.0010   0.0023   0.0010  -0.0012   0.0010  -0.0006   0.00  999.9
2020/06/05 07:59:52.000  -2191132.9453   5198845.4287   2965370.8250   1  23   0.0010   0.0023   0.0010  -0.0011   0.0009  -0.0006   0.00  999.9
2020/06/05 07:59:53.000  -2191132.9453   5198845.4287   2965370.8250   1  23   0.0010   0.0022   0.0010  -0.0011   0.0009  -0.0006   0.00  999.9
2020/06/05 07:59:54.000  -2191132.9453   5198845.4287   2965370.8250   1  23   0.0010   0.0022   0.0010  -0.0011   0.0009  -0.0006   0.00  999.9
2020/06/05 07:59:55.000  -2191132.9453   5198845.4286   2965370.8249   1  23   0.0010   0.0022   0.0009  -0.0011   0.0009  -0.0006   0.00  999.9
2020/06/05 07:59:56.000  -2191132.9453   5198845.4285   2965370.8249   1  23   0.0010   0.0022   0.0009  -0.0011   0.0009  -0.0006   0.00  999.9
2020/06/05 07:59:57.000  -2191132.9454   5198845.4284   2965370.8249   1  23   0.0010   0.0022   0.0009  -0.0011   0.0009  -0.0006   0.00  999.9
2020/06/05 07:59:58.000  -2191132.9454   5198845.4283   2965370.8249   1  23   0.0010   0.0022   0.0009  -0.0011   0.0009  -0.0006   0.00  999.9
2020/06/05 07:59:59.000  -2191132.9453   5198845.4283   2965370.8248   1  23   0.0010   0.0021   0.0009  -0.0011   0.0009  -0.0006   0.00  999.9
2020/06/05 08:00:00.000  -2191132.9454   5198845.4282   2965370.8248   1  23   0.0010   0.0021   0.0009  -0.0011   0.0009  -0.0006   0.00  999.9
2020/06/05 08:00:01.000  -2191132.9453   5198845.4281   2965370.8248   1  23   0.0010   0.0021   0.0009  -0.0011   0.0009  -0.0006   0.00  999.9
2020/06/05 08:00:02.000  -2191132.9454   5198845.4281   2965370.8248   1  23   0.0009   0.0021   0.0009  -0.0011   0.0009  -0.0006   0.00  999.9
2020/06/05 08:00:03.000  -2191132.9454   5198845.4281   2965370.8247   1  23   0.0009   0.0021   0.0009  -0.0010   0.0009  -0.0006   0.00  999.9
2020/06/05 08:00:04.000  -2191132.9454   5198845.4281   2965370.8247   1  23   0.0009   0.0021   0.0009  -0.0010   0.0009  -0.0006   0.00  999.9
2020/06/05 08:00:05.000  -2191132.9454   5198845.4281   2965370.8247   1  23   0.0009   0.0020   0.0009  -0.0010   0.0008  -0.0006   0.00  999.9
2020/06/05 08:00:06.000  -2191132.9455   5198845.4281   2965370.8247   1  23   0.0009   0.0020   0.0009  -0.0010   0.0008  -0.0006   0.00  999.9
2020/06/05 08:00:07.000  -2191132.9455   5198845.4280   2965370.8246   1  23   0.0009   0.0020   0.0009  -0.0010   0.0008  -0.0005   0.00  999.9
2020/06/05 08:00:08.000  -2191132.9455   5198845.4280   2965370.8246   1  23   0.0009   0.0020   0.0009  -0.0010   0.0008  -0.0005   0.00  999.9
2020/06/05 08:00:09.000  -2191132.9455   5198845.4280   2965370.8246   1  22   0.0009   0.0020   0.0009  -0.0010   0.0008  -0.0005   0.00  999.9
2020/06/05 08:00:10.000  -2191132.9455   5198845.4279   2965370.8246   1  23   0.0009   0.0020   0.0008  -0.0010   0.0008  -0.0005   0.00  999.9
2020/06/05 08:00:11.000  -2191132.9455   5198845.4279   2965370.8246   1  23   0.0009   0.0020   0.0008  -0.0010   0.0008  -0.0005   0.00  999.9
2020/06/05 08:00:12.000  -2191132.9456   5198845.4280   2965370.8245   1  23   0.0009   0.0019   0.0008  -0.0010   0.0008  -0.0005   0.00  999.9
2020/06/05 08:00:13.000  -2191132.9456   5198845.4279   2965370.8245   1  23   0.0009   0.0019   0.0008  -0.0010   0.0008  -0.0005   0.00  999.9
2020/06/05 08:00:14.000  -2191132.9456   5198845.4279   2965370.8245   1  23   0.0009   0.0019   0.0008  -0.0010   0.0008  -0.0005   0.00  999.9
2020/06/05 08:00:15.000  -2191132.9456   5198845.4278   2965370.8245   1  23   0.0009   0.0019   0.0008  -0.0010   0.0008  -0.0005   0.00  999.9
2020/06/05 08:00:16.000  -2191132.9456   5198845.4278   2965370.8245   1  23   0.0009   0.0019   0.0008  -0.0010   0.0008  -0.0005   0.00  999.9
2020/06/05 08:00:17.000  -2191132.9456   5198845.4278   2965370.8244   1  23   0.0009   0.0019   0.0008  -0.0009   0.0008  -0.0005   0.00  999.9
2020/06/05 08:00:18.000  -2191132.9456   5198845.4278   2965370.8244   1  23   0.0009   0.0019   0.0008  -0.0009   0.0008  -0.0005   0.00  999.9
2020/06/05 08:00:19.000  -2191132.9457   5198845.4278   2965370.8244   1  23   0.0008   0.0019   0.0008  -0.0009   0.0008  -0.0005   0.00  999.9
2020/06/05 08:00:20.000  -2191132.9457   5198845.4278   2965370.8244   1  23   0.0008   0.0018   0.0008  -0.0009   0.0008  -0.0005   0.00  999.9
2020/06/05 08:00:21.000  -2191132.9457   5198845.4277   2965370.8244   1  23   0.0008   0.0018   0.0008  -0.0009   0.0008  -0.0005   0.00  999.9
2020/06/05 08:00:22.000  -2191132.9458   5198845.4277   2965370.8244   1  23   0.0008   0.0018   0.0008  -0.0009   0.0008  -0.0005   0.00  999.9
2020/06/05 08:00:23.000  -2191132.9457   5198845.4277   2965370.8244   1  23   0.0008   0.0018   0.0008  -0.0009   0.0008  -0.0005   0.00  999.9
2020/06/05 08:00:24.000  -2191132.9457   5198845.4276   2965370.8244   1  23   0.0008   0.0018   0.0008  -0.0009   0.0008  -0.0005   0.00  999.9
2020/06/05 08:00:25.000  -2191132.9458   5198845.4275   2965370.8243   1  23   0.0008   0.0018   0.0008  -0.0009   0.0007  -0.0005   0.00  999.9
2020/06/05 08:00:26.000  -2191132.9458   5198845.4275   2965370.8243   1  23   0.0008   0.0018   0.0008  -0.0009   0.0007  -0.0005   0.00  999.9
2020/06/05 08:00:27.000  -2191132.9458   5198845.4275   2965370.8243   1  23   0.0008   0.0018   0.0008  -0.0009   0.0007  -0.0005   0.00  999.9
2020/06/05 08:00:28.000  -2191132.9458   5198845.4275   2965370.8243   1  23   0.0008   0.0018   0.0008  -0.0009   0.0007  -0.0005   0.00  999.9
2020/06/05 08:00:29.000  -2191132.9458   5198845.4274   2965370.8243   1  23   0.0008   0.0018   0.0008  -0.0009   0.0007  -0.0005   0.00  999.9
2020/06/05 08:00:30.000  -2191132.9458   5198845.4273   2965370.8243   1  23   0.0008   0.0017   0.0008  -0.0009   0.0007  -0.0005   0.00  999.9
2020/06/05 08:00:31.000  -2191132.9458   5198845.4272   2965370.8243   1  23   0.0008   0.0017   0.0007  -0.0009   0.0007  -0.0005   0.00  999.9
2020/06/05 08:00:32.000  -2191132.9457   5198845.4271   2965370.8242   1  23   0.0008   0.0017   0.0007  -0.0009   0.0007  -0.0005   0.00  999.9
2020/06/05 08:00:33.000  -2191132.9457   5198845.4271   2965370.8242   1  23   0.0008   0.0017   0.0007  -0.0009   0.0007  -0.0005   0.00  999.9
2020/06/05 08:00:34.000  -2191132.9457   5198845.4271   2965370.8242   1  23   0.0008   0.0017   0.0007  -0.0009   0.0007  -0.0005   0.00  999.9
2020/06/05 08:00:35.000  -2191132.9457   5198845.4270   2965370.8242   1  23   0.0008   0.0017   0.0007  -0.0009   0.0007  -0.0005   0.00  999.9
2020/06/05 08:00:36.000  -2191132.9456   5198845.4270   2965370.8242   1  23   0.0008   0.0017   0.0007  -0.0009   0.0007  -0.0005   0.00  999.9
2020/06/05 08:00:37.000  -2191132.9456   5198845.4269   2965370.8241   1  23   0.0008   0.0017   0.0007  -0.0008   0.0007  -0.0005   0.00  999.9
2020/06/05 08:00:38.000  -2191132.9456   5198845.4268   2965370.8241   1  23   0.0008   0.0017   0.0007  -0.0008   0.0007  -0.0005   0.00  999.9
2020/06/05 08:00:39.000  -2191132.9456   5198845.4268   2965370.8241   1  23   0.0008   0.0017   0.0007  -0.0008   0.0007  -0.0005   0.00  999.9
2020/06/05 08:00:40.000  -2191132.9456   5198845.4267   2965370.8241   1  23   0.0008   0.0017   0.0007  -0.0008   0.0007  -0.0005   0.00  999.9
2020/06/05 08:00:41.000  -2191132.9456   5198845.4267   2965370.8240   1  23   0.0008   0.0017   0.0007  -0.0008   0.0007  -0.0004   0.00  999.9
2020/06/05 08:00:42.000  -2191132.9456   5198845.4266   2965370.8240   1  23   0.0007   0.0016   0.0007  -0.0008   0.0007  -0.0004   0.00  999.9
2020/06/05 08:00:43.000  -2191132.9456   5198845.4266   2965370.8240   1  23   0.0007   0.0016   0.0007  -0.0008   0.0007  -0.0004   0.00  999.9
2020/06/05 08:00:44.000  -2191132.9455   5198845.4265   2965370.8240   1  23   0.0007   0.0016   0.0007  -0.0008   0.0007  -0.0004   0.00  999.9
2020/06/05 08:00:45.000  -2191132.9455   5198845.4265   2965370.8240   1  23   0.0007   0.0016   0.0007  -0.0008   0.0007  -0.0004   0.00  999.9
2020/06/05 08:00:46.000  -2191132.9455   5198845.4265   2965370.8239   1  23   0.0007   0.0016   0.0007  -0.0008   0.0007  -0.0004   0.00  999.9
2020/06/05 08:00:47.000  -2191132.9455   5198845.4265   2965370.8239   1  23   0.0007   0.0016   0.0007  -0.0008   0.0007  -0.0004   0.00  999.9
2020/06/05 08:00:48.000  -2191132.9455   5198845.4265   2965370.8239   1  23   0.0007   0.0016   0.0007  -0.0008   0.0007  -0.0004   0.00  999.9
2020/06/05 08:00:49.000  -2191132.9455   5198845.4264   2965370.8239   1  23   0.0007   0.0016   0.0007  -0.0008   0.0007  -0.0004   0.00  999.9
2020/06/05 08:00:50.000  -2191132.9455   5198845.4264   2965370.8239   1  23   0.0007   0.0016   0.0007  -0.0008   0.0007  -0.0004   0.00  999.9
2020/06/05 08:00:51.000  -2191132.9455   5198845.4263   2965370.8238   1  23   0.0007   0.0016   0.0007  -0.0008   0.0007  -0.0004   0.00  999.9
2020/06/05 08:00:52.000  -2191132.9455   5198845.4263   2965370.8238   1  23   0.0007   0.0016   0.0007  -0.0008   0.0007  -0.0004   0.00  999.9
2020/06/05 08:00:53.000  -2191132.9454   5198845.4263   2965370.8238   1  23   0.0007   0.0016   0.0007  -0.0008   0.0007  -0.0004   0.00  999.9
2020/06/05 08:00:54.000  -2191132.9454   5198845.4263   2965370.8238   1  23   0.0007   0.0016   0.0007  -0.0008   0.0006  -0.0004   0.00  999.9
2020/06/05 08:00:55.000  -2191132.9454   5198845.4263   2965370.8238   1  23   0.0007   0.0016   0.0007  -0.0008   0.0006  -0.0004   0.00  999.9
2020/06/05 08:00:56.000  -2191132.9454   5198845.4262   2965370.8237   1  23   0.0007   0.0015   0.0007  -0.0008   0.0006  -0.0004   0.00  999.9
2020/06/05 08:00:57.000  -2191132.9454   5198845.4262   2965370.8237   1  23   0.0007   0.0015   0.0007  -0.0008   0.0006  -0.0004   0.00  999.9
2020/06/05 08:00:58.000  -2191132.9454   5198845.4262   2965370.8237   1  23   0.0007   0.0015   0.0007  -0.0008   0.0006  -0.0004   0.00  999.9
2020/06/05 08:00:59.000  -2191132.9454   5198845.4262   2965370.8237   1  23   0.0007   0.0015   0.0007  -0.0008   0.0006  -0.0004   0.00  999.9
2020/06/05 08:01:00.000  -2191132.9454   5198845.4261   2965370.8236   1  23   0.0007   0.0015   0.0007  -0.0008   0.0006  -0.0004   0.00  999.9
2020/06/05 08:01:01.000  -2191132.9454   5198845.4261   2965370.8236   1  23   0.0007   0.0015   0.0007  -0.0008   0.0006  -0.0004   0.00  999.9
2020/06/05 08:01:02.000  -2191132.9454   5198845.4261   2965370.8236   1  23   0.0007   0.0015   0.0007  -0.0008   0.0006  -0.0004   0.00  999.9
2020/06/05 08:01:03.000  -2191132.9454   5198845.4260   2965370.8236   1  23   0.0007   0.0015   0.0006  -0.0008   0.0006  -0.0004   0.00  999.9
2020/06/05 08:01:04.000  -2191132.9454   5198845.4260   2965370.8236   1  23   0.0007   0.0015   0.0006  -0.0008   0.0006  -0.0004   0.00  999.9
2020/06/05 08:01:05.000  -2191132.9453   5198845.4260   2965370.8236   1  23   0.0007   0.0015   0.0006  -0.0008   0.0006  -0.0004   0.00  999.9
2020/06/05 08:01:06.000  -2191132.9453   5198845.4259   2965370.8235   1  23   0.0007   0.0015   0.0006  -0.0007   0.0006  -0.0004   0.00  999.9
2020/06/05 08:01:07.000  -2191132.9453   5198845.4259   2965370.8235   1  23   0.0007   0.0015   0.0006  -0.0007   0.0006  -0.0004   0.00  999.9
2020/06/05 08:01:08.000  -2191132.9453   5198845.4259   2965370.8235   1  23   0.0007   0.0015   0.0006  -0.0007   0.0006  -0.0004   0.00  999.9
2020/06/05 08:01:09.000  -2191132.9453   5198845.4258   2965370.8235   1  23   0.0007   0.0015   0.0006  -0.0007   0.0006  -0.0004   0.00  999.9
2020/06/05 08:01:10.000  -2191132.9453   5198845.4258   2965370.8235   1  23   0.0007   0.0015   0.0006  -0.0007   0.0006  -0.0004   0.00  999.9
2020/06/05 08:01:11.000  -2191132.9453   5198845.4257   2965370.8235   1  23   0.0007   0.0015   0.0006  -0.0007   0.0006  -0.0004   0.00  999.9
2020/06/05 08:01:12.000  -2191132.9453   5198845.4257   2965370.8235   1  23   0.0007   0.0015   0.0006  -0.0007   0.0006  -0.0004   0.00  999.9
2020/06/05 08:01:13.000  -2191132.9453   5198845.4257   2965370.8234   1  23   0.0007   0.0014   0.0006  -0.0007   0.0006  -0.0004   0.00  999.9
2020/06/05 08:01:14.000  -2191132.9453   5198845.4256   2965370.8234   1  23   0.0007   0.0014   0.0006  -0.0007   0.0006  -0.0004   0.00  999.9
2020/06/05 08:01:15.000  -2191132.9452   5198845.4256   2965370.8234   1  23   0.0007   0.0014   0.0006  -0.0007   0.0006  -0.0004   0.00  999.9
2020/06/05 08:01:16.000  -2191132.9452   5198845.4256   2965370.8234   1  23   0.0007   0.0014   0.0006  -0.0007   0.0006  -0.0004   0.00  999.9
2020/06/05 08:01:17.000  -2191132.9452   5198845.4256   2965370.8234   1  23   0.0006   0.0014   0.0006  -0.0007   0.0006  -0.0004   0.00  999.9
2020/06/05 08:01:18.000  -2191132.9452   5198845.4256   2965370.8234   1  23   0.0006   0.0014   0.0006  -0.0007   0.0006  -0.0004   0.00  999.9
2020/06/05 08:01:19.000  -2191132.9452   5198845.4256   2965370.8234   1  23   0.0006   0.0014   0.0006  -0.0007   0.0006  -0.0004   0.00  999.9
2020/06/05 08:01:20.000  -2191132.9452   5198845.4256   2965370.8234   1  23   0.0006   0.0014   0.0006  -0.0007   0.0006  -0.0004   0.00  999.9
2020/06/05 08:01:21.000  -2191132.9452   5198845.4256   2965370.8234   1  23   0.0006   0.0014   0.0006  -0.0007   0.0006  -0.0004   0.00  999.9
2020/06/05 08:01:22.000  -2191132.9452   5198845.4255   2965370.8234   1  23   0.0006   0.0014   0.0006  -0.0007   0.0006  -0.0004   0.00  999.9
2020/06/05 08:01:23.000  -2191132.9452   5198845.4256   2965370.8234   1  23   0.0006   0.0014   0.0006  -0.0007   0.0006  -0.0004   0.00  999.9
2020/06/05 08:01:24.000  -2191132.9452   5198845.4256   2965370.8234   1  23   0.0006   0.0014   0.0006  -0.0007   0.0006  -0.0004   0.00  999.9
2020/06/05 08:01:25.000  -2191132.9452   5198845.4256   2965370.8234   1  23   0.0006   0.0014   0.0006  -0.0007   0.0006  -0.0004   0.00  999.9
2020/06/05 08:01:26.000  -2191132.9452   5198845.4256   2965370.8234   1  23   0.0006   0.0014   0.0006  -0.0007   0.0006  -0.0004   0.00  999.9
2020/06/05 08:01:27.000  -2191132.9452   5198845.4256   2965370.8234   1  23   0.0006   0.0014   0.0006  -0.0007   0.0006  -0.0004   0.00  999.9
2020/06/05 08:01:28.000  -2191132.9452   5198845.4256   2965370.8234   1  23   0.0006   0.0014   0.0006  -0.0007   0.0006  -0.0004   0.00  999.9
2020/06/05 08:01:29.000  -2191132.9452   5198845.4256   2965370.8234   1  23   0.0006   0.0014   0.0006  -0.0007   0.0006  -0.0004   0.00  999.9
2020/06/05 08:01:30.000  -2191132.9452   5198845.4255   2965370.8234   1  23   0.0006   0.0014   0.0006  -0.0007   0.0006  -0.0004   0.00  999.9
2020/06/05 08:01:31.000  -2191132.9451   5198845.4255   2965370.8233   1  23   0.0006   0.0014   0.0006  -0.0007   0.0006  -0.0004   0.00  999.9
2020/06/05 08:01:32.000  -2191132.9451   5198845.4255   2965370.8233   1  23   0.0006   0.0014   0.0006  -0.0007   0.0006  -0.0004   0.00  999.9
2020/06/05 08:01:33.000  -2191132.9451   5198845.4255   2965370.8233   1  23   0.0006   0.0014   0.0006  -0.0007   0.0006  -0.0004   0.00  999.9
2020/06/05 08:01:34.000  -2191132.9451   5198845.4254   2965370.8233   1  23   0.0006   0.0014   0.0006  -0.0007   0.0006  -0.0004   0.00  999.9
2020/06/05 08:01:35.000  -2191132.9451   5198845.4254   2965370.8233   1  23   0.0006   0.0013   0.0006  -0.0007   0.0006  -0.0004   0.00  999.9
2020/06/05 08:01:36.000  -2191132.9451   5198845.4254   2965370.8233   1  23   0.0006   0.0013   0.0006  -0.0007   0.0006  -0.0004   0.00  999.9
2020/06/05 08:01:37.000  -2191132.9451   5198845.4254   2965370.8233   1  23   0.0006   0.0013   0.0006  -0.0007   0.0006  -0.0004   0.00  999.9
2020/06/05 08:01:38.000  -2191132.9451   5198845.4253   2965370.8233   1  23   0.0006   0.0013   0.0006  -0.0007   0.0006  -0.0004   0.00  999.9
2020/06/05 08:01:39.000  -2191132.9451   5198845.4253   2965370.8233   1  23   0.0006   0.0013   0.0006  -0.0007   0.0006  -0.0004   0.00  999.9
2020/06/05 08:01:40.000  -2191132.9451   5198845.4253   2965370.8233   1  23   0.0006   0.0013   0.0006  -0.0007   0.0006  -0.0004   0.00  999.9
2020/06/05 08:01:41.000  -2191132.9451   5198845.4252   2965370.8233   1  23   0.0006   0.0013   0.0006  -0.0007   0.0006  -0.0004   0.00  999.9
2020/06/05 08:01:42.000  -2191132.9451   5198845.4252   2965370.8233   1  23   0.0006   0.0013   0.0006  -0.0007   0.0005  -0.0004   0.00  999.9
2020/06/05 08:01:43.000  -2191132.9450   5198845.4251   2965370.8232   1  23   0.0006   0.0013   0.0006  -0.0007   0.0005  -0.0004   0.00  999.9
2020/06/05 08:01:44.000  -2191132.9450   5198845.4251   2965370.8232   1  23   0.0006   0.0013   0.0006  -0.0007   0.0005  -0.0004   0.00  999.9
2020/06/05 08:01:45.000  -2191132.9450   5198845.4251   2965370.8232   1  23   0.0006   0.0013   0.0006  -0.0007   0.0005  -0.0004   0.00  999.9
2020/06/05 08:01:46.000  -2191132.9450   5198845.4251   2965370.8232   1  23   0.0006   0.0013   0.0006  -0.0007   0.0005  -0.0004   0.00  999.9
2020/06/05 08:01:47.000  -2191132.9450   5198845.4251   2965370.8232   1  23   0.0006   0.0013   0.0006  -0.0007   0.0005  -0.0004   0.00  999.9
2020/06/05 08:01:48.000  -2191132.9450   5198845.4251   2965370.8232   1  22   0.0006   0.0013   0.0006  -0.0007   0.0005  -0.0004   0.00  999.9
2020/06/05 08:01:49.000  -2191132.9450   5198845.4250   2965370.8232   1  23   0.0006   0.0013   0.0006  -0.0007   0.0005  -0.0004   0.00  999.9
2020/06/05 08:01:50.000  -2191132.9450   5198845.4250   2965370.8231   1  23   0.0006   0.0013   0.0006  -0.0006   0.0005  -0.0004   0.00  999.9
2020/06/05 08:01:51.000  -2191132.9450   5198845.4250   2965370.8231   1  23   0.0006   0.0013   0.0006  -0.0006   0.0005  -0.0004   0.00  999.9
2020/06/05 08:01:52.000  -2191132.9450   5198845.4249   2965370.8231   1  23   0.0006   0.0013   0.0006  -0.0006   0.0005  -0.0003   0.00  999.9
2020/06/05 08:01:53.000  -2191132.9450   5198845.4249   2965370.8231   1  23   0.0006   0.0013   0.0006  -0.0006   0.0005  -0.0003   0.00  999.9
2020/06/05 08:01:54.000  -2191132.9450   5198845.4249   2965370.8231   1  23   0.0006   0.0013   0.0006  -0.0006   0.0005  -0.0003   0.00  999.9
2020/06/05 08:01:55.000  -2191132.9450   5198845.4249   2965370.8231   1  23   0.0006   0.0013   0.0006  -0.0006   0.0005  -0.0003   0.00  999.9
2020/06/05 08:01:56.000  -2191132.9450   5198845.4249   2965370.8231   1  23   0.0006   0.0013   0.0005  -0.0006   0.0005  -0.0003   0.00  999.9
2020/06/05 08:01:57.000  -2191132.9450   5198845.4248   2965370.8231   1  23   0.0006   0.0013   0.0005  -0.0006   0.0005  -0.0003   0.00  999.9
2020/06/05 08:01:58.000  -2191132.9450   5198845.4248   2965370.8231   1  23   0.0006   0.0013   0.0005  -0.0006   0.0005  -0.0003   0.00  999.9
2020/06/05 08:01:59.000  -2191132.9450   5198845.4248   2965370.8231   1  23   0.0006   0.0013   0.0005  -0.0006   0.0005  -0.0003   0.00  999.9
2020/06/05 08:02:00.000  -2191132.9450   5198845.4248   2965370.8231   1  23   0.0006   0.0013   0.0005  -0.0006   0.0005  -0.0003   0.00  999.9
2020/06/05 08:02:01.000  -2191132.9449   5198845.4248   2965370.8231   1  23   0.0006   0.0013   0.0005  -0.0006   0.0005  -0.0003   0.00  999.9
2020/06/05 08:02:02.000  -2191132.9449   5198845.4248   2965370.8231   1  23   0.0006   0.0012   0.0005  -0.0006   0.0005  -0.0003   0.00  999.9
2020/06/05 08:02:03.000  -2191132.9449   5198845.4248   2965370.8230   1  23   0.0006   0.0012   0.0005  -0.0006   0.0005  -0.0003   0.00  999.9
2020/06/05 08:02:04.000  -2191132.9449   5198845.4248   2965370.8230   1  23   0.0006   0.0012   0.0005  -0.0006   0.0005  -0.0003   0.00  999.9
2020/06/05 08:02:05.000  -2191132.9449   5198845.4248   2965370.8231   1  23   0.0006   0.0012   0.0005  -0.0006   0.0005  -0.0003   0.00  999.9
2020/06/05 08:02:06.000  -2191132.9449   5198845.4247   2965370.8230   1  23   0.0006   0.0012   0.0005  -0.0006   0.0005  -0.0003   0.00  999.9
2020/06/05 08:02:07.000  -2191132.9449   5198845.4247   2965370.8231   1  23   0.0006   0.0012   0.0005  -0.0006   0.0005  -0.0003   0.00  999.9
2020/06/05 08:02:08.000  -2191132.9449   5198845.4247   2965370.8230   1  23   0.0006   0.0012   0.0005  -0.0006   0.0005  -0.0003   0.00  999.9
2020/06/05 08:02:09.000  -2191132.9449   5198845.4247   2965370.8230   1  23   0.0006   0.0012   0.0005  -0.0006   0.0005  -0.0003   0.00  999.9
2020/06/05 08:02:10.000  -2191132.9449   5198845.4246   2965370.8230   1  23   0.0006   0.0012   0.0005  -0.0006   0.0005  -0.0003   0.00  999.9
2020/06/05 08:02:11.000  -2191132.9449   5198845.4246   2965370.8230   1  23   0.0006   0.0012   0.0005  -0.0006   0.0005  -0.0003   0.00  999.9
2020/06/05 08:02:12.000  -2191132.9449   5198845.4246   2965370.8230   1  23   0.0006   0.0012   0.0005  -0.0006   0.0005  -0.0003   0.00  999.9
2020/06/05 08:02:13.000  -2191132.9449   5198845.4246   2965370.8230   1  23   0.0006   0.0012   0.0005  -0.0006   0.0005  -0.0003   0.00  999.9
2020/06/05 08:02:14.000  -2191132.9449   5198845.4246   2965370.8230   1  23   0.0006   0.0012   0.0005  -0.0006   0.0005  -0.0003   0.00  999.9
2020/06/05 08:02:15.000  -2191132.9449   5198845.4246   2965370.8230   1  23   0.0005   0.0012   0.0005  -0.0006   0.0005  -0.0003   0.00  999.9
2020/06/05 08:02:16.000  -2191132.9449   5198845.4246   2965370.8230   1  23   0.0005   0.0012   0.0005  -0.0006   0.0005  -0.0003   0.00  999.9
2020/06/05 08:02:17.000  -2191132.9449   5198845.4246   2965370.8231   1  23   0.0005   0.0012   0.0005  -0.0006   0.0005  -0.0003   0.00  999.9
2020/06/05 08:02:18.000  -2191132.9449   5198845.4246   2965370.8230   1  23   0.0005   0.0012   0.0005  -0.0006   0.0005  -0.0003   0.00  999.9
2020/06/05 08:02:19.000  -2191132.9449   5198845.4246   2965370.8230   1  23   0.0005   0.0012   0.0005  -0.0006   0.0005  -0.0003   0.00  999.9
2020/06/05 08:02:20.000  -2191132.9449   5198845.4246   2965370.8230   1  23   0.0005   0.0012   0.0005  -0.0006   0.0005  -0.0003   0.00  999.9
2020/06/05 08:02:21.000  -2191132.9448   5198845.4246   2965370.8230   1  23   0.0005   0.0012   0.0005  -0.0006   0.0005  -0.0003   0.00  999.9
2020/06/05 08:02:22.000  -2191132.9448   5198845.4246   2965370.8230   1  23   0.0005   0.0012   0.0005  -0.0006   0.0005  -0.0003   0.00  999.9
2020/06/05 08:02:23.000  -2191132.9448   5198845.4245   2965370.8230   1  23   0.0005   0.0012   0.0005  -0.0006   0.0005  -0.0003   0.00  999.9
2020/06/05 08:02:24.000  -2191132.9448   5198845.4245   2965370.8230   1  23   0.0005   0.0012   0.0005  -0.0006   0.0005  -0.0003   0.00  999.9
2020/06/05 08:02:25.000  -2191132.9448   5198845.4245   2965370.8230   1  23   0.0005   0.0012   0.0005  -0.0006   0.0005  -0.0003   0.00  999.9
2020/06/05 08:02:26.000  -2191132.9448   5198845.4245   2965370.8230   1  23   0.0005   0.0012   0.0005  -0.0006   0.0005  -0.0003   0.00  999.9
2020/06/05 08:02:27.000  -2191132.9448   5198845.4246   2965370.8230   1  23   0.0005   0.0012   0.0005  -0.0006   0.0005  -0.0003   0.00  999.9
2020/06/05 08:02:28.000  -2191132.9448   5198845.4246   2965370.8230   1  23   0.0005   0.0012   0.0005  -0.0006   0.0005  -0.0003   0.00  999.9
2020/06/05 08:02:29.000  -2191132.9448   5198845.4246   2965370.8230   1  23   0.0005   0.0012   0.0005  -0.0006   0.0005  -0.0003   0.00  999.9
2020/06/05 08:02:30.000  -2191132.9448   5198845.4246   2965370.8231   1  23   0.0005   0.0012   0.0005  -0.0006   0.0005  -0.0003   0.00  999.9
2020/06/05 08:02:31.000  -2191132.9448   5198845.4246   2965370.8231   1  23   0.0005   0.0012   0.0005  -0.0006   0.0005  -0.0003   0.00  999.9
2020/06/05 08:02:32.000  -2191132.9448   5198845.4246   2965370.8231   1  23   0.0005   0.0012   0.0005  -0.0006   0.0005  -0.0003   0.00  999.9
2020/06/05 08:02:33.000  -2191132.9448   5198845.4246   2965370.8231   1  23   0.0005   0.0012   0.0005  -0.0006   0.0005  -0.0003   0.00  999.9
2020/06/05 08:02:34.000  -2191132.9447   5198845.4246   2965370.8231   1  23   0.0005   0.0012   0.0005  -0.0006   0.0005  -0.0003   0.00  999.9
2020/06/05 08:02:35.000  -2191132.9448   5198845.4246   2965370.8231   1  23   0.0005   0.0012   0.0005  -0.0006   0.0005  -0.0003   0.00  999.9
2020/06/05 08:02:36.000  -2191132.9447   5198845.4246   2965370.8231   1  23   0.0005   0.0012   0.0005  -0.0006   0.0005  -0.0003   0.00  999.9
2020/06/05 08:02:37.000  -2191132.9447   5198845.4246   2965370.8231   1  23   0.0005   0.0011   0.0005  -0.0006   0.0005  -0.0003   0.00  999.9
2020/06/05 08:02:38.000  -2191132.9447   5198845.4246   2965370.8231   1  23   0.0005   0.0011   0.0005  -0.0006   0.0005  -0.0003   0.00  999.9
2020/06/05 08:02:39.000  -2191132.9447   5198845.4247   2965370.8231   1  23   0.0005   0.0011   0.0005  -0.0006   0.0005  -0.0003   0.00  999.9
2020/06/05 08:02:40.000  -2191132.9447   5198845.4246   2965370.8231   1  23   0.0005   0.0011   0.0005  -0.0006   0.0005  -0.0003   0.00  999.9
2020/06/05 08:02:41.000  -2191132.9447   5198845.4246   2965370.8231   1  23   0.0005   0.0011   0.0005  -0.0006   0.0005  -0.0003   0.00  999.9
2020/06/05 08:02:42.000  -2191132.9447   5198845.4247   2965370.8231   1  23   0.0005   0.0011   0.0005  -0.0006   0.0005  -0.0003   0.00  999.9
2020/06/05 08:02:43.000  -2191132.9447   5198845.4247   2965370.8231   1  23   0.0005   0.0011   0.0005  -0.0006   0.0005  -0.0003   0.00  999.9
2020/06/05 08:02:44.000  -2191132.9447   5198845.4247   2965370.8231   1  23   0.0005   0.0011   0.0005  -0.0006   0.0005  -0.0003   0.00  999.9
2020/06/05 08:02:45.000  -2191132.9447   5198845.4247   2965370.8232   1  23   0.0005   0.0011   0.0005  -0.0006   0.0005  -0.0003   0.00  999.9
2020/06/05 08:02:46.000  -2191132.9447   5198845.4247   2965370.8232   1  23   0.0005   0.0011   0.0005  -0.0006   0.0005  -0.0003   0.00  999.9
2020/06/05 08:02:47.000  -2191132.9447   5198845.4247   2965370.8232   1  23   0.0005   0.0011   0.0005  -0.0006   0.0005  -0.0003   0.00  999.9
2020/06/05 08:02:48.000  -2191132.9446   5198845.4247   2965370.8232   1  23   0.0005   0.0011   0.0005  -0.0006   0.0005  -0.0003   0.00  999.9
2020/06/05 08:02:49.000  -2191132.9446   5198845.4247   2965370.8232   1  23   0.0005   0.0011   0.0005  -0.0006   0.0005  -0.0003   0.00  999.9
2020/06/05 08:02:50.000  -2191132.9446   5198845.4247   2965370.8232   1  23   0.0005   0.0011   0.0005  -0.0006   0.0005  -0.0003   0.00  999.9
2020/06/05 08:02:51.000  -2191132.9446   5198845.4247   2965370.8232   1  23   0.0005   0.0011   0.0005  -0.0006   0.0005  -0.0003   0.00  999.9
2020/06/05 08:02:52.000  -2191132.9446   5198845.4247   2965370.8232   1  23   0.0005   0.0011   0.0005  -0.0006   0.0005  -0.0003   0.00  999.9
2020/06/05 08:02:53.000  -2191132.9446   5198845.4247   2965370.8232   1  23   0.0005   0.0011   0.0005  -0.0006   0.0005  -0.0003   0.00  999.9
2020/06/05 08:02:54.000  -2191132.9446   5198845.4247   2965370.8232   1  23   0.0005   0.0011   0.0005  -0.0006   0.0005  -0.0003   0.00  999.9
2020/06/05 08:02:55.000  -2191132.9446   5198845.4247   2965370.8232   1  23   0.0005   0.0011   0.0005  -0.0006   0.0005  -0.0003   0.00  999.9
2020/06/05 08:02:56.000  -2191132.9445   5198845.4247   2965370.8232   1  23   0.0005   0.0011   0.0005  -0.0006   0.0005  -0.0003   0.00  999.9
2020/06/05 08:02:57.000  -2191132.9445   5198845.4247   2965370.8232   1  23   0.0005   0.0011   0.0005  -0.0006   0.0005  -0.0003   0.00  999.9
2020/06/05 08:02:58.000  -2191132.9445   5198845.4247   2965370.8232   1  23   0.0005   0.0011   0.0005  -0.0006   0.0005  -0.0003   0.00  999.9
2020/06/05 08:02:59.000  -2191132.9445   5198845.4246   2965370.8232   1  23   0.0005   0.0011   0.0005  -0.0006   0.0005  -0.0003   0.00  999.9
2020/06/05 08:03:00.000  -2191132.9445   5198845.4246   2965370.8232   1  23   0.0005   0.0011   0.0005  -0.0006   0.0005  -0.0003   0.00  999.9
2020/06/05 08:03:01.000  -2191132.9445   5198845.4246   2965370.8232   1  23   0.0005   0.0011   0.0005  -0.0006   0.0005  -0.0003   0.00  999.9
2020/06/05 08:03:02.000  -2191132.9445   5198845.4246   2965370.8232   1  23   0.0005   0.0011   0.0005  -0.0005   0.0005  -0.0003   0.00  999.9
2020/06/05 08:03:03.000  -2191132.9445   5198845.4246   2965370.8232   1  23   0.0005   0.0011   0.0005  -0.0005   0.0005  -0.0003   0.00  999.9
2020/06/05 08:03:04.000  -2191132.9445   5198845.4247   2965370.8232   1  23   0.0005   0.0011   0.0005  -0.0005   0.0005  -0.0003   0.00  999.9
2020/06/05 08:03:05.000  -2191132.9445   5198845.4247   2965370.8232   1  23   0.0005   0.0011   0.0005  -0.0005   0.0005  -0.0003   0.00  999.9
2020/06/05 08:03:06.000  -2191132.9445   5198845.4246   2965370.8232   1  23   0.0005   0.0011   0.0005  -0.0005   0.0005  -0.0003   0.00  999.9
2020/06/05 08:03:07.000  -2191132.9444   5198845.4246   2965370.8232   1  23   0.0005   0.0011   0.0005  -0.0005   0.0005  -0.0003   0.00  999.9
2020/06/05 08:03:08.000  -2191132.9444   5198845.4246   2965370.8232   1  23   0.0005   0.0011   0.0005  -0.0005   0.0004  -0.0003   0.00  999.9
2020/06/05 08:03:09.000  -2191132.9444   5198845.4246   2965370.8232   1  23   0.0005   0.0011   0.0005  -0.0005   0.0004  -0.0003   0.00  999.9
2020/06/05 08:03:10.000  -2191132.9444   5198845.4246   2965370.8232   1  23   0.0005   0.0011   0.0005  -0.0005   0.0004  -0.0003   0.00  999.9
2020/06/05 08:03:11.000  -2191132.9444   5198845.4246   2965370.8232   1  23   0.0005   0.0011   0.0005  -0.0005   0.0004  -0.0003   0.00  999.9
2020/06/05 08:03:12.000  -2191132.9444   5198845.4246   2965370.8232   1  23   0.0005   0.0011   0.0005  -0.0005   0.0004  -0.0003   0.00  999.9
2020/06/05 08:03:13.000  -2191132.9444   5198845.4245   2965370.8232   1  23   0.0005   0.0011   0.0005  -0.0005   0.0004  -0.0003   0.00  999.9
2020/06/05 08:03:14.000  -2191132.9444   5198845.4245   2965370.8232   1  23   0.0005   0.0011   0.0005  -0.0005   0.0004  -0.0003   0.00  999.9
2020/06/05 08:03:15.000  -2191132.9444   5198845.4245   2965370.8232   1  23   0.0005   0.0011   0.0005  -0.0005   0.0004  -0.0003   0.00  999.9
2020/06/05 08:03:16.000  -2191132.9444   5198845.4245   2965370.8232   1  23   0.0005   0.0011   0.0005  -0.0005   0.0004  -0.0003   0.00  999.9
2020/06/05 08:03:17.000  -2191132.9444   5198845.4245   2965370.8232   1  23   0.0005   0.0011   0.0005  -0.0005   0.0004  -0.0003   0.00  999.9
2020/06/05 08:03:18.000  -2191132.9444   5198845.4245   2965370.8232   1  23   0.0005   0.0011   0.0005  -0.0005   0.0004  -0.0003   0.00  999.9
2020/06/05 08:03:19.000  -2191132.9444   5198845.4245   2965370.8232   1  23   0.0005   0.0011   0.0005  -0.0005   0.0004  -0.0003   0.00  999.9
2020/06/05 08:03:20.000  -2191132.9444   5198845.4245   2965370.8232   1  23   0.0005   0.0011   0.0005  -0.0005   0.0004  -0.0003   0.00  999.9
2020/06/05 08:03:21.000  -2191132.9444   5198845.4245   2965370.8232   1  23   0.0005   0.0011   0.0005  -0.0005   0.0004  -0.0003   0.00  999.9
2020/06/05 08:03:22.000  -2191132.9444   5198845.4245   2965370.8231   1  23   0.0005   0.0011   0.0005  -0.0005   0.0004  -0.0003   0.00  999.9
2020/06/05 08:03:23.000  -2191132.9443   5198845.4245   2965370.8231   1  23   0.0005   0.0011   0.0005  -0.0005   0.0004  -0.0003   0.00  999.9
2020/06/05 08:03:24.000  -2191132.9443   5198845.4245   2965370.8231   1  23   0.0005   0.0010   0.0005  -0.0005   0.0004  -0.0003   0.00  999.9
2020/06/05 08:03:25.000  -2191132.9443   5198845.4245   2965370.8231   1  23   0.0005   0.0010   0.0005  -0.0005   0.0004  -0.0003   0.00  999.9
2020/06/05 08:03:26.000  -2191132.9443   5198845.4245   2965370.8231   1  23   0.0005   0.0010   0.0005  -0.0005   0.0004  -0.0003   0.00  999.9
2020/06/05 08:03:27.000  -2191132.9443   5198845.4245   2965370.8231   1  23   0.0005   0.0010   0.0005  -0.0005   0.0004  -0.0003   0.00  999.9
2020/06/05 08:03:28.000  -2191132.9443   5198845.4245   2965370.8231   1  23   0.0005   0.0010   0.0005  -0.0005   0.0004  -0.0003   0.00  999.9
2020/06/05 08:03:29.000  -2191132.9443   5198845.4245   2965370.8231   1  23   0.0005   0.0010   0.0005  -0.0005   0.0004  -0.0003   0.00  999.9
2020/06/05 08:03:30.000  -2191132.9443   5198845.4245   2965370.8231   1  23   0.0005   0.0010   0.0005  -0.0005   0.0004  -0.0003   0.00  999.9
2020/06/05 08:03:31.000  -2191132.9443   5198845.4245   2965370.8231   1  23   0.0005   0.0010   0.0005  -0.0005   0.0004  -0.0003   0.00  999.9
2020/06/05 08:03:32.000  -2191132.9443   5198845.4246   2965370.8231   1  23   0.0005   0.0010   0.0005  -0.0005   0.0004  -0.0003   0.00  999.9
2020/06/05 08:03:33.000  -2191132.9443   5198845.4246   2965370.8231   1  23   0.0005   0.0010   0.0005  -0.0005   0.0004  -0.0003   0.00  999.9
2020/06/05 08:03:34.000  -2191132.9443   5198845.4246   2965370.8231   1  22   0.0005   0.0010   0.0005  -0.0005   0.0004  -0.0003   0.00  999.9
2020/06/05 08:03:35.000  -2191132.9443   5198845.4246   2965370.8231   1  23   0.0005   0.0010   0.0005  -0.0005   0.0004  -0.0003   0.00  999.9
2020/06/05 08:03:36.000  -2191132.9443   5198845.4246   2965370.8231   1  23   0.0005   0.0010   0.0004  -0.0005   0.0004  -0.0003   0.00  999.9
2020/06/05 08:03:37.000  -2191132.9443   5198845.4246   2965370.8231   1  23   0.0005   0.0010   0.0004  -0.0005   0.0004  -0.0003   0.00  999.9
2020/06/05 08:03:38.000  -2191132.9443   5198845.4246   2965370.8231   1  23   0.0005   0.0010   0.0004  -0.0005   0.0004  -0.0003   0.00  999.9
2020/06/05 08:03:39.000  -2191132.9443   5198845.4246   2965370.8232   1  22   0.0005   0.0010   0.0004  -0.0005   0.0004  -0.0003   0.00  999.9
2020/06/05 08:03:40.000  -2191132.9443   5198845.4246   2965370.8231   1  23   0.0005   0.0010   0.0004  -0.0005   0.0004  -0.0003   0.00  999.9
2020/06/05 08:03:41.000  -2191132.9443   5198845.4246   2965370.8231   1  23   0.0005   0.0010   0.0004  -0.0005   0.0004  -0.0003   0.00  999.9
2020/06/05 08:03:42.000  -2191132.9442   5198845.4246   2965370.8232   1  23   0.0005   0.0010   0.0004  -0.0005   0.0004  -0.0003   0.00  999.9
2020/06/05 08:03:43.000  -2191132.9442   5198845.4246   2965370.8232   1  23   0.0005   0.0010   0.0004  -0.0005   0.0004  -0.0003   0.00  999.9
2020/06/05 08:03:44.000  -2191132.9442   5198845.4247   2965370.8232   1  23   0.0005   0.0010   0.0004  -0.0005   0.0004  -0.0003   0.00  999.9
2020/06/05 08:03:45.000  -2191132.9442   5198845.4247   2965370.8232   1  23   0.0005   0.0010   0.0004  -0.0005   0.0004  -0.0003   0.00  999.9
2020/06/05 08:03:46.000  -2191132.9442   5198845.4246   2965370.8232   1  23   0.0005   0.0010   0.0004  -0.0005   0.0004  -0.0003   0.00  999.9
2020/06/05 08:03:47.000  -2191132.9442   5198845.4247   2965370.8232   1  23   0.0005   0.0010   0.0004  -0.0005   0.0004  -0.0003   0.00  999.9
2020/06/05 08:03:48.000  -2191132.9442   5198845.4247   2965370.8232   1  23   0.0005   0.0010   0.0004  -0.0005   0.0004  -0.0003   0.00  999.9
2020/06/05 08:03:49.000  -2191132.9442   5198845.4247   2965370.8232   1  23   0.0005   0.0010   0.0004  -0.0005   0.0004  -0.0003   0.00  999.9
2020/06/05 08:03:50.000  -2191132.9442   5198845.4247   2965370.8232   1  23   0.0005   0.0010   0.0004  -0.0005   0.0004  -0.0003   0.00  999.9
2020/06/05 08:03:51.000  -2191132.9442   5198845.4247   2965370.8232   1  23   0.0005   0.0010   0.0004  -0.0005   0.0004  -0.0003   0.00  999.9
2020/06/05 08:03:52.000  -2191132.9442   5198845.4247   2965370.8232   1  23   0.0005   0.0010   0.0004  -0.0005   0.0004  -0.0003   0.00  999.9
2020/06/05 08:03:53.000  -2191132.9442   5198845.4247   2965370.8232   1  23   0.0005   0.0010   0.0004  -0.0005   0.0004  -0.0003   0.00  999.9
2020/06/05 08:03:54.000  -2191132.9442   5198845.4247   2965370.8232   1  23   0.0005   0.0010   0.0004  -0.0005   0.0004  -0.0003   0.00  999.9
2020/06/05 08:03:55.000  -2191132.9442   5198845.4247   2965370.8232   1  23   0.0005   0.0010   0.0004  -0.0005   0.0004  -0.0003   0.00  999.9
2020/06/05 08:03:56.000  -2191132.9442   5198845.4247   2965370.8232   1  23   0.0005   0.0010   0.0004  -0.0005   0.0004  -0.0003   0.00  999.9
2020/06/05 08:03:57.000  -2191132.9442   5198845.4247   2965370.8232   1  23   0.0005   0.0010   0.0004  -0.0005   0.0004  -0.0003   0.00  999.9
2020/06/05 08:03:58.000  -2191132.9442   5198845.4247   2965370.8232   1  23   0.0005   0.0010   0.0004  -0.0005   0.0004  -0.0003   0.00  999.9
2020/06/05 08:03:59.000  -2191132.9442   5198845.4247   2965370.8232   1  23   0.0005   0.0010   0.0004  -0.0005   0.0004  -0.0003   0.00  999.9
2020/06/05 08:04:00.000  -2191132.9441   5198845.4247   2965370.8232   1  23   0.0004   0.0010   0.0004  -0.0005   0.0004  -0.0003   0.00  999.9
2020/06/05 08:04:01.000  -2191132.9441   5198845.4247   2965370.8232   1  23   0.0004   0.0010   0.0004  -0.0005   0.0004  -0.0003   0.00  999.9
2020/06/05 08:04:02.000  -2191132.9441   5198845.4247   2965370.8232   1  23   0.0004   0.0010   0.0004  -0.0005   0.0004  -0.0003   0.00  999.9
2020/06/05 08:04:03.000  -2191132.9441   5198845.4247   2965370.8232   1  23   0.0004   0.0010   0.0004  -0.0005   0.0004  -0.0003   0.00  999.9
2020/06/05 08:04:04.000  -2191132.9441   5198845.4247   2965370.8232   1  23   0.0004   0.0010   0.0004  -0.0005   0.0004  -0.0003   0.00  999.9
2020/06/05 08:04:05.000  -2191132.9441   5198845.4248   2965370.8232   1  23   0.0004   0.0010   0.0004  -0.0005   0.0004  -0.0003   0.00  999.9
2020/06/05 08:04:06.000  -2191132.9441   5198845.4248   2965370.8233   1  23   0.0004   0.0010   0.0004  -0.0005   0.0004  -0.0003   0.00  999.9
2020/06/05 08:04:07.000  -2191132.9441   5198845.4248   2965370.8233   1  23   0.0004   0.0010   0.0004  -0.0005   0.0004  -0.0003   0.00  999.9
2020/06/05 08:04:08.000  -2191132.9441   5198845.4248   2965370.8233   1  23   0.0004   0.0010   0.0004  -0.0005   0.0004  -0.0003   0.00  999.9
2020/06/05 08:04:09.000  -2191132.9442   5198845.4248   2965370.8233   1  23   0.0004   0.0010   0.0004  -0.0005   0.0004  -0.0003   0.00  999.9
2020/06/05 08:04:10.000  -2191132.9442   5198845.4248   2965370.8233   1  23   0.0004   0.0010   0.0004  -0.0005   0.0004  -0.0003   0.00  999.9
2020/06/05 08:04:11.000  -2191132.9441   5198845.4248   2965370.8233   1  23   0.0004   0.0010   0.0004  -0.0005   0.0004  -0.0003   0.00  999.9
2020/06/05 08:04:12.000  -2191132.9441   5198845.4248   2965370.8233   1  23   0.0004   0.0010   0.0004  -0.0005   0.0004  -0.0003   0.00  999.9
2020/06/05 08:04:13.000  -2191132.9441   5198845.4248   2965370.8233   1  23   0.0004   0.0010   0.0004  -0.0005   0.0004  -0.0003   0.00  999.9
2020/06/05 08:04:14.000  -2191132.9441   5198845.4248   2965370.8233   1  23   0.0004   0.0010   0.0004  -0.0005   0.0004  -0.0003   0.00  999.9
2020/06/05 08:04:15.000  -2191132.9441   5198845.4248   2965370.8233   1  23   0.0004   0.0010   0.0004  -0.0005   0.0004  -0.0003   0.00  999.9
2020/06/05 08:04:16.000  -2191132.9441   5198845.4248   2965370.8233   1  23   0.0004   0.0010   0.0004  -0.0005   0.0004  -0.0003   0.00  999.9
2020/06/05 08:04:17.000  -2191132.9441   5198845.4248   2965370.8233   1  23   0.0004   0.0010   0.0004  -0.0005   0.0004  -0.0003   0.00  999.9
2020/06/05 08:04:18.000  -2191132.9441   5198845.4248   2965370.8233   1  23   0.0004   0.0010   0.0004  -0.0005   0.0004  -0.0003   0.00  999.9
2020/06/05 08:04:19.000  -2191132.9441   5198845.4248   2965370.8233   1  23   0.0004   0.0010   0.0004  -0.0005   0.0004  -0.0003   0.00  999.9
2020/06/05 08:04:20.000  -2191132.9441   5198845.4248   2965370.8233   1  23   0.0004   0.0010   0.0004  -0.0005   0.0004  -0.0003   0.00  999.9
2020/06/05 08:04:21.000  -2191132.9441   5198845.4248   2965370.8233   1  23   0.0004   0.0010   0.0004  -0.0005   0.0004  -0.0003   0.00  999.9
2020/06/05 08:04:22.000  -2191132.9441   5198845.4248   2965370.8233   1  23   0.0004   0.0010   0.0004  -0.0005   0.0004  -0.0003   0.00  999.9
2020/06/05 08:04:23.000  -2191132.9441   5198845.4248   2965370.8233   1  23   0.0004   0.0010   0.0004  -0.0005   0.0004  -0.0003   0.00  999.9
2020/06/05 08:04:24.000  -2191132.9441   5198845.4248   2965370.8233   1  23   0.0004   0.0010   0.0004  -0.0005   0.0004  -0.0003   0.00  999.9
2020/06/05 08:04:25.000  -2191132.9441   5198845.4248   2965370.8233   1  23   0.0004   0.0010   0.0004  -0.0005   0.0004  -0.0003   0.00  999.9
2020/06/05 08:04:26.000  -2191132.9441   5198845.4247   2965370.8233   1  23   0.0004   0.0010   0.0004  -0.0005   0.0004  -0.0003   0.00  999.9
2020/06/05 08:04:27.000  -2191132.9441   5198845.4247   2965370.8233   1  23   0.0004   0.0010   0.0004  -0.0005   0.0004  -0.0003   0.00  999.9
2020/06/05 08:04:28.000  -2191132.9441   5198845.4247   2965370.8233   1  23   0.0004   0.0009   0.0004  -0.0005   0.0004  -0.0003   0.00  999.9
2020/06/05 08:04:29.000  -2191132.9440   5198845.4247   2965370.8233   1  23   0.0004   0.0009   0.0004  -0.0005   0.0004  -0.0003   0.00  999.9
2020/06/05 08:04:30.000  -2191132.9440   5198845.4247   2965370.8233   1  23   0.0004   0.0009   0.0004  -0.0005   0.0004  -0.0003   0.00  999.9
2020/06/05 08:04:31.000  -2191132.9440   5198845.4247   2965370.8233   1  23   0.0004   0.0009   0.0004  -0.0005   0.0004  -0.0003   0.00  999.9
2020/06/05 08:04:32.000  -2191132.9440   5198845.4247   2965370.8233   1  23   0.0004   0.0009   0.0004  -0.0005   0.0004  -0.0003   0.00  999.9
2020/06/05 08:04:33.000  -2191132.9440   5198845.4247   2965370.8233   1  23   0.0004   0.0009   0.0004  -0.0005   0.0004  -0.0003   0.00  999.9
2020/06/05 08:04:34.000  -2191132.9440   5198845.4247   2965370.8233   1  23   0.0004   0.0009   0.0004  -0.0005   0.0004  -0.0003   0.00  999.9
2020/06/05 08:04:35.000  -2191132.9440   5198845.4247   2965370.8233   1  23   0.0004   0.0009   0.0004  -0.0005   0.0004  -0.0003   0.00  999.9
2020/06/05 08:04:36.000  -2191132.9440   5198845.4247   2965370.8233   1  23   0.0004   0.0009   0.0004  -0.0005   0.0004  -0.0003   0.00  999.9
2020/06/05 08:04:37.000  -2191132.9440   5198845.4247   2965370.8233   1  23   0.0004   0.0009   0.0004  -0.0005   0.0004  -0.0003   0.00  999.9
2020/06/05 08:04:38.000  -2191132.9440   5198845.4247   2965370.8233   1  23   0.0004   0.0009   0.0004  -0.0005   0.0004  -0.0003   0.00  999.9
2020/06/05 08:04:39.000  -2191132.9440   5198845.4247   2965370.8233   1  23   0.0004   0.0009   0.0004  -0.0005   0.0004  -0.0003   0.00  999.9
2020/06/05 08:04:40.000  -2191132.9440   5198845.4248   2965370.8233   1  23   0.0004   0.0009   0.0004  -0.0005   0.0004  -0.0003   0.00  999.9
2020/06/05 08:04:41.000  -2191132.9440   5198845.4248   2965370.8233   1  23   0.0004   0.0009   0.0004  -0.0005   0.0004  -0.0003   0.00  999.9
2020/06/05 08:04:42.000  -2191132.9440   5198845.4248   2965370.8233   1  23   0.0004   0.0009   0.0004  -0.0005   0.0004  -0.0003   0.00  999.9
2020/06/05 08:04:43.000  -2191132.9440   5198845.4248   2965370.8233   1  22   0.0004   0.0009   0.0004  -0.0005   0.0004  -0.0003   0.00  999.9
2020/06/05 08:04:44.000  -2191132.9440   5198845.4248   2965370.8233   1  22   0.0004   0.0009   0.0004  -0.0005   0.0004  -0.0003   0.00  999.9
2020/06/05 08:04:45.000  -2191132.9440   5198845.4248   2965370.8233   1  22   0.0004   0.0009   0.0004  -0.0005   0.0004  -0.0003   0.00  999.9
2020/06/05 08:04:46.000  -2191132.9440   5198845.4248   2965370.8233   1  22   0.0004   0.0009   0.0004  -0.0005   0.0004  -0.0003   0.00  999.9
2020/06/05 08:04:47.000  -2191132.9440   5198845.4248   2965370.8233   1  22   0.0004   0.0009   0.0004  -0.0005   0.0004  -0.0003   0.00  999.9
2020/06/05 08:04:48.000  -2191132.9440   5198845.4248   2965370.8233   1  22   0.0004   0.0009   0.0004  -0.0005   0.0004  -0.0003   0.00  999.9
2020/06/05 08:04:49.000  -2191132.9440   5198845.4248   2965370.8233   1  22   0.0004   0.0009   0.0004  -0.0005   0.0004  -0.0003   0.00  999.9
2020/06/05 08:04:50.000  -2191132.9440   5198845.4248   2965370.8233   1  22   0.0004   0.0009   0.0004  -0.0005   0.0004  -0.0003   0.00  999.9
2020/06/05 08:04:51.000  -2191132.9440   5198845.4248   2965370.8233   1  22   0.0004   0.0009   0.0004  -0.0005   0.0004  -0.0003   0.00  999.9
2020/06/05 08:04:52.000  -2191132.9440   5198845.4248   2965370.8233   1  22   0.0004   0.0009   0.0004  -0.0005   0.0004  -0.0003   0.00  999.9
2020/06/05 08:04:53.000  -2191132.9439   5198845.4248   2965370.8233   1  22   0.0004   0.0009   0.0004  -0.0005   0.0004  -0.0003   0.00  999.9
2020/06/05 08:04:54.000  -2191132.9439   5198845.4248   2965370.8233   1  22   0.0004   0.0009   0.0004  -0.0005   0.0004  -0.0003   0.00  999.9
2020/06/05 08:04:55.000  -2191132.9439   5198845.4248   2965370.8233   1  22   0.0004   0.0009   0.0004  -0.0005   0.0004  -0.0003   0.00  999.9
2020/06/05 08:04:56.000  -2191132.9439   5198845.4248   2965370.8233   1  22   0.0004   0.0009   0.0004  -0.0005   0.0004  -0.0003   0.00  999.9
2020/06/05 08:04:57.000  -2191132.9439   5198845.4248   2965370.8233   1  22   0.0004   0.0009   0.0004  -0.0005   0.0004  -0.0003   0.00  999.9
2020/06/05 08:04:58.000  -2191132.9439   5198845.4248   2965370.8233   1  22   0.0004   0.0009   0.0004  -0.0005   0.0004  -0.0003   0.00  999.9
2020/06/05 08:04:59.000  -2191132.9439   5198845.4248   2965370.8233   1  22   0.0004   0.0009   0.0004  -0.0005   0.0004  -0.0002   0.00  999.9
2020/06/05 08:05:00.000  -2191132.9439   5198845.4248   2965370.8233   1  22   0.0004   0.0009   0.0004  -0.0005   0.0004  -0.0002   0.00  999.9
2020/06/05 08:05:01.000  -2191132.9440   5198845.4249   2965370.8233   1  22   0.0004   0.0009   0.0004  -0.0005   0.0004  -0.0002   0.00  999.9
2020/06/05 08:05:02.000  -2191132.9440   5198845.4249   2965370.8233   1  22   0.0004   0.0009   0.0004  -0.0005   0.0004  -0.0002   0.00  999.9
2020/06/05 08:05:03.000  -2191132.9440   5198845.4249   2965370.8233   1  22   0.0004   0.0009   0.0004  -0.0005   0.0004  -0.0002   0.00  999.9
2020/06/05 08:05:04.000  -2191132.9440   5198845.4249   2965370.8233   1  22   0.0004   0.0009   0.0004  -0.0005   0.0004  -0.0002   0.00  999.9
2020/06/05 08:05:05.000  -2191132.9440   5198845.4249   2965370.8233   1  22   0.0004   0.0009   0.0004  -0.0005   0.0004  -0.0002   0.00  999.9
2020/06/05 08:05:06.000  -2191132.9440   5198845.4249   2965370.8233   1  22   0.0004   0.0009   0.0004  -0.0005   0.0004  -0.0002   0.00  999.9
2020/06/05 08:05:07.000  -2191132.9440   5198845.4249   2965370.8233   1  22   0.0004   0.0009   0.0004  -0.0005   0.0004  -0.0002   0.00  999.9
2020/06/05 08:05:08.000  -2191132.9440   5198845.4249   2965370.8233   1  22   0.0004   0.0009   0.0004  -0.0005   0.0004  -0.0002   0.00  999.9
2020/06/05 08:05:09.000  -2191132.9440   5198845.4249   2965370.8233   1  21   0.0004   0.0009   0.0004  -0.0005   0.0004  -0.0002   0.00  999.9
2020/06/05 08:05:10.000  -2191132.9440   5198845.4249   2965370.8233   1  22   0.0004   0.0009   0.0004  -0.0005   0.0004  -0.0002   0.00  999.9
2020/06/05 08:05:11.000  -2191132.9440   5198845.4249   2965370.8233   1  22   0.0004   0.0009   0.0004  -0.0005   0.0004  -0.0002   0.00  999.9
2020/06/05 08:05:12.000  -2191132.9440   5198845.4249   2965370.8233   1  22   0.0004   0.0009   0.0004  -0.0005   0.0004  -0.0002   0.00  999.9
2020/06/05 08:05:13.000  -2191132.9440   5198845.4250   2965370.8233   1  22   0.0004   0.0009   0.0004  -0.0005   0.0004  -0.0002   0.00  999.9
2020/06/05 08:05:14.000  -2191132.9440   5198845.4250   2965370.8233   1  22   0.0004   0.0009   0.0004  -0.0005   0.0004  -0.0002   0.00  999.9
2020/06/05 08:05:15.000  -2191132.9440   5198845.4250   2965370.8233   1  22   0.0004   0.0009   0.0004  -0.0004   0.0004  -0.0002   0.00  999.9
2020/06/05 08:05:16.000  -2191132.9440   5198845.4250   2965370.8233   1  22   0.0004   0.0009   0.0004  -0.0004   0.0004  -0.0002   0.00  999.9
2020/06/05 08:05:17.000  -2191132.9440   5198845.4250   2965370.8233   1  22   0.0004   0.0009   0.0004  -0.0004   0.0004  -0.0002   0.00  999.9
2020/06/05 08:05:18.000  -2191132.9440   5198845.4250   2965370.8233   1  22   0.0004   0.0009   0.0004  -0.0004   0.0004  -0.0002   0.00  999.9
2020/06/05 08:05:19.000  -2191132.9440   5198845.4250   2965370.8233   1  22   0.0004   0.0009   0.0004  -0.0004   0.0004  -0.0002   0.00  999.9
2020/06/05 08:05:20.000  -2191132.9440   5198845.4250   2965370.8233   1  22   0.0004   0.0009   0.0004  -0.0004   0.0004  -0.0002   0.00  999.9
2020/06/05 08:05:21.000  -2191132.9440   5198845.4250   2965370.8233   1  22   0.0004   0.0009   0.0004  -0.0004   0.0004  -0.0002   0.00  999.9
2020/06/05 08:05:22.000  -2191132.9440   5198845.4250   2965370.8233   1  22   0.0004   0.0009   0.0004  -0.0004   0.0004  -0.0002   0.00  999.9
2020/06/05 08:05:23.000  -2191132.9441   5198845.4250   2965370.8233   1  22   0.0004   0.0009   0.0004  -0.0004   0.0004  -0.0002   0.00  999.9
2020/06/05 08:05:24.000  -2191132.9441   5198845.4250   2965370.8233   1  22   0.0004   0.0009   0.0004  -0.0004   0.0004  -0.0002   0.00  999.9
2020/06/05 08:05:25.000  -2191132.9441   5198845.4250   2965370.8233   1  22   0.0004   0.0009   0.0004  -0.0004   0.0004  -0.0002   0.00  999.9
2020/06/05 08:05:26.000  -2191132.9441   5198845.4250   2965370.8233   1  22   0.0004   0.0009   0.0004  -0.0004   0.0004  -0.0002   0.00  999.9
2020/06/05 08:05:27.000  -2191132.9441   5198845.4250   2965370.8233   1  22   0.0004   0.0009   0.0004  -0.0004   0.0004  -0.0002   0.00  999.9
2020/06/05 08:05:28.000  -2191132.9441   5198845.4250   2965370.8233   1  22   0.0004   0.0009   0.0004  -0.0004   0.0004  -0.0002   0.00  999.9
2020/06/05 08:05:29.000  -2191132.9441   5198845.4250   2965370.8233   1  22   0.0004   0.0009   0.0004  -0.0004   0.0004  -0.0002   0.00  999.9
2020/06/05 08:05:30.000  -2191132.9441   5198845.4250   2965370.8233   1  22   0.0004   0.0009   0.0004  -0.0004   0.0004  -0.0002   0.00  999.9
2020/06/05 08:05:31.000  -2191132.9441   5198845.4250   2965370.8233   1  22   0.0004   0.0009   0.0004  -0.0004   0.0004  -0.0002   0.00  999.9
2020/06/05 08:05:32.000  -2191132.9441   5198845.4251   2965370.8233   1  22   0.0004   0.0009   0.0004  -0.0004   0.0004  -0.0002   0.00  999.9
2020/06/05 08:05:33.000  -2191132.9441   5198845.4250   2965370.8233   1  22   0.0004   0.0009   0.0004  -0.0004   0.0004  -0.0002   0.00  999.9
2020/06/05 08:05:34.000  -2191132.9441   5198845.4250   2965370.8233   1  22   0.0004   0.0009   0.0004  -0.0004   0.0004  -0.0002   0.00  999.9
2020/06/05 08:05:35.000  -2191132.9441   5198845.4251   2965370.8233   1  22   0.0004   0.0009   0.0004  -0.0004   0.0004  -0.0002   0.00  999.9
2020/06/05 08:05:36.000  -2191132.9442   5198845.4251   2965370.8233   1  22   0.0004   0.0009   0.0004  -0.0004   0.0004  -0.0002   0.00  999.9
2020/06/05 08:05:37.000  -2191132.9442   5198845.4251   2965370.8233   1  22   0.0004   0.0009   0.0004  -0.0004   0.0004  -0.0002   0.00  999.9
2020/06/05 08:05:38.000  -2191132.9442   5198845.4251   2965370.8233   1  22   0.0004   0.0009   0.0004  -0.0004   0.0004  -0.0002   0.00  999.9
2020/06/05 08:05:39.000  -2191132.9442   5198845.4251   2965370.8233   1  22   0.0004   0.0009   0.0004  -0.0004   0.0004  -0.0002   0.00  999.9
2020/06/05 08:05:40.000  -2191132.9442   5198845.4251   2965370.8233   1  22   0.0004   0.0009   0.0004  -0.0004   0.0004  -0.0002   0.00  999.9
2020/06/05 08:05:41.000  -2191132.9442   5198845.4251   2965370.8233   1  22   0.0004   0.0009   0.0004  -0.0004   0.0004  -0.0002   0.00  999.9
2020/06/05 08:05:42.000  -2191132.9442   5198845.4252   2965370.8233   1  22   0.0004   0.0009   0.0004  -0.0004   0.0004  -0.0002   0.00  999.9
2020/06/05 08:05:43.000  -2191132.9442   5198845.4252   2965370.8233   1  22   0.0004   0.0009   0.0004  -0.0004   0.0004  -0.0002   0.00  999.9
