     3.02           OBSERVATION DATA    M: Mixed            RINEX VERSION / TYPE
RTKCONV 2.4.3 b33                       20200605 120353 UTC PGM / RUN BY / DATE 
log: C:\Users\204\Desktop\test\²âÊÔÊý¾Ý\rov_202006050758.l  COMMENT             
format: u-blox                                              COMMENT             
                                                            MARKER NAME         
                                                            MARKER NUMBER       
                                                            MARKER TYPE         
                                                            OBSERVER / AGENCY   
                                                            REC # / TYPE / VERS 
                                                            ANT # / TYPE        
 -2191136.5054  5198848.9224  2965379.7135                  APPROX POSITION XYZ 
        0.0000        0.0000        0.0000                  ANTENNA: DELTA H/E/N
G    4 C1C L1C D1C S1C                                      SYS / # / OBS TYPES 
C    4 C1I L1I D1I S1I                                      SYS / # / OBS TYPES 
  2020     6     5     7    58   57.9990000     GPS         TIME OF FIRST OBS   
  2020     6     5     8    27   57.9990000     GPS         TIME OF LAST OBS    
G                                                           SYS / PHASE SHIFT   
C                                                           SYS / PHASE SHIFT   
  0                                                         GLONASS SLOT / FRQ #
 C1C    0.000 C1P    0.000 C2C    0.000 C2P    0.000        GLONASS COD/PHS/BIS 
                                                            END OF HEADER       
> 2020  6  5  7 58 57.9990000  0 27                     
G 2  22611030.919   118821779.724        2205.078          44.000  
G 3  25025405.772   131509406.814       -2342.623          32.000  
G 6  20972143.865   110209363.685        1068.714          47.000  
G17  20889219.244   109773579.862        1033.894          46.000  
G19  20398956.720   107197236.212        1754.077          47.000  
C 2  37168117.171   193544139.740        1227.207          40.000  
G28  21866165.129   114907446.916       -1703.149          42.000  
G 4  24244418.537   127405283.734        1664.333          41.000  
G 9  23426912.115   123109299.578        2974.176          39.000  
C 1  37595011.026   195767087.049        1179.787          43.000  
C27  24377542.410   126940268.613        3115.943          41.000  
C 3  36131713.821   188147313.859        1194.868          45.000  
C 4  38513607.083   200550456.383        1177.448          40.000  
C10  36167873.011   188335589.354         288.674          43.000  
C13  36707075.595   191143378.914         909.790          44.000  
C14  23130922.778   120448785.687        -197.553          46.000  
C23  25997106.419   135373751.339       -1376.363          37.000  
C28  22227948.680   115746762.006        1692.109          49.000  
G12  23806587.304   125104461.393        4208.472          39.000  
G 5  23877516.908   125477144.769        4865.711          37.000  
G23  23553815.124   123776153.002        3109.351          40.000  
C 7  36978459.724   192556536.167        -110.725          42.000  
C 8  36690437.301   191056731.452         771.229          44.000  
C16  40625080.952   211545448.354        2584.915          35.000  
C 5  39184507.909   204044015.296        1215.691          37.000  
C11  25859285.315   134656051.169        -524.388          37.000  
C 6  39832767.095   207419668.042        2560.979          34.000  
> 2020  6  5  7 58 58.9990000  0 27                     
G 2  22610611.329   118819574.616        2204.598          44.000  
G 3  25025851.625   131511749.209       -2342.788          32.000  
G 6  20971940.395   110208294.882        1068.387          47.000  
G17  20889022.423   109772546.128        1033.181          46.000  
G19  20398622.897   107195482.247        1753.497          47.000  
C 2  37167881.314   193542912.765        1226.572          40.000  
G28  21866489.215   114909150.038       -1703.406          42.000  
G 4  24244102.095   127403619.639        1663.472          41.000  
G 9  23426346.222   123106325.319        2974.030          39.000  
C 1  37594784.557   195765907.080        1179.656          43.000  
C27  24376944.076   126937152.572        3115.874          41.000  
C 3  36131484.246   188146119.050        1194.540          45.000  
C 4  38513381.120   200549279.148        1176.862          40.000  
C10  36167817.571   188335300.679         288.076          43.000  
C13  36706900.936   191142469.267         909.487          44.000  
C14  23130960.768   120448983.423        -198.306          46.000  
C23  25997370.650   135375127.294       -1376.257          37.000  
C28  22227623.530   115745069.896        1691.692          49.000  
G12  23805786.374   125100253.183        4208.079          39.000  
G 5  23876591.017   125472278.967        4865.392          37.000  
G23  23553223.370   123773043.478        3108.734          40.000  
C 7  36978480.891   192556646.915        -110.973          42.000  
C 8  36690289.428   191055960.340         770.671          44.000  
C16  40624584.092   211542863.386        2584.799          35.000  
C 5  39184274.443   204042799.449        1215.156          37.000  
C11  25859386.037   134656576.015        -525.063          37.000  
C 6  39832275.452   207417107.122        2560.504          34.000  
> 2020  6  5  7 58 59.9990000  0 27                     
G 2  22610191.913   118817370.053        2204.349          44.000  
G 3  25026297.496   131514092.092       -2342.654          32.000  
G 6  20971736.978   110207226.701        1067.928          47.000  
G17  20888825.968   109771513.120        1032.624          46.000  
G19  20398289.301   107193729.029        1753.015          47.000  
C 2  37167645.928   193541686.193        1226.553          40.000  
G28  21866813.248   114910853.912       -1704.239          42.000  
G 4  24243785.758   127401956.445        1662.757          41.000  
G 9  23425780.172   123103351.810        2973.376          38.000  
C 1  37594557.792   195764727.541        1179.325          43.000  
C27  24376345.778   126934036.913        3115.499          41.000  
C 3  36131254.811   188144924.661        1194.170          45.000  
C 4  38513155.227   200548102.302        1176.959          40.000  
C10  36167762.376   188335012.576         287.910          43.000  
C13  36706726.102   191141560.029         909.279          44.000  
C14  23130998.687   120449182.077        -198.989          45.000  
C23  25997634.934   135376503.537       -1376.150          37.000  
C28  22227298.502   115743378.301        1691.543          49.000  
G12  23804985.880   125096045.798        4207.074          39.000  
G 5  23875665.562   125467413.739        4864.871          37.000  
G23  23552631.738   123769934.503        3108.838          40.000  
C 7  36978502.389   192556758.195        -111.635          42.000  
C 8  36690141.520   191055189.553         770.821          44.000  
C16  40624087.825   211540278.737        2584.470          35.000  
C 5  39184040.871   204041583.970        1215.750          37.000  
C11  25859486.952   134657101.395        -525.838          37.000  
C 6  39831783.810   207414546.477        2560.956          34.000  
> 2020  6  5  7 59  0.9990000  0 27                     
G 2  22609772.410   118815165.607        2204.071          44.000  
G 3  25026743.227   131516435.058       -2342.178          32.000  
G 6  20971533.858   110206158.664        1067.926          47.000  
G17  20888629.444   109770480.386        1032.539          46.000  
G19  20397955.810   107191976.098        1752.740          47.000  
C 2  37167410.437   193540459.598        1226.508          40.000  
G28  21867137.700   114912558.094       -1704.372          42.000  
G 4  24243469.560   127400293.681        1662.524          41.000  
G 9  23425214.366   123100378.551        2973.071          38.000  
C 1  37594331.270   195763547.946        1179.679          43.000  
C27  24375747.253   126930921.185        3115.616          41.000  
C 3  36131025.724   188143730.225        1194.445          44.000  
C 4  38512929.247   200546925.441        1177.008          40.000  
C10  36167707.094   188334724.597         287.762          43.000  
C13  36706551.356   191140650.712         909.271          44.000  
C14  23131037.130   120449381.182        -199.317          46.000  
C23  25997899.200   135377879.609       -1376.359          37.000  
C28  22226973.771   115741686.795        1691.355          49.000  
G12  23804185.282   125091838.693        4207.228          39.000  
G 5  23874740.072   125462548.651        4864.434          37.000  
G23  23552040.158   123766825.669        3108.673          40.000  
C 7  36978523.487   192556869.543        -111.455          42.000  
C 8  36689993.594   191054418.705         770.877          44.000  
C16  40623591.593   211537693.908        2584.835          35.000  
C 5  39183807.527   204040368.513        1215.406          37.000  
C11  25859587.814   134657626.842        -525.870          37.000  
C 6  39831292.080   207411985.753        2560.908          34.000  
> 2020  6  5  7 59  1.9990000  0 27                     
G 2  22609352.749   118812961.344        2204.166          44.000  
G 3  25027189.115   131518778.203       -2342.928          33.000  
G 6  20971330.720   110205090.899        1067.543          47.000  
G17  20888432.954   109769448.032        1031.884          46.000  
G19  20397622.267   107190223.562        1752.222          47.000  
C 2  37167174.894   193539233.066        1226.718          40.000  
G28  21867461.855   114914262.676       -1704.991          42.000  
G 4  24243153.152   127398631.465        1661.716          41.000  
G 9  23424648.525   123097405.666        2972.833          38.000  
C 1  37594104.662   195762368.434        1179.588          43.000  
C27  24375148.990   126927805.478        3115.773          41.000  
C 3  36130796.184   188142535.889        1194.163          45.000  
C 4  38512703.249   200545748.666        1176.404          40.000  
C10  36167651.882   188334436.837         287.446          43.000  
C13  36706377.028   191139741.493         909.115          44.000  
C14  23131075.450   120449580.866        -200.198          46.000  
C23  25998163.431   135379255.600       -1376.295          37.000  
C28  22226649.075   115739995.455        1691.122          49.000  
G12  23803384.596   125087632.071        4206.458          39.000  
G 5  23873814.286   125457683.755        4864.435          37.000  
G23  23551448.596   123763717.064        3108.289          41.000  
C 7  36978544.846   192556981.076        -111.821          42.000  
C 8  36689845.547   191053647.862         770.638          44.000  
C16  40623095.065   211535109.072        2584.519          35.000  
C 5  39183574.026   204039153.102        1215.439          37.000  
C11  25859688.851   134658152.468        -526.000          37.000  
C 6  39830800.263   207409424.983        2560.749          34.000  
> 2020  6  5  7 59  2.9990000  0 27                     
G 2  22608933.333   118810757.233        2204.180          44.000  
G 3  25027634.950   131521121.466       -2342.553          32.000  
G 6  20971127.582   110204023.323        1067.614          47.000  
G17  20888236.535   109768415.987        1032.131          46.000  
G19  20397288.846   107188471.344        1752.350          47.000  
C 2  37166939.368   193538006.555        1226.533          40.000  
G28  21867786.429   114915967.582       -1704.803          42.000  
G 4  24242836.989   127396969.719        1661.533          41.000  
G 9  23424082.737   123094433.095        2972.369          38.000  
C 1  37593878.036   195761188.931        1179.646          43.000  
C27  24374550.901   126924689.761        3115.741          41.000  
C 3  36130566.888   188141341.547        1194.406          45.000  
C 4  38512477.234   200544571.867        1177.118          40.000  
C10  36167596.460   188334149.220         287.743          43.000  
C13  36706202.351   191138832.247         909.456          44.000  
C14  23131113.771   120449781.021        -200.261          46.000  
C23  25998427.627   135380631.436       -1375.637          37.000  
C28  22226324.431   115738304.216        1691.375          49.000  
G12  23802584.015   125083425.748        4206.250          39.000  
G 5  23872888.744   125452819.045        4864.632          37.000  
G23  23550857.278   123760608.623        3108.124          41.000  
C 7  36978566.344   192557092.697        -111.370          42.000  
C 8  36689697.464   191052876.949         771.185          44.000  
C16  40622598.501   211532524.093        2585.462          35.000  
C 5  39183340.716   204037937.715        1215.559          37.000  
C11  25859789.853   134658678.222        -525.606          37.000  
C 6  39830308.516   207406864.101        2561.417          34.000  
> 2020  6  5  7 59  3.9990000  0 27                     
G 2  22608513.848   118808553.298        2203.804          44.000  
G 3  25028080.838   131523464.894       -2343.329          33.000  
G 6  20970924.566   110202955.979        1067.170          47.000  
G17  20888040.045   109767384.316        1031.427          46.000  
G19  20396955.442   107186719.513        1751.422          47.000  
C 2  37166703.703   193536780.085        1226.311          40.000  
G28  21868111.055   114917672.882       -1705.595          42.000  
G 4  24242520.826   127395308.499        1660.662          41.000  
G 9  23423516.861   123091460.835        2972.003          38.000  
C 1  37593651.427   195760009.482        1179.318          43.000  
C27  24373952.533   126921574.036        3115.790          41.000  
C 3  36130337.662   188140147.263        1194.116          45.000  
C 4  38512251.393   200543395.137        1176.556          40.000  
C10  36167541.265   188333861.843         287.189          43.000  
C13  36706028.076   191137923.031         908.903          44.000  
C14  23131152.249   120449981.728        -201.039          46.000  
C23  25998691.667   135382007.189       -1376.052          37.000  
C28  22225999.526   115736613.145        1690.948          49.000  
G12  23801783.748   125079219.874        4205.565          39.000  
G 5  23871963.289   125447954.534        4864.356          37.000  
G23  23550265.802   123757500.343        3108.398          41.000  
C 7  36978587.738   192557204.509        -112.182          42.000  
C 8  36689549.259   191052106.053         770.824          44.000  
C16  40622101.938   211529939.095        2584.518          35.000  
C 5  39183107.267   204036722.354        1215.442          37.000  
C11  25859890.733   134659204.167        -526.280          37.000  
C 6  39829816.734   207404303.205        2561.077          34.000  
> 2020  6  5  7 59  4.9990000  0 27                     
G 2  22608094.309   118806349.765        2203.340          44.000  
G 3  25028526.761   131525808.687       -2343.935          32.000  
G 6  20970721.376   110201889.107        1066.744          47.000  
G17  20887843.765   109766353.227        1030.741          46.000  
G19  20396622.300   107184968.273        1750.909          47.000  
C 2  37166468.230   193535553.873        1226.099          40.000  
G28  21868435.682   114919378.783       -1706.338          42.000  
G 4  24242204.768   127393648.000        1660.414          41.000  
G 9  23422951.370   123088489.159        2971.173          38.000  
C 1  37593425.011   195758830.306        1179.121          43.000  
C27  24373354.305   126918458.555        3115.288          41.000  
C 3  36130108.401   188138953.254        1193.743          45.000  
C 4  38512025.256   200542218.680        1176.172          40.000  
C10  36167486.227   188333574.890         286.721          43.000  
C13  36705853.574   191137014.081         908.743          44.000  
C14  23131191.076   120450183.204        -201.834          46.000  
C23  25998955.793   135383383.067       -1375.828          37.000  
C28  22225674.951   115734922.462        1690.429          49.000  
G12  23800983.656   125075014.605        4205.351          39.000  
G 5  23871037.293   125443090.441        4864.177          37.000  
G23  23549674.258   123754392.541        3107.678          40.000  
C 7  36978609.237   192557316.692        -112.542          42.000  
C 8  36689401.369   191051335.378         770.597          44.000  
C16  40621605.671   211527354.219        2584.847          35.000  
C 5  39182873.993   204035507.308        1214.734          37.000  
C11  25859992.066   134659730.487        -526.646          37.000  
C 6  39829324.882   207401742.472        2560.762          34.000  
> 2020  6  5  7 59  5.9990000  0 27                     
G 2  22607675.050   118804146.420        2203.670          44.000  
G 3  25028972.649   131528152.597       -2344.071          33.000  
G 6  20970518.587   110200822.459        1066.682          47.000  
G17  20887647.764   109765322.480        1030.887          46.000  
G19  20396288.913   107183217.383        1751.001          47.000  
C 2  37166232.774   193534327.734        1226.071          40.000  
G28  21868760.186   114921085.049       -1706.276          42.000  
G 4  24241888.727   127391988.036        1659.810          41.000  
G 9  23422385.773   123085517.816        2971.149          38.000  
C 1  37593198.804   195757651.170        1179.119          43.000  
C27  24372755.972   126915343.079        3115.718          41.000  
C 3  36129879.123   188137759.281        1194.221          45.000  
C 4  38511799.310   200541042.259        1176.477          40.000  
C10  36167431.189   188333288.094         287.156          43.000  
C13  36705679.072   191136105.154         909.008          44.000  
C14  23131229.763   120450385.189        -201.846          46.000  
C23  25999219.797   135384758.858       -1375.811          37.000  
C28  22225350.343   115733231.906        1690.674          49.000  
G12  23800183.511   125070809.744        4205.090          39.000  
G 5  23870111.594   125438226.542        4864.443          37.000  
G23  23549082.852   123751284.908        3107.935          40.000  
C 7  36978630.683   192557429.005        -112.137          42.000  
C 8  36689253.217   191050564.697         770.756          44.000  
C16  40621108.846   211524769.273        2585.014          35.000  
C 5  39182640.788   204034292.274        1215.212          37.000  
C11  25860093.242   134660256.972        -526.753          37.000  
C 6  39828833.327   207399181.701        2560.866          34.000  
> 2020  6  5  7 59  6.9990000  0 27                     
G 2  22607255.722   118801943.276        2203.180          44.000  
G 3  25029418.921   131530496.665       -2343.729          33.000  
G 6  20970315.658   110199756.081        1066.073          47.000  
G17  20887451.781   109764292.132        1030.136          46.000  
G19  20395955.823   107181466.898        1750.183          47.000  
C 2  37165997.301   193533101.634        1226.019          40.000  
G28  21869084.865   114922791.724       -1706.960          42.000  
G 4  24241572.599   127390328.609        1659.050          41.000  
G 9  23421820.456   123082546.839        2970.447          38.000  
C 1  37592972.474   195756472.100        1178.803          43.000  
C27  24372157.674   126912227.635        3115.233          41.000  
C 3  36129649.914   188136565.390        1193.644          45.000  
C 4  38511573.452   200539865.919        1176.208          40.000  
C10  36167376.133   188333001.572         286.371          43.000  
C13  36705504.674   191135196.308         908.692          44.000  
C14  23131268.712   120450587.761        -202.975          46.000  
C23  25999483.854   135386134.557       -1376.187          37.000  
C28  22225025.681   115731541.525        1690.289          49.000  
G12  23799383.279   125066605.306        4204.372          39.000  
G 5  23869185.877   125433362.919        4863.255          37.000  
G23  23548491.604   123748177.521        3107.129          40.000  
C 7  36978652.409   192557541.517        -112.591          42.000  
C 8  36689105.204   191049794.031         770.448          44.000  
C16  40620612.405   211522184.301        2584.697          35.000  
C 5  39182407.147   204033077.311        1214.750          37.000  
C11  25860194.401   134660783.651        -527.201          37.000  
C 6  39828341.632   207396620.886        2560.512          34.000  
> 2020  6  5  7 59  7.9990000  0 27                     
G 2  22606836.480   118799740.324        2202.787          44.000  
G 3  25029865.140   131532840.923       -2344.763          33.000  
G 6  20970112.555   110198689.940        1065.935          47.000  
G17  20887255.745   109763262.143        1029.807          46.000  
G19  20395622.751   107179716.790        1749.841          47.000  
C 2  37165761.845   193531875.601        1226.113          40.000  
G28  21869409.753   114924498.792       -1707.279          42.000  
G 4  24241256.820   127388669.702        1658.682          41.000  
G 9  23421255.208   123079576.215        2970.331          38.000  
C 1  37592746.075   195755293.086        1179.058          43.000  
C27  24371559.323   126909112.213        3115.394          41.000  
C 3  36129420.758   188135371.561        1193.647          45.000  
C 4  38511347.734   200538689.648        1176.044          40.000  
C10  36167321.235   188332715.239         286.239          43.000  
C13  36705330.102   191134287.497         908.857          44.000  
C14  23131307.765   120450790.877        -203.599          46.000  
C23  25999747.911   135387510.159       -1375.430          37.000  
C28  22224701.055   115729851.314        1690.202          49.000  
G12  23798583.239   125062401.310        4203.953          39.000  
G 5  23868260.213   125428499.432        4863.274          37.000  
G23  23547900.565   123745070.372        3106.665          40.000  
C 7  36978674.117   192557654.185        -112.834          42.000  
C 8  36688957.226   191049023.360         770.597          44.000  
C16  40620116.016   211519599.252        2585.007          35.000  
C 5  39182173.750   204031862.400        1215.115          37.000  
C11  25860295.717   134661310.486        -526.887          37.000  
C 6  39827849.763   207394060.007        2560.846          34.000  
> 2020  6  5  7 59  8.9990000  0 27                     
G 2  22606417.466   118797537.513        2202.644          44.000  
G 3  25030311.081   131535185.267       -2344.325          33.000  
G 6  20969909.731   110197623.992        1065.762          47.000  
G17  20887059.709   109762232.468        1029.423          46.000  
G19  20395289.696   107177966.995        1749.536          47.000  
C 2  37165526.407   193530649.593        1225.858          40.000  
G28  21869734.397   114926206.188       -1707.707          42.000  
G 4  24240941.215   127387011.268        1658.273          41.000  
G 9  23420689.944   123076605.902        2969.916          38.000  
C 1  37592519.763   195754114.076        1179.109          43.000  
C27  24370960.903   126905996.751        3115.368          41.000  
C 3  36129191.235   188134177.728        1193.701          45.000  
C 4  38511121.788   200537513.360        1176.178          40.000  
C10  36167266.459   188332429.074         286.072          43.000  
C13  36705155.635   191133378.710         908.639          44.000  
C14  23131346.766   120450994.467        -203.909          46.000  
C23  26000012.020   135388885.654       -1375.959          37.000  
C28  22224376.393   115728161.219        1690.040          49.000  
G12  23797783.024   125058197.678        4203.097          39.000  
G 5  23867334.758   125423636.139        4863.198          37.000  
G23  23547309.177   123741963.319        3106.842          40.000  
C 7  36978695.755   192557766.983        -113.021          42.000  
C 8  36688809.021   191048252.645         770.680          44.000  
C16  40619619.627   211517014.117        2584.536          35.000  
C 5  39181940.424   204030647.522        1214.840          37.000  
C11  25860396.824   134661837.463        -527.372          38.000  
C 6  39827357.807   207391499.040        2561.110          34.000  
> 2020  6  5  7 59  9.9990000  0 27                     
G 2  22605998.364   118795334.773        2202.176          44.000  
G 3  25030757.318   131537529.664       -2345.116          33.000  
G 6  20969707.047   110196558.164        1065.594          47.000  
G17  20886863.726   109761203.040        1029.068          46.000  
G19  20394956.798   107176217.462        1749.188          47.000  
C 2  37165290.759   193529423.499        1225.879          40.000  
G28  21870059.477   114927913.841       -1707.911          42.000  
G 4  24240625.785   127385353.251        1657.568          41.000  
G 9  23420124.557   123073635.797        2969.910          38.000  
C 1  37592293.364   195752935.017        1178.730          43.000  
C27  24370362.500   126902881.174        3115.727          41.000  
C 3  36128961.974   188132983.841        1193.643          45.000  
C 4  38510896.035   200536337.034        1176.007          40.000  
C10  36167211.246   188332142.981         285.615          43.000  
C13  36704981.098   191132469.807         908.534          44.000  
C14  23131386.047   120451198.492        -204.469          46.000  
C23  26000276.164   135390260.923       -1375.824          37.000  
C28  22224051.837   115726471.164        1689.717          49.000  
G12  23796982.635   125053994.294        4202.964          39.000  
G 5  23866409.303   125418772.952        4862.612          37.000  
G23  23546718.086   123738856.402        3106.653          40.000  
C 7  36978717.411   192557879.798        -113.107          42.000  
C 8  36688660.974   191047481.818         770.442          44.000  
C16  40619123.482   211514428.756        2585.197          35.000  
C 5  39181707.114   204029432.537        1214.645          37.000  
C11  25860497.965   134662364.462        -527.260          38.000  
C 6  39826866.007   207388937.943        2561.120          34.000  
> 2020  6  5  7 59 10.9990000  0 27                     
G 2  22605579.192   118793132.110        2203.165          44.000  
G 3  25031203.450   131539874.060       -2343.228          33.000  
G 6  20969503.926   110195492.498        1066.259          47.000  
G17  20886667.830   109760173.886        1029.584          46.000  
G19  20394624.040   107174468.227        1749.622          47.000  
C 2  37165055.390   193528197.400        1226.608          40.000  
G28  21870384.540   114929621.808       -1707.550          42.000  
G 4  24240310.250   127383695.678        1657.739          41.000  
G 9  23419559.431   123070666.005        2969.702          38.000  
C 1  37592066.808   195751755.898        1179.689          43.000  
C27  24369764.254   126899765.555        3116.378          41.000  
C 3  36128732.853   188131789.933        1194.470          45.000  
C 4  38510670.089   200535160.667        1177.039          40.000  
C10  36167156.313   188331857.028         286.326          43.000  
C13  36704806.229   191131560.874         909.413          44.000  
C14  23131425.362   120451402.977        -204.237          45.000  
C23  26000540.517   135391635.992       -1374.496          37.000  
C28  22223727.455   115724781.177        1690.358          49.000  
G12  23796182.874   125049791.271        4203.606          39.000  
G 5  23865483.761   125413909.852        4863.472          37.000  
G23  23546126.855   123735749.604        3106.903          40.000  
C 7  36978739.049   192557992.700        -112.226          42.000  
C 8  36688512.978   191046710.880         771.547          44.000  
C16  40618627.058   211511843.283        2586.093          35.000  
C 5  39181473.822   204028217.587        1215.542          37.000  
C11  25860599.159   134662891.585        -526.449          38.000  
C 6  39826374.120   207386376.718        2561.714          34.000  
> 2020  6  5  7 59 11.9990000  0 27                     
G 2  22605159.968   118790929.485        2202.344          44.000  
G 3  25031649.408   131542218.528       -2344.907          32.000  
G 6  20969301.294   110194426.916        1065.209          47.000  
G17  20886472.091   109759144.931        1028.502          46.000  
G19  20394291.300   107172719.188        1748.657          47.000  
C 2  37164820.004   193526971.171        1225.950          40.000  
G28  21870709.585   114931329.981       -1708.598          42.000  
G 4  24239994.872   127382038.447        1656.855          40.000  
G 9  23418994.341   123067696.338        2969.513          38.000  
C 1  37591840.287   195750576.680        1178.961          43.000  
C27  24369165.956   126896649.774        3115.750          41.000  
C 3  36128503.505   188130595.909        1193.813          45.000  
C 4  38510444.022   200533984.169        1176.147          40.000  
C10  36167101.345   188331571.093         285.760          43.000  
C13  36704631.675   191130651.797         908.947          44.000  
C14  23131464.782   120451607.842        -205.306          45.000  
C23  26000804.417   135393010.813       -1374.966          37.000  
C28  22223402.985   115723091.181        1689.803          49.000  
G12  23795382.816   125045588.497        4202.131          39.000  
G 5  23864558.184   125409046.796        4862.506          37.000  
G23  23545535.729   123732642.823        3106.512          41.000  
C 7  36978760.792   192558105.581        -113.180          42.000  
C 8  36688364.826   191045939.796         770.815          44.000  
C16  40618130.670   211509257.562        2585.601          35.000  
C 5  39181240.548   204027002.494        1214.551          37.000  
C11  25860700.370   134663418.699        -527.434          38.000  
C 6  39825882.007   207383815.271        2561.295          34.000  
> 2020  6  5  7 59 12.9990000  0 27                     
G 2  22604740.639   118788727.135        2201.651          44.000  
G 3  25032095.488   131544563.191       -2345.414          33.000  
G 6  20969098.558   110193361.645        1064.803          47.000  
G17  20886276.247   109758116.412        1027.968          46.000  
G19  20393958.524   107170970.610        1747.760          47.000  
C 2  37164584.531   193525745.085        1225.481          40.000  
G28  21871034.892   114933038.614       -1709.479          42.000  
G 4  24239679.512   127380381.838        1655.767          40.000  
G 9  23418429.407   123064727.146        2968.377          38.000  
C 1  37591613.870   195749397.608        1178.440          43.000  
C27  24368567.588   126893534.111        3115.264          41.000  
C 3  36128274.314   188129402.021        1193.457          45.000  
C 4  38510217.937   200532807.830        1175.885          40.000  
C10  36167046.481   188331285.474         285.081          43.000  
C13  36704456.980   191129742.838         908.534          44.000  
C14  23131504.167   120451813.327        -206.137          45.000  
C23  26001068.683   135394385.642       -1375.555          37.000  
C28  22223078.289   115721401.438        1689.061          49.000  
G12  23794583.125   125041386.196        4201.657          38.000  
G 5  23863632.590   125404184.026        4862.288          37.000  
G23  23544944.638   123729536.343        3105.859          40.000  
C 7  36978782.448   192558218.729        -113.816          42.000  
C 8  36688216.743   191045168.776         770.443          44.000  
C16  40617634.298   211506671.891        2585.286          35.000  
C 5  39181007.221   204025787.534        1214.268          37.000  
C11  25860801.564   134663946.060        -528.077          38.000  
C 6  39825390.190   207381253.862        2561.142          34.000  
> 2020  6  5  7 59 13.9990000  0 27                     
G 2  22604321.712   118786525.122        2202.150          44.000  
G 3  25032541.637   131546908.171       -2344.524          32.000  
G 6  20968896.048   110192296.791        1064.733          47.000  
G17  20886080.613   109757088.444        1027.773          46.000  
G19  20393625.923   107169222.578        1747.766          47.000  
C 2  37164349.058   193524519.249        1225.893          40.000  
G28  21871360.391   114934747.810       -1709.485          42.000  
G 4  24239364.361   127378725.924        1655.431          40.000  
G 9  23417864.579   123061758.442        2968.634          38.000  
C 1  37591387.419   195748218.748        1178.731          43.000  
C27  24367969.395   126890418.635        3115.236          41.000  
C 3  36128045.070   188128208.374        1193.367          45.000  
C 4  38509992.096   200531631.741        1175.751          40.000  
C10  36166991.653   188331000.232         285.089          43.000  
C13  36704282.426   191128834.139         908.568          44.000  
C14  23131543.867   120452019.535        -206.545          45.000  
C23  26001332.548   135395760.529       -1374.532          37.000  
C28  22222753.837   115719712.022        1689.197          49.000  
G12  23793783.451   125037184.516        4200.788          39.000  
G 5  23862707.240   125399321.645        4862.106          37.000  
G23  23544353.320   123726430.263        3105.786          40.000  
C 7  36978804.156   192558332.205        -113.739          42.000  
C 8  36688068.888   191044397.936         770.834          44.000  
C16  40617137.717   211504086.321        2585.561          35.000  
C 5  39180774.016   204024572.795        1214.453          37.000  
C11  25860902.967   134664473.789        -528.038          38.000  
C 6  39824898.408   207378692.584        2560.949          34.000  
> 2020  6  5  7 59 14.9990000  0 27                     
G 2  22603902.697   118784323.510        2201.286          44.000  
G 3  25032988.049   131549253.516       -2345.992          32.000  
G 6  20968693.468   110191232.363        1064.019          47.000  
G17  20885885.205   109756061.009        1027.042          46.000  
G19  20393293.426   107167475.096        1747.028          47.000  
C 2  37164113.480   193523293.634        1225.284          40.000  
G28  21871685.680   114936457.555       -1710.085          42.000  
G 4  24239049.559   127377070.698        1654.475          41.000  
G 9  23417299.750   123058790.278        2967.590          38.000  
C 1  37591161.281   195747040.113        1178.540          43.000  
C27  24367371.166   126887303.333        3115.050          41.000  
C 3  36127815.914   188127014.945        1193.129          44.000  
C 4  38509766.360   200530455.841        1175.629          40.000  
C10  36166936.946   188330715.356         284.321          43.000  
C13  36704107.994   191127925.639         908.105          44.000  
C14  23131583.426   120452226.456        -207.387          45.000  
C23  26001596.657   135397135.521       -1374.972          37.000  
C28  22222429.543   115718022.932        1688.685          49.000  
G12  23792983.900   125032983.365        4201.011          39.000  
G 5  23861781.907   125394459.639        4861.724          37.000  
G23  23543762.246   123723324.559        3105.377          41.000  
C 7  36978825.899   192558446.006        -114.154          42.000  
C 8  36687920.857   191043627.277         770.255          44.000  
C16  40616641.032   211501500.868        2585.555          35.000  
C 5  39180540.637   204023358.286        1213.931          37.000  
C11  25861004.353   134665001.849        -528.310          38.000  
C 6  39824406.626   207376131.435        2561.232          34.000  
> 2020  6  5  7 59 15.9990000  0 27                     
G 2  22603483.613   118782122.232        2201.479          44.000  
G 3  25033434.321   131551599.155       -2345.693          32.000  
G 6  20968491.098   110190168.341        1064.069          47.000  
G17  20885689.710   109755034.109        1026.832          46.000  
G19  20392961.122   107165728.162        1746.814          47.000  
C 2  37163878.321   193522068.230        1225.661          40.000  
G28  21872010.987   114938167.874       -1710.476          42.000  
G 4  24238735.002   127375416.168        1654.340          40.000  
G 9  23416735.183   123055822.626        2967.737          38.000  
C 1  37590934.812   195745861.721        1178.631          43.000  
C27  24366772.990   126884188.216        3115.088          41.000  
C 3  36127586.810   188125821.740        1193.458          44.000  
C 4  38509540.641   200529280.183        1175.507          40.000  
C10  36166882.222   188330430.855         284.509          43.000  
C13  36703933.683   191127017.333         908.438          44.000  
C14  23131623.352   120452434.097        -207.826          45.000  
C23  26001860.958   135398510.586       -1375.153          37.000  
C28  22222105.300   115716334.175        1688.843          49.000  
G12  23792184.732   125028782.841        4200.496          39.000  
G 5  23860856.923   125389598.029        4861.491          37.000  
G23  23543171.329   123720219.239        3105.475          40.000  
C 7  36978847.886   192558560.113        -113.854          42.000  
C 8  36687772.897   191042856.793         770.409          44.000  
C16  40616144.643   211498915.516        2585.535          35.000  
C 5  39180307.572   204022143.995        1214.158          37.000  
C11  25861105.756   134665530.259        -528.501          38.000  
C 6  39823914.687   207373570.417        2561.042          34.000  
> 2020  6  5  7 59 16.9990000  0 27                     
G 2  22603064.982   118779921.282        2201.163          44.000  
G 3  25033880.488   131553945.067       -2345.641          32.000  
G 6  20968288.571   110189104.692        1063.697          47.000  
G17  20885494.373   109754007.705        1026.267          46.000  
G19  20392628.852   107163981.731        1746.313          47.000  
C 2  37163643.075   193520843.027        1225.330          40.000  
G28  21872336.469   114939878.695       -1710.977          42.000  
G 4  24238420.130   127373762.297        1653.572          41.000  
G 9  23416170.669   123052855.464        2967.212          38.000  
C 1  37590708.448   195744683.491        1178.289          43.000  
C27  24366174.901   126881073.239        3114.846          41.000  
C 3  36127357.619   188124628.731        1193.134          44.000  
C 4  38509314.923   200528104.687        1175.543          40.000  
C10  36166827.690   188330146.700         284.080          43.000  
C13  36703759.268   191126109.204         908.314          44.000  
C14  23131663.296   120452642.396        -208.440          45.000  
C23  26002125.049   135399885.654       -1374.643          37.000  
C28  22221780.953   115714645.696        1688.634          49.000  
G12  23791385.634   125024582.812        4200.204          39.000  
G 5  23859931.835   125384736.727        4861.475          37.000  
G23  23542580.395   123717114.257        3104.755          41.000  
C 7  36978870.065   192558674.547        -114.502          42.000  
C 8  36687624.849   191042086.438         770.383          44.000  
C16  40615648.254   211496330.208        2585.507          35.000  
C 5  39180074.245   204020929.872        1214.532          37.000  
C11  25861207.474   134666058.960        -528.746          38.000  
C 6  39823422.870   207371009.492        2560.698          34.000  
> 2020  6  5  7 59 17.9990000  0 27                     
G 2  22602646.351   118777720.452        2200.370          45.000  
G 3  25034327.074   131556291.095       -2346.502          32.000  
G 6  20968086.271   110188041.212        1063.121          47.000  
G17  20885299.192   109752981.579        1025.741          46.000  
G19  20392296.635   107162235.599        1745.721          47.000  
C 2  37163408.055   193519617.801        1224.901          40.000  
G28  21872661.933   114941589.830       -1711.554          42.000  
G 4  24238105.415   127372108.876        1652.932          41.000  
G 9  23415606.259   123049888.579        2966.663          38.000  
C 1  37590482.223   195743505.246        1178.036          43.000  
C27  24365576.917   126877958.215        3114.847          41.000  
C 3  36127128.305   188123435.710        1192.719          45.000  
C 4  38509089.257   200526929.198        1175.146          40.000  
C10  36166773.211   188329862.655         283.749          43.000  
C13  36703584.609   191125201.040         907.850          44.000  
C14  23131703.362   120452851.177        -209.287          45.000  
C23  26002388.931   135401260.597       -1375.115          37.000  
C28  22221456.710   115712957.314        1688.028          49.000  
G12  23790586.519   125020383.201        4198.953          39.000  
G 5  23859006.851   125379875.573        4860.763          37.000  
G23  23541989.496   123714009.397        3104.749          41.000  
C 7  36978892.053   192558789.045        -114.685          42.000  
C 8  36687476.872   191041315.994         770.077          44.000  
C16  40615151.725   211493744.813        2585.357          35.000  
C 5  39179841.040   204019715.762        1214.183          37.000  
C11  25861308.964   134666587.756        -529.032          38.000  
C 6  39822930.808   207368448.419        2560.859          34.000  
> 2020  6  5  7 59 18.9990000  0 27                     
G 2  22602227.494   118775519.420        2201.071          43.000  
G 3  25034773.398   131558636.873       -2345.445          32.000  
G 6  20967884.040   110186977.605        1063.742          47.000  
G17  20885104.098   109751955.453        1026.322          46.000  
G19  20391964.453   107160489.467        1746.179          47.000  
C 2  37163172.634   193518392.248        1226.127          40.000  
G28  21872987.624   114943300.974       -1710.945          42.000  
G 4  24237790.718   127370455.614        1653.196          40.000  
G 9  23415041.779   123046921.658        2967.041          39.000  
C 1  37590255.789   195742326.696        1178.640          43.000  
C27  24364978.480   126874842.826        3115.743          41.000  
C 3  36126899.236   188122242.369        1193.601          45.000  
C 4  38508863.294   200525753.397        1175.842          40.000  
C10  36166718.679   188329578.499         284.387          43.000  
C13  36703410.090   191124292.557         908.816          44.000  
C14  23131743.480   120453060.123        -208.873          45.000  
C23  26002653.058   135402635.065       -1374.111          37.000  
C28  22221132.433   115711268.721        1688.868          49.000  
G12  23789787.282   125016183.583        4199.858          39.000  
G 5  23858081.728   125375014.263        4861.852          37.000  
G23  23541398.823   123710904.415        3105.322          41.000  
C 7  36978914.180   192558903.323        -113.971          42.000  
C 8  36687328.929   191040545.177         771.231          44.000  
C16  40614655.145   211491159.003        2585.770          35.000  
C 5  39179607.766   204018501.362        1214.849          37.000  
C11  25861410.332   134667116.359        -527.901          38.000  
C 6  39822438.782   207365886.967        2561.698          34.000  
> 2020  6  5  7 59 19.9990000  0 27                     
G 2  22601808.968   118773318.385        2201.319          44.000  
G 3  25035219.600   131560982.634       -2346.115          32.000  
G 6  20967681.513   110185914.034        1063.713          47.000  
G17  20884909.040   109750929.503        1026.072          46.000  
G19  20391632.200   107158743.523        1746.106          47.000  
C 2  37162937.213   193517166.573        1226.025          40.000  
G28  21873313.628   114945012.307       -1711.240          42.000  
G 4  24237476.073   127368802.661        1653.251          40.000  
G 9  23414477.265   123043954.920        2966.394          39.000  
C 1  37590029.338   195741147.997        1178.912          43.000  
C27  24364380.304   126871727.287        3115.845          41.000  
C 3  36126670.063   188121048.887        1193.873          45.000  
C 4  38508637.418   200524577.456        1176.215          40.000  
C10  36166663.920   188329294.347         284.274          43.000  
C13  36703235.884   191123383.923         908.789          44.000  
C14  23131783.825   120453269.429        -209.269          45.000  
C23  26002916.800   135404009.228       -1373.493          38.000  
C28  22220808.138   115709580.095        1688.843          49.000  
G12  23788988.306   125011984.187        4198.974          39.000  
G 5  23857156.744   125370152.985        4861.582          37.000  
G23  23540807.784   123707799.438        3105.096          41.000  
C 7  36978935.992   192559017.595        -114.209          42.000  
C 8  36687181.003   191039774.194         771.094          44.000  
C16  40614158.581   211488572.881        2586.266          35.000  
C 5  39179374.526   204017286.788        1215.007          37.000  
C11  25861511.736   134667644.969        -528.102          38.000  
C 6  39821946.669   207363325.227        2562.231          34.000  
> 2020  6  5  7 59 20.9990000  0 27                     
G 2  22601390.006   118771117.477        2200.921          44.000  
G 3  25035665.854   131563328.397       -2345.458          32.000  
G 6  20967479.352   110184850.638        1063.412          47.000  
G17  20884713.824   109749903.842        1025.555          46.000  
G19  20391299.879   107156997.880        1745.569          47.000  
C 2  37162701.862   193515940.888        1225.478          40.000  
G28  21873639.441   114946723.951       -1711.586          42.000  
G 4  24237161.568   127367150.177        1652.599          40.000  
G 9  23413912.890   123040988.435        2966.370          39.000  
C 1  37589803.113   195739969.280        1178.864          43.000  
C27  24363781.866   126868611.687        3115.495          41.000  
C 3  36126441.029   188119855.399        1193.759          45.000  
C 4  38508411.577   200523401.493        1175.964          40.000  
C10  36166609.161   188329010.327         283.943          43.000  
C13  36703061.277   191122475.231         908.828          44.000  
C14  23131824.030   120453479.208        -210.034          45.000  
C23  26003180.630   135405383.248       -1373.702          38.000  
C28  22220483.948   115707891.563        1688.544          49.000  
G12  23788189.365   125007785.122        4198.604          39.000  
G 5  23856231.534   125365291.820        4861.172          37.000  
G23  23540217.269   123704694.592        3104.840          41.000  
C 7  36978957.596   192559131.958        -114.457          42.000  
C 8  36687033.025   191039003.127         771.146          44.000  
C16  40613661.896   211485986.633        2586.805          36.000  
C 5  39179141.182   204016072.213        1214.615          37.000  
C11  25861613.488   134668173.637        -528.290          38.000  
C 6  39821454.729   207360763.430        2562.046          34.000  
> 2020  6  5  7 59 21.9990000  0 27                     
G 2  22600971.078   118768916.962        2200.399          44.000  
G 3  25036112.580   131565674.634       -2346.305          32.000  
G 6  20967277.034   110183787.704        1062.721          47.000  
G17  20884518.801   109748878.761        1024.894          46.000  
G19  20390967.749   107155252.830        1744.757          47.000  
C 2  37162466.686   193514715.460        1225.164          40.000  
G28  21873965.499   114948436.208       -1712.693          42.000  
G 4  24236847.202   127365498.451        1651.218          40.000  
G 9  23413348.550   123038022.524        2965.710          39.000  
C 1  37589576.871   195738790.840        1178.314          43.000  
C27  24363183.620   126865496.298        3115.130          41.000  
C 3  36126211.907   188118662.189        1193.102          45.000  
C 4  38508185.719   200522225.785        1175.702          40.000  
C10  36166554.961   188328726.720         283.433          43.000  
C13  36702887.019   191121566.806         908.428          44.000  
C14  23131864.270   120453689.739        -210.865          45.000  
C23  26003444.513   135406757.408       -1374.392          38.000  
C28  22220159.862   115706203.397        1687.955          49.000  
G12  23787390.512   125003586.719        4197.900          39.000  
G 5  23855306.689   125360431.093        4860.490          37.000  
G23  23539626.317   123701590.177        3104.163          41.000  
C 7  36978979.827   192559246.671        -114.803          42.000  
C 8  36686884.855   191038232.268         770.646          44.000  
C16  40613165.350   211483400.571        2585.643          36.000  
C 5  39178907.995   204014857.897        1214.114          37.000  
C11  25861715.292   134668702.717        -529.164          38.000  
C 6  39820962.790   207358201.804        2561.455          34.000  
> 2020  6  5  7 59 22.9990000  0 27                     
G 2  22600552.151   118766716.746        2200.330          44.000  
G 3  25036558.817   131568021.101       -2346.519          32.000  
G 6  20967074.472   110182725.116        1062.584          47.000  
G17  20884323.742   109747854.154        1024.689          46.000  
G19  20390635.915   107153508.262        1744.696          47.000  
C 2  37162231.195   193513490.194        1225.244          40.000  
G28  21874291.417   114950148.925       -1712.632          42.000  
G 4  24236532.959   127363847.337        1651.066          40.000  
G 9  23412784.559   123035057.068        2965.790          39.000  
C 1  37589350.612   195737612.544        1178.826          43.000  
C27  24362585.374   126862381.038        3115.639          41.000  
C 3  36125982.611   188117469.123        1193.350          45.000  
C 4  38507959.861   200521050.266        1175.378          40.000  
C10  36166500.534   188328443.424         283.337          43.000  
C13  36702712.482   191120658.527         908.592          44.000  
C14  23131904.789   120453900.922        -211.194          45.000  
C23  26003708.656   135408131.540       -1373.782          38.000  
C28  22219835.515   115704515.491        1688.137          49.000  
G12  23786591.536   124999388.831        4197.883          39.000  
G 5  23854381.793   125355570.671        4860.389          37.000  
G23  23539035.680   123698486.095        3103.992          41.000  
C 7  36979001.815   192559361.663        -114.790          42.000  
C 8  36686736.895   191037461.522         770.880          44.000  
C16  40612668.943   211480814.543        2586.460          36.000  
C 5  39178674.877   204013643.763        1214.052          37.000  
C11  25861816.940   134669232.066        -529.001          38.000  
C 6  39820470.956   207355640.201        2562.026          34.000  
> 2020  6  5  7 59 23.9990000  0 27                     
G 2  22600133.241   118764516.560        2200.213          44.000  
G 3  25037005.420   131570367.528       -2346.668          32.000  
G 6  20966872.433   110181662.609        1062.609          47.000  
G17  20884128.893   109746829.773        1024.293          46.000  
G19  20390303.733   107151763.926        1744.312          47.000  
C 2  37161995.914   193512264.832        1225.350          40.000  
G28  21874617.561   114951861.877       -1712.985          42.000  
G 4  24236218.924   127362196.600        1650.676          40.000  
G 9  23412220.131   123032091.841        2965.143          39.000  
C 1  37589124.178   195736434.175        1178.861          43.000  
C27  24361986.849   126859265.669        3115.368          41.000  
C 3  36125753.385   188116275.980        1193.218          45.000  
C 4  38507734.143   200519874.633        1175.653          40.000  
C10  36166446.019   188328160.207         283.348          43.000  
C13  36702538.207   191119750.180         908.515          44.000  
C14  23131945.204   120454112.507        -211.897          45.000  
C23  26003972.451   135409505.458       -1373.671          38.000  
C28  22219511.343   115702827.624        1687.815          49.000  
G12  23785792.944   124995191.242        4197.251          39.000  
G 5  23853457.263   125350710.323        4860.785          37.000  
G23  23538445.252   123695382.075        3103.931          41.000  
C 7  36979023.976   192559476.680        -114.951          42.000  
C 8  36686588.882   191036690.610         771.142          44.000  
C16  40612172.432   211478228.326        2586.233          36.000  
C 5  39178441.847   204012429.517        1213.966          37.000  
C11  25861918.814   134669761.446        -529.179          38.000  
C 6  39819979.034   207353078.451        2561.822          34.000  
> 2020  6  5  7 59 24.9990000  0 27                     
G 2  22599714.505   118762316.458        2199.809          44.000  
G 3  25037451.937   131572714.002       -2346.121          32.000  
G 6  20966670.185   110180600.246        1062.164          47.000  
G17  20883934.009   109745805.626        1023.852          46.000  
G19  20389971.882   107150019.842        1743.744          47.000  
C 2  37161760.510   193511039.406        1225.417          40.000  
G28  21874943.479   114953575.085       -1713.333          42.000  
G 4  24235904.803   127360546.290        1649.868          40.000  
G 9  23411655.791   123029126.828        2964.447          38.000  
C 1  37588897.936   195735255.742        1178.378          43.000  
C27  24361388.603   126856150.168        3115.696          41.000  
C 3  36125524.281   188115082.793        1192.972          45.000  
C 4  38507508.564   200518698.944        1175.525          40.000  
C10  36166391.854   188327877.058         282.941          43.000  
C13  36702363.583   191118841.753         908.236          44.000  
C14  23131986.073   120454324.519        -212.423          45.000  
C23  26004236.665   135410879.171       -1373.988          38.000  
C28  22219187.205   115701139.774        1687.739          49.000  
G12  23784994.388   124990993.880        4197.397          39.000  
G 5  23852532.384   125345850.078        4860.192          37.000  
G23  23537854.702   123692278.116        3103.748          41.000  
C 7  36979046.190   192559591.748        -115.374          42.000  
C 8  36686440.765   191035919.594         770.902          44.000  
C16  40611675.747   211475641.897        2586.286          36.000  
C 5  39178208.660   204011215.200        1214.293          37.000  
C11  25862020.357   134670290.890        -529.562          38.000  
C 6  39819487.287   207350516.509        2561.956          34.000  
> 2020  6  5  7 59 25.9990000  0 27                     
G 2  22599295.753   118760116.523        2199.869          44.000  
G 3  25037898.505   131575060.636       -2346.447          32.000  
G 6  20966468.217   110179538.106        1062.008          47.000  
G17  20883739.160   109744781.829        1023.777          46.000  
G19  20389639.996   107148276.123        1743.634          47.000  
C 2  37161525.089   193509814.036        1225.336          40.000  
G28  21875269.274   114955288.673       -1713.620          42.000  
G 4  24235590.909   127358896.468        1649.681          40.000  
G 9  23411091.573   123026162.143        2964.630          38.000  
C 1  37588671.781   195734077.350        1178.291          43.000  
C27  24360790.131   126853034.707        3115.541          41.000  
C 3  36125295.195   188113889.631        1193.190          45.000  
C 4  38507282.583   200517523.307        1175.757          40.000  
C10  36166337.601   188327594.117         283.092          43.000  
C13  36702189.168   191117933.315         908.468          44.000  
C14  23132026.836   120454537.053        -212.738          45.000  
C23  26004500.565   135412252.760       -1373.696          38.000  
C28  22218863.102   115699452.090        1687.637          49.000  
G12  23784195.586   124986796.968        4196.897          39.000  
G 5  23851607.575   125340990.037        4860.033          37.000  
G23  23537264.361   123689174.371        3103.754          41.000  
C 7  36979068.527   192559706.931        -115.141          42.000  
C 8  36686292.752   191035148.564         771.176          44.000  
C16  40611179.323   211473055.410        2586.408          36.000  
C 5  39177975.333   204010000.952        1214.333          37.000  
C11  25862121.795   134670820.472        -529.234          38.000  
C 6  39818995.383   207347954.520        2562.399          34.000  
> 2020  6  5  7 59 26.9990000  0 27                     
G 2  22598877.000   118757916.674        2199.851          44.000  
G 3  25038345.300   131577407.320       -2346.753          32.000  
G 6  20966265.986   110178476.122        1061.741          47.000  
G17  20883544.468   109743758.307        1023.462          46.000  
G19  20389308.111   107146532.697        1743.176          47.000  
C 2  37161289.843   193508588.620        1225.311          40.000  
G28  21875595.454   114957002.542       -1713.930          42.000  
G 4  24235277.049   127357247.092        1649.178          40.000  
G 9  23410527.233   123023197.733        2964.233          38.000  
C 1  37588445.277   195732898.900        1178.439          43.000  
C27  24360191.798   126849919.159        3115.514          41.000  
C 3  36125065.969   188112696.442        1193.044          45.000  
C 4  38507056.708   200516347.634        1175.769          40.000  
C10  36166283.296   188327311.276         282.776          43.000  
C13  36702014.631   191117024.832         908.529          44.000  
C14  23132067.897   120454750.047        -213.296          45.000  
C23  26004764.377   135413626.163       -1373.260          38.000  
C28  22218538.982   115697764.463        1687.566          49.000  
G12  23783396.872   124982600.395        4196.192          39.000  
G 5  23850682.696   125336130.091        4859.994          37.000  
G23  23536673.653   123686070.763        3103.326          41.000  
C 7  36979090.601   192559822.190        -115.163          41.000  
C 8  36686144.460   191034377.457         771.132          44.000  
C16  40610682.533   211470468.767        2586.942          36.000  
C 5  39177742.198   204008786.635        1214.382          37.000  
C11  25862223.547   134671350.146        -529.841          38.000  
C 6  39818503.496   207345392.399        2562.483          34.000  
> 2020  6  5  7 59 27.9990000  0 27                     
G 2  22598458.334   118755716.805        2200.219          44.000  
G 3  25038791.677   131579753.891       -2345.676          32.000  
G 6  20966064.104   110177414.149        1062.093          47.000  
G17  20883349.671   109742734.931        1023.615          47.000  
G19  20388976.295   107144789.420        1743.353          47.000  
C 2  37161054.370   193507363.047        1225.711          40.000  
G28  21875921.633   114958716.589       -1714.045          42.000  
G 4  24234963.207   127355598.017        1649.209          40.000  
G 9  23409963.207   123020233.444        2964.404          38.000  
C 1  37588219.035   195731720.303        1178.902          43.000  
C27  24359593.377   126846803.409        3115.989          41.000  
C 3  36124836.690   188111503.075        1193.827          45.000  
C 4  38506831.076   200515171.829        1175.671          40.000  
C10  36166228.834   188327028.425         282.920          43.000  
C13  36701840.181   191116116.208         908.908          44.000  
C14  23132108.992   120454963.364        -213.338          45.000  
C23  26005028.207   135414999.259       -1372.717          38.000  
C28  22218214.844   115696076.775        1688.005          49.000  
G12  23782598.001   124978403.968        4196.309          39.000  
G 5  23849757.799   125331270.164        4860.126          37.000  
G23  23536082.964   123682967.120        3103.961          41.000  
