$GPRMC,123046.00,A,2753.1526265,N,11251.2195808,E,0.02,0.00,300520,0.0,E,D*3F
$GPGGA,123046.00,2753.1526265,N,11251.2195808,E,5,20,1.0,100.930,M,-16.632,M,-1.0,*46
$GPRMC,123047.00,A,2753.1526538,N,11251.2195496,E,0.02,0.00,300520,0.0,E,D*3A
$GPGGA,123047.00,2753.1526538,N,11251.2195496,E,5,20,1.0,100.937,M,-16.632,M,0.0,*68
$GPRMC,123048.00,A,2753.1526051,N,11251.2195149,E,0.02,0.00,300520,0.0,E,D*38
$GPGGA,123048.00,2753.1526051,N,11251.2195149,E,5,20,1.0,100.935,M,-16.632,M,0.0,*68
$GPRMC,123049.00,A,2753.1525784,N,11251.2194952,E,0.02,0.00,300520,0.0,E,D*36
$GPGGA,123049.00,2753.1525784,N,11251.2194952,E,5,20,1.0,100.969,M,-16.632,M,0.0,*6F
$GPRMC,123050.00,A,2753.1525514,N,11251.2194731,E,0.02,0.00,300520,0.0,E,D*3E
$GPGGA,123050.00,2753.1525514,N,11251.2194731,E,5,20,1.0,101.034,M,-16.632,M,0.0,*67
$GPRMC,123051.00,A,2753.1525275,N,11251.2194696,E,0.02,0.00,300520,0.0,E,D*33
$GPGGA,123051.00,2753.1525275,N,11251.2194696,E,5,20,1.0,101.127,M,-16.632,M,0.0,*69
$GPRMC,123052.00,A,2753.1525055,N,11251.2194726,E,0.02,0.00,300520,0.0,E,D*3A
$GPGGA,123052.00,2753.1525055,N,11251.2194726,E,5,20,1.0,101.224,M,-16.632,M,0.0,*60
$GPRMC,123053.00,A,2753.1524828,N,11251.2194706,E,0.02,0.00,300520,0.0,E,D*3A
$GPGGA,123053.00,2753.1524828,N,11251.2194706,E,5,20,1.0,101.323,M,-16.632,M,0.0,*66
$GPRMC,123054.00,A,2753.1524657,N,11251.2194592,E,0.02,0.00,300520,0.0,E,D*34
$GPGGA,123054.00,2753.1524657,N,11251.2194592,E,5,20,1.0,101.336,M,-16.632,M,0.0,*6C
$GPRMC,123055.00,A,2753.1524487,N,11251.2194505,E,0.02,0.00,300520,0.0,E,D*34
$GPGGA,123055.00,2753.1524487,N,11251.2194505,E,5,20,1.0,101.336,M,-16.632,M,0.0,*6C
$GPRMC,123056.00,A,2753.1524368,N,11251.2194492,E,0.02,0.00,300520,0.0,E,D*3E
$GPGGA,123056.00,2753.1524368,N,11251.2194492,E,5,20,1.0,101.313,M,-16.632,M,0.0,*61
$GPRMC,123057.00,A,2753.1524305,N,11251.2194498,E,0.02,0.00,300520,0.0,E,D*3E
$GPGGA,123057.00,2753.1524305,N,11251.2194498,E,5,20,1.0,101.331,M,-16.632,M,0.0,*61
$GPRMC,123058.00,A,2753.1524202,N,11251.2194524,E,0.02,0.00,300520,0.0,E,D*31
$GPGGA,123058.00,2753.1524202,N,11251.2194524,E,5,20,1.0,101.328,M,-16.632,M,0.0,*66
$GPRMC,123059.00,A,2753.1524092,N,11251.2194536,E,0.02,0.00,300520,0.0,E,D*38
$GPGGA,123059.00,2753.1524092,N,11251.2194536,E,5,20,1.0,101.322,M,-16.632,M,0.0,*65
$GPRMC,123100.00,A,2753.1523964,N,11251.2194566,E,0.02,0.00,300520,0.0,E,D*37
$GPGGA,123100.00,2753.1523964,N,11251.2194566,E,5,20,1.0,101.324,M,-16.632,M,0.0,*6C
$GPRMC,123101.00,A,2753.1523826,N,11251.2194629,E,0.02,0.00,300520,0.0,E,D*39
$GPGGA,123101.00,2753.1523826,N,11251.2194629,E,5,20,1.0,101.319,M,-16.632,M,0.0,*6C
$GPRMC,123102.00,A,2753.1523696,N,11251.2194642,E,0.02,0.00,300520,0.0,E,D*32
$GPGGA,123102.00,2753.1523696,N,11251.2194642,E,5,20,1.0,101.325,M,-16.632,M,0.0,*68
$GPRMC,123103.00,A,2753.1523610,N,11251.2194636,E,0.02,0.00,300520,0.0,E,D*3E
$GPGGA,123103.00,2753.1523610,N,11251.2194636,E,5,20,1.0,101.320,M,-16.632,M,0.0,*61
$GPRMC,123104.00,A,2753.1523565,N,11251.2194634,E,0.02,0.00,300520,0.0,E,D*3A
$GPGGA,123104.00,2753.1523565,N,11251.2194634,E,5,20,1.0,101.310,M,-16.632,M,0.0,*66
$GPRMC,123105.00,A,2753.1523517,N,11251.2194644,E,0.02,0.00,300520,0.0,E,D*39
$GPGGA,123105.00,2753.1523517,N,11251.2194644,E,5,20,1.0,101.294,M,-16.632,M,0.0,*68
$GPRMC,123106.00,A,2753.1523466,N,11251.2194629,E,0.02,0.00,300520,0.0,E,D*36
$GPGGA,123106.00,2753.1523466,N,11251.2194629,E,5,20,1.0,101.289,M,-16.632,M,0.0,*6B
$GPRMC,123107.00,A,2753.1523477,N,11251.2194607,E,0.02,0.00,300520,0.0,E,D*3B
$GPGGA,123107.00,2753.1523477,N,11251.2194607,E,5,20,1.0,101.295,M,-16.632,M,0.0,*6B
$GPRMC,123108.00,A,2753.1523478,N,11251.2194580,E,0.02,0.00,300520,0.0,E,D*37
$GPGGA,123108.00,2753.1523478,N,11251.2194580,E,5,20,1.0,101.299,M,-16.632,M,0.0,*6B
$GPRMC,123109.00,A,2753.1523480,N,11251.2194583,E,0.02,0.00,300520,0.0,E,D*32
$GPGGA,123109.00,2753.1523480,N,11251.2194583,E,5,20,1.0,101.303,M,-16.632,M,0.0,*6C
$GPRMC,123110.00,A,2753.1523492,N,11251.2194605,E,0.02,0.00,300520,0.0,E,D*34
$GPGGA,123110.00,2753.1523492,N,11251.2194605,E,5,20,1.0,101.313,M,-16.632,M,0.0,*6B
$GPRMC,123111.00,A,2753.1523473,N,11251.2194600,E,0.02,0.00,300520,0.0,E,D*3F
$GPGGA,123111.00,2753.1523473,N,11251.2194600,E,5,20,1.0,101.323,M,-16.632,M,0.0,*63
$GPRMC,123112.00,A,2753.1523483,N,11251.2194620,E,0.02,0.00,300520,0.0,E,D*31
$GPGGA,123112.00,2753.1523483,N,11251.2194620,E,5,20,1.0,101.324,M,-16.632,M,0.0,*6A
$GPRMC,123113.00,A,2753.1523501,N,11251.2194647,E,0.02,0.00,300520,0.0,E,D*3A
$GPGGA,123113.00,2753.1523501,N,11251.2194647,E,5,20,1.0,101.318,M,-16.632,M,0.0,*6E
$GPRMC,123114.00,A,2753.1523515,N,11251.2194679,E,0.02,0.00,300520,0.0,E,D*35
$GPGGA,123114.00,2753.1523515,N,11251.2194679,E,5,20,1.0,101.313,M,-16.632,M,0.0,*6A
$GPRMC,123115.00,A,2753.1523514,N,11251.2194707,E,0.02,0.00,300520,0.0,E,D*3D
$GPGGA,123115.00,2753.1523514,N,11251.2194707,E,5,20,1.0,101.317,M,-16.632,M,0.0,*66
$GPRMC,123116.00,A,2753.1523494,N,11251.2194717,E,0.02,0.00,300520,0.0,E,D*36
$GPGGA,123116.00,2753.1523494,N,11251.2194717,E,5,20,1.0,101.310,M,-16.632,M,0.0,*6A
$GPRMC,123117.00,A,2753.1523462,N,11251.2194684,E,0.02,0.00,300520,0.0,E,D*35
$GPGGA,123117.00,2753.1523462,N,11251.2194684,E,5,20,1.0,101.305,M,-16.632,M,0.0,*6D
$GPRMC,123118.00,A,2753.1523423,N,11251.2194682,E,0.02,0.00,300520,0.0,E,D*39
$GPGGA,123118.00,2753.1523423,N,11251.2194682,E,5,20,1.0,101.293,M,-16.632,M,0.0,*6F
$GPRMC,123119.00,A,2753.1523397,N,11251.2194664,E,0.02,0.00,300520,0.0,E,D*38
$GPGGA,123119.00,2753.1523397,N,11251.2194664,E,5,20,1.0,101.277,M,-16.632,M,0.0,*64
$GPRMC,123120.00,A,2753.1523354,N,11251.2194691,E,0.02,0.00,300520,0.0,E,D*37
$GPGGA,123120.00,2753.1523354,N,11251.2194691,E,5,20,1.0,101.272,M,-16.632,M,0.0,*6E
$GPRMC,123121.00,A,2753.1523314,N,11251.2194724,E,0.02,0.00,300520,0.0,E,D*3D
$GPGGA,123121.00,2753.1523314,N,11251.2194724,E,5,20,1.0,101.262,M,-16.632,M,0.0,*65
$GPRMC,123122.00,A,2753.1521949,N,11251.2196006,E,0.02,0.00,300520,0.0,E,D*3B
$GPGGA,123122.00,2753.1521949,N,11251.2196006,E,4,20,1.0,101.569,M,-16.632,M,0.0,*6E
$GPRMC,123123.00,A,2753.1521949,N,11251.2196007,E,0.02,0.00,300520,0.0,E,D*3B
$GPGGA,123123.00,2753.1521949,N,11251.2196007,E,4,20,1.0,101.569,M,-16.632,M,0.0,*6E
$GPRMC,123124.00,A,2753.1521949,N,11251.2196007,E,0.02,0.00,300520,0.0,E,D*3C
$GPGGA,123124.00,2753.1521949,N,11251.2196007,E,4,20,1.0,101.569,M,-16.632,M,0.0,*69
$GPRMC,123125.00,A,2753.1521949,N,11251.2196007,E,0.02,0.00,300520,0.0,E,D*3D
$GPGGA,123125.00,2753.1521949,N,11251.2196007,E,4,20,1.0,101.568,M,-16.632,M,0.0,*69
$GPRMC,123126.00,A,2753.1521949,N,11251.2196007,E,0.02,0.00,300520,0.0,E,D*3E
$GPGGA,123126.00,2753.1521949,N,11251.2196007,E,4,20,1.0,101.568,M,-16.632,M,0.0,*6A
$GPRMC,123127.00,A,2753.1521949,N,11251.2196007,E,0.02,0.00,300520,0.0,E,D*3F
$GPGGA,123127.00,2753.1521949,N,11251.2196007,E,4,20,1.0,101.568,M,-16.632,M,0.0,*6B
$GPRMC,123128.00,A,2753.1521949,N,11251.2196007,E,0.02,0.00,300520,0.0,E,D*30
$GPGGA,123128.00,2753.1521949,N,11251.2196007,E,4,20,1.0,101.568,M,-16.632,M,0.0,*64
$GPRMC,123129.00,A,2753.1521949,N,11251.2196007,E,0.02,0.00,300520,0.0,E,D*31
$GPGGA,123129.00,2753.1521949,N,11251.2196007,E,4,20,1.0,101.569,M,-16.632,M,0.0,*64
$GPRMC,123130.00,A,2753.1521949,N,11251.2196006,E,0.02,0.00,300520,0.0,E,D*38
$GPGGA,123130.00,2753.1521949,N,11251.2196006,E,4,20,1.0,101.569,M,-16.632,M,0.0,*6D
$GPRMC,123131.00,A,2753.1521949,N,11251.2196006,E,0.02,0.00,300520,0.0,E,D*39
$GPGGA,123131.00,2753.1521949,N,11251.2196006,E,4,20,1.0,101.568,M,-16.632,M,0.0,*6D
$GPRMC,123132.00,A,2753.1521949,N,11251.2196006,E,0.02,0.00,300520,0.0,E,D*3A
$GPGGA,123132.00,2753.1521949,N,11251.2196006,E,4,20,1.0,101.568,M,-16.632,M,0.0,*6E
$GPRMC,123133.00,A,2753.1521949,N,11251.2196006,E,0.02,0.00,300520,0.0,E,D*3B
$GPGGA,123133.00,2753.1521949,N,11251.2196006,E,4,20,1.0,101.568,M,-16.632,M,0.0,*6F
$GPRMC,123134.00,A,2753.1521949,N,11251.2196006,E,0.02,0.00,300520,0.0,E,D*3C
$GPGGA,123134.00,2753.1521949,N,11251.2196006,E,4,20,1.0,101.568,M,-16.632,M,0.0,*68
$GPRMC,123135.00,A,2753.1521948,N,11251.2196006,E,0.02,0.00,300520,0.0,E,D*3C
$GPGGA,123135.00,2753.1521948,N,11251.2196006,E,4,20,1.0,101.568,M,-16.632,M,0.0,*68
$GPRMC,123136.00,A,2753.1521948,N,11251.2196006,E,0.02,0.00,300520,0.0,E,D*3F
$GPGGA,123136.00,2753.1521948,N,11251.2196006,E,4,20,1.0,101.568,M,-16.632,M,0.0,*6B
$GPRMC,123137.00,A,2753.1521948,N,11251.2196006,E,0.02,0.00,300520,0.0,E,D*3E
$GPGGA,123137.00,2753.1521948,N,11251.2196006,E,4,20,1.0,101.568,M,-16.632,M,0.0,*6A
$GPRMC,123138.00,A,2753.1521948,N,11251.2196006,E,0.02,0.00,300520,0.0,E,D*31
$GPGGA,123138.00,2753.1521948,N,11251.2196006,E,4,20,1.0,101.568,M,-16.632,M,0.0,*65
$GPRMC,123139.00,A,2753.1521948,N,11251.2196006,E,0.02,0.00,300520,0.0,E,D*30
$GPGGA,123139.00,2753.1521948,N,11251.2196006,E,4,20,1.0,101.568,M,-16.632,M,0.0,*64
$GPRMC,123140.00,A,2753.1521948,N,11251.2196006,E,0.02,0.00,300520,0.0,E,D*3E
$GPGGA,123140.00,2753.1521948,N,11251.2196006,E,4,20,1.0,101.568,M,-16.632,M,0.0,*6A
$GPRMC,123141.00,A,2753.1521948,N,11251.2196006,E,0.02,0.00,300520,0.0,E,D*3F
$GPGGA,123141.00,2753.1521948,N,11251.2196006,E,4,20,1.0,101.568,M,-16.632,M,0.0,*6B
$GPRMC,123142.00,A,2753.1521948,N,11251.2196006,E,0.02,0.00,300520,0.0,E,D*3C
$GPGGA,123142.00,2753.1521948,N,11251.2196006,E,4,20,1.0,101.567,M,-16.632,M,0.0,*67
$GPRMC,123143.00,A,2753.1521948,N,11251.2196006,E,0.02,0.00,300520,0.0,E,D*3D
$GPGGA,123143.00,2753.1521948,N,11251.2196006,E,4,20,1.0,101.567,M,-16.632,M,0.0,*66
$GPRMC,123144.00,A,2753.1521948,N,11251.2196007,E,0.02,0.00,300520,0.0,E,D*3B
$GPGGA,123144.00,2753.1521948,N,11251.2196007,E,4,20,1.0,101.567,M,-16.632,M,0.0,*60
$GPRMC,123145.00,A,2753.1521948,N,11251.2196007,E,0.02,0.00,300520,0.0,E,D*3A
$GPGGA,123145.00,2753.1521948,N,11251.2196007,E,4,20,1.0,101.567,M,-16.632,M,0.0,*61
$GPRMC,123146.00,A,2753.1521948,N,11251.2196007,E,0.02,0.00,300520,0.0,E,D*39
$GPGGA,123146.00,2753.1521948,N,11251.2196007,E,4,20,1.0,101.567,M,-16.632,M,0.0,*62
$GPRMC,123147.00,A,2753.1521948,N,11251.2196007,E,0.02,0.00,300520,0.0,E,D*38
$GPGGA,123147.00,2753.1521948,N,11251.2196007,E,4,20,1.0,101.567,M,-16.632,M,0.0,*63
$GPRMC,123148.00,A,2753.1521948,N,11251.2196007,E,0.02,0.00,300520,0.0,E,D*37
$GPGGA,123148.00,2753.1521948,N,11251.2196007,E,4,20,1.0,101.567,M,-16.632,M,0.0,*6C
$GPRMC,123149.00,A,2753.1521949,N,11251.2196007,E,0.02,0.00,300520,0.0,E,D*37
$GPGGA,123149.00,2753.1521949,N,11251.2196007,E,4,19,1.0,101.567,M,-16.632,M,0.0,*66
$GPRMC,123150.00,A,2753.1521949,N,11251.2196007,E,0.02,0.00,300520,0.0,E,D*3F
$GPGGA,123150.00,2753.1521949,N,11251.2196007,E,4,20,1.0,101.567,M,-16.632,M,0.0,*64
$GPRMC,123151.00,A,2753.1521949,N,11251.2196007,E,0.02,0.00,300520,0.0,E,D*3E
$GPGGA,123151.00,2753.1521949,N,11251.2196007,E,4,20,1.0,101.567,M,-16.632,M,0.0,*65
$GPRMC,123152.00,A,2753.1521949,N,11251.2196007,E,0.02,0.00,300520,0.0,E,D*3D
$GPGGA,123152.00,2753.1521949,N,11251.2196007,E,4,20,1.0,101.566,M,-16.632,M,0.0,*67
$GPRMC,123153.00,A,2753.1521948,N,11251.2196007,E,0.02,0.00,300520,0.0,E,D*3D
$GPGGA,123153.00,2753.1521948,N,11251.2196007,E,4,20,1.0,101.566,M,-16.632,M,0.0,*67
$GPRMC,123154.00,A,2753.1521948,N,11251.2196007,E,0.02,0.00,300520,0.0,E,D*3A
$GPGGA,123154.00,2753.1521948,N,11251.2196007,E,4,20,1.0,101.566,M,-16.632,M,0.0,*60
$GPRMC,123155.00,A,2753.1521948,N,11251.2196007,E,0.02,0.00,300520,0.0,E,D*3B
$GPGGA,123155.00,2753.1521948,N,11251.2196007,E,4,20,1.0,101.566,M,-16.632,M,0.0,*61
$GPRMC,123156.00,A,2753.1521948,N,11251.2196007,E,0.02,0.00,300520,0.0,E,D*38
$GPGGA,123156.00,2753.1521948,N,11251.2196007,E,4,20,1.0,101.566,M,-16.632,M,0.0,*62
$GPRMC,123157.00,A,2753.1521948,N,11251.2196007,E,0.02,0.00,300520,0.0,E,D*39
$GPGGA,123157.00,2753.1521948,N,11251.2196007,E,4,20,1.0,101.566,M,-16.632,M,0.0,*63
$GPRMC,123158.00,A,2753.1521948,N,11251.2196007,E,0.02,0.00,300520,0.0,E,D*36
$GPGGA,123158.00,2753.1521948,N,11251.2196007,E,4,20,1.0,101.566,M,-16.632,M,0.0,*6C
$GPRMC,123159.00,A,2753.1521949,N,11251.2196007,E,0.02,0.00,300520,0.0,E,D*36
$GPGGA,123159.00,2753.1521949,N,11251.2196007,E,4,20,1.0,101.566,M,-16.632,M,0.0,*6C
$GPRMC,123200.00,A,2753.1521949,N,11251.2196007,E,0.02,0.00,300520,0.0,E,D*39
$GPGGA,123200.00,2753.1521949,N,11251.2196007,E,4,20,1.0,101.566,M,-16.632,M,0.0,*63
$GPRMC,123201.00,A,2753.1521949,N,11251.2196007,E,0.02,0.00,300520,0.0,E,D*38
$GPGGA,123201.00,2753.1521949,N,11251.2196007,E,4,20,1.0,101.566,M,-16.632,M,0.0,*62
$GPRMC,123202.00,A,2753.1521949,N,11251.2196007,E,0.02,0.00,300520,0.0,E,D*3B
$GPGGA,123202.00,2753.1521949,N,11251.2196007,E,4,20,1.0,101.566,M,-16.632,M,0.0,*61
$GPRMC,123203.00,A,2753.1521949,N,11251.2196008,E,0.02,0.00,300520,0.0,E,D*35
$GPGGA,123203.00,2753.1521949,N,11251.2196008,E,4,20,1.0,101.566,M,-16.632,M,0.0,*6F
$GPRMC,123204.00,A,2753.1521949,N,11251.2196008,E,0.02,0.00,300520,0.0,E,D*32
$GPGGA,123204.00,2753.1521949,N,11251.2196008,E,4,20,1.0,101.566,M,-16.632,M,0.0,*68
$GPRMC,123205.00,A,2753.1521949,N,11251.2196008,E,0.02,0.00,300520,0.0,E,D*33
$GPGGA,123205.00,2753.1521949,N,11251.2196008,E,4,20,1.0,101.566,M,-16.632,M,0.0,*69
$GPRMC,123206.00,A,2753.1521949,N,11251.2196008,E,0.02,0.00,300520,0.0,E,D*30
$GPGGA,123206.00,2753.1521949,N,11251.2196008,E,4,20,1.0,101.566,M,-16.632,M,0.0,*6A
$GPRMC,123207.00,A,2753.1521949,N,11251.2196008,E,0.02,0.00,300520,0.0,E,D*31
$GPGGA,123207.00,2753.1521949,N,11251.2196008,E,4,20,1.0,101.566,M,-16.632,M,0.0,*6B
$GPRMC,123208.00,A,2753.1521949,N,11251.2196008,E,0.02,0.00,300520,0.0,E,D*3E
$GPGGA,123208.00,2753.1521949,N,11251.2196008,E,4,19,1.0,101.566,M,-16.632,M,0.0,*6E
$GPRMC,123209.00,A,2753.1521949,N,11251.2196008,E,0.02,0.00,300520,0.0,E,D*3F
$GPGGA,123209.00,2753.1521949,N,11251.2196008,E,4,20,1.0,101.566,M,-16.632,M,0.0,*65
$GPRMC,123210.00,A,2753.1521949,N,11251.2196008,E,0.02,0.00,300520,0.0,E,D*37
$GPGGA,123210.00,2753.1521949,N,11251.2196008,E,4,20,1.0,101.566,M,-16.632,M,0.0,*6D
$GPRMC,123211.00,A,2753.1521950,N,11251.2196008,E,0.02,0.00,300520,0.0,E,D*3E
$GPGGA,123211.00,2753.1521950,N,11251.2196008,E,4,20,1.0,101.566,M,-16.632,M,0.0,*64
$GPRMC,123212.00,A,2753.1521950,N,11251.2196008,E,0.02,0.00,300520,0.0,E,D*3D
$GPGGA,123212.00,2753.1521950,N,11251.2196008,E,4,20,1.0,101.566,M,-16.632,M,0.0,*67
$GPRMC,123213.00,A,2753.1521950,N,11251.2196008,E,0.02,0.00,300520,0.0,E,D*3C
$GPGGA,123213.00,2753.1521950,N,11251.2196008,E,4,20,1.0,101.566,M,-16.632,M,0.0,*66
$GPRMC,123214.00,A,2753.1521950,N,11251.2196008,E,0.02,0.00,300520,0.0,E,D*3B
$GPGGA,123214.00,2753.1521950,N,11251.2196008,E,4,20,1.0,101.566,M,-16.632,M,0.0,*61
$GPRMC,123215.00,A,2753.1521950,N,11251.2196008,E,0.02,0.00,300520,0.0,E,D*3A
$GPGGA,123215.00,2753.1521950,N,11251.2196008,E,4,20,1.0,101.566,M,-16.632,M,0.0,*60
$GPRMC,123216.00,A,2753.1521950,N,11251.2196008,E,0.02,0.00,300520,0.0,E,D*39
$GPGGA,123216.00,2753.1521950,N,11251.2196008,E,4,20,1.0,101.565,M,-16.632,M,0.0,*60
$GPRMC,123217.00,A,2753.1521950,N,11251.2196008,E,0.02,0.00,300520,0.0,E,D*38
$GPGGA,123217.00,2753.1521950,N,11251.2196008,E,4,20,1.0,101.565,M,-16.632,M,0.0,*61
$GPRMC,123218.00,A,2753.1521950,N,11251.2196008,E,0.02,0.00,300520,0.0,E,D*37
$GPGGA,123218.00,2753.1521950,N,11251.2196008,E,4,20,1.0,101.565,M,-16.632,M,0.0,*6E
$GPRMC,123219.00,A,2753.1521950,N,11251.2196008,E,0.02,0.00,300520,0.0,E,D*36
$GPGGA,123219.00,2753.1521950,N,11251.2196008,E,4,20,1.0,101.565,M,-16.632,M,0.0,*6F
$GPRMC,123220.00,A,2753.1521950,N,11251.2196008,E,0.02,0.00,300520,0.0,E,D*3C
$GPGGA,123220.00,2753.1521950,N,11251.2196008,E,4,20,1.0,101.565,M,-16.632,M,0.0,*65
$GPRMC,123221.00,A,2753.1521950,N,11251.2196008,E,0.02,0.00,300520,0.0,E,D*3D
$GPGGA,123221.00,2753.1521950,N,11251.2196008,E,4,20,1.0,101.565,M,-16.632,M,0.0,*64
$GPRMC,123222.00,A,2753.1521950,N,11251.2196008,E,0.02,0.00,300520,0.0,E,D*3E
$GPGGA,123222.00,2753.1521950,N,11251.2196008,E,4,20,1.0,101.565,M,-16.632,M,0.0,*67
$GPRMC,123223.00,A,2753.1521950,N,11251.2196008,E,0.02,0.00,300520,0.0,E,D*3F
$GPGGA,123223.00,2753.1521950,N,11251.2196008,E,4,20,1.0,101.565,M,-16.632,M,0.0,*66
$GPRMC,123224.00,A,2753.1521950,N,11251.2196008,E,0.02,0.00,300520,0.0,E,D*38
$GPGGA,123224.00,2753.1521950,N,11251.2196008,E,4,20,1.0,101.565,M,-16.632,M,0.0,*61
$GPRMC,123225.00,A,2753.1521950,N,11251.2196008,E,0.02,0.00,300520,0.0,E,D*39
$GPGGA,123225.00,2753.1521950,N,11251.2196008,E,4,20,1.0,101.565,M,-16.632,M,0.0,*60
$GPRMC,123226.00,A,2753.1521950,N,11251.2196008,E,0.02,0.00,300520,0.0,E,D*3A
$GPGGA,123226.00,2753.1521950,N,11251.2196008,E,4,20,1.0,101.565,M,-16.632,M,0.0,*63
$GPRMC,123227.00,A,2753.1521950,N,11251.2196008,E,0.02,0.00,300520,0.0,E,D*3B
$GPGGA,123227.00,2753.1521950,N,11251.2196008,E,4,20,1.0,101.565,M,-16.632,M,0.0,*62
$GPRMC,123228.00,A,2753.1521950,N,11251.2196008,E,0.02,0.00,300520,0.0,E,D*34
$GPGGA,123228.00,2753.1521950,N,11251.2196008,E,4,20,1.0,101.565,M,-16.632,M,0.0,*6D
$GPRMC,123229.00,A,2753.1521950,N,11251.2196008,E,0.02,0.00,300520,0.0,E,D*35
$GPGGA,123229.00,2753.1521950,N,11251.2196008,E,4,20,1.0,101.565,M,-16.632,M,0.0,*6C
$GPRMC,123230.00,A,2753.1521950,N,11251.2196008,E,0.02,0.00,300520,0.0,E,D*3D
$GPGGA,123230.00,2753.1521950,N,11251.2196008,E,4,20,1.0,101.565,M,-16.632,M,0.0,*64
$GPRMC,123231.00,A,2753.1521950,N,11251.2196008,E,0.02,0.00,300520,0.0,E,D*3C
$GPGGA,123231.00,2753.1521950,N,11251.2196008,E,4,20,1.0,101.565,M,-16.632,M,0.0,*65
$GPRMC,123232.00,A,2753.1521950,N,11251.2196008,E,0.02,0.00,300520,0.0,E,D*3F
$GPGGA,123232.00,2753.1521950,N,11251.2196008,E,4,20,1.0,101.565,M,-16.632,M,0.0,*66
$GPRMC,123233.00,A,2753.1521950,N,11251.2196008,E,0.02,0.00,300520,0.0,E,D*3E
$GPGGA,123233.00,2753.1521950,N,11251.2196008,E,4,20,1.0,101.564,M,-16.632,M,0.0,*66
$GPRMC,123234.00,A,2753.1521950,N,11251.2196008,E,0.02,0.00,300520,0.0,E,D*39
$GPGGA,123234.00,2753.1521950,N,11251.2196008,E,4,20,1.0,101.564,M,-16.632,M,0.0,*61
$GPRMC,123235.00,A,2753.1521950,N,11251.2196008,E,0.02,0.00,300520,0.0,E,D*38
$GPGGA,123235.00,2753.1521950,N,11251.2196008,E,4,20,1.0,101.564,M,-16.632,M,0.0,*60
$GPRMC,123236.00,A,2753.1521950,N,11251.2196008,E,0.02,0.00,300520,0.0,E,D*3B
$GPGGA,123236.00,2753.1521950,N,11251.2196008,E,4,20,1.0,101.564,M,-16.632,M,0.0,*63
$GPRMC,123237.00,A,2753.1521950,N,11251.2196008,E,0.02,0.00,300520,0.0,E,D*3A
$GPGGA,123237.00,2753.1521950,N,11251.2196008,E,4,20,1.0,101.564,M,-16.632,M,0.0,*62
$GPRMC,123238.00,A,2753.1521950,N,11251.2196008,E,0.02,0.00,300520,0.0,E,D*35
$GPGGA,123238.00,2753.1521950,N,11251.2196008,E,4,20,1.0,101.564,M,-16.632,M,0.0,*6D
$GPRMC,123239.00,A,2753.1521950,N,11251.2196008,E,0.02,0.00,300520,0.0,E,D*34
$GPGGA,123239.00,2753.1521950,N,11251.2196008,E,4,20,1.0,101.564,M,-16.632,M,0.0,*6C
$GPRMC,123240.00,A,2753.1521950,N,11251.2196008,E,0.02,0.00,300520,0.0,E,D*3A
$GPGGA,123240.00,2753.1521950,N,11251.2196008,E,4,20,1.0,101.564,M,-16.632,M,0.0,*62
$GPRMC,123241.00,A,2753.1521950,N,11251.2196008,E,0.02,0.00,300520,0.0,E,D*3B
$GPGGA,123241.00,2753.1521950,N,11251.2196008,E,4,20,1.0,101.564,M,-16.632,M,0.0,*63
$GPRMC,123242.00,A,2753.1521950,N,11251.2196008,E,0.02,0.00,300520,0.0,E,D*38
$GPGGA,123242.00,2753.1521950,N,11251.2196008,E,4,20,1.0,101.564,M,-16.632,M,0.0,*60
$GPRMC,123243.00,A,2753.1521950,N,11251.2196008,E,0.02,0.00,300520,0.0,E,D*39
$GPGGA,123243.00,2753.1521950,N,11251.2196008,E,4,20,1.0,101.564,M,-16.632,M,0.0,*61
$GPRMC,123244.00,A,2753.1521951,N,11251.2196008,E,0.02,0.00,300520,0.0,E,D*3F
$GPGGA,123244.00,2753.1521951,N,11251.2196008,E,4,20,1.0,101.564,M,-16.632,M,0.0,*67
$GPRMC,123245.00,A,2753.1521951,N,11251.2196009,E,0.02,0.00,300520,0.0,E,D*3F
$GPGGA,123245.00,2753.1521951,N,11251.2196009,E,4,20,1.0,101.564,M,-16.632,M,0.0,*67
$GPRMC,123246.00,A,2753.1521951,N,11251.2196009,E,0.02,0.00,300520,0.0,E,D*3C
$GPGGA,123246.00,2753.1521951,N,11251.2196009,E,4,20,1.0,101.564,M,-16.632,M,0.0,*64
$GPRMC,123247.00,A,2753.1521951,N,11251.2196009,E,0.02,0.00,300520,0.0,E,D*3D
$GPGGA,123247.00,2753.1521951,N,11251.2196009,E,4,20,1.0,101.564,M,-16.632,M,0.0,*65
$GPRMC,123248.00,A,2753.1521951,N,11251.2196009,E,0.02,0.00,300520,0.0,E,D*32
$GPGGA,123248.00,2753.1521951,N,11251.2196009,E,4,20,1.0,101.564,M,-16.632,M,0.0,*6A
$GPRMC,123249.00,A,2753.1521951,N,11251.2196009,E,0.02,0.00,300520,0.0,E,D*33
$GPGGA,123249.00,2753.1521951,N,11251.2196009,E,4,20,1.0,101.564,M,-16.632,M,0.0,*6B
$GPRMC,123250.00,A,2753.1521951,N,11251.2196009,E,0.02,0.00,300520,0.0,E,D*3B
$GPGGA,123250.00,2753.1521951,N,11251.2196009,E,4,20,1.0,101.564,M,-16.632,M,0.0,*63
$GPRMC,123251.00,A,2753.1521951,N,11251.2196009,E,0.02,0.00,300520,0.0,E,D*3A
$GPGGA,123251.00,2753.1521951,N,11251.2196009,E,4,20,1.0,101.564,M,-16.632,M,0.0,*62
$GPRMC,123252.00,A,2753.1521951,N,11251.2196009,E,0.02,0.00,300520,0.0,E,D*39
$GPGGA,123252.00,2753.1521951,N,11251.2196009,E,4,20,1.0,101.564,M,-16.632,M,0.0,*61
$GPRMC,123253.00,A,2753.1521951,N,11251.2196009,E,0.02,0.00,300520,0.0,E,D*38
$GPGGA,123253.00,2753.1521951,N,11251.2196009,E,4,20,1.0,101.564,M,-16.632,M,0.0,*60
$GPRMC,123254.00,A,2753.1521950,N,11251.2196010,E,0.02,0.00,300520,0.0,E,D*36
$GPGGA,123254.00,2753.1521950,N,11251.2196010,E,4,20,1.0,101.563,M,-16.632,M,0.0,*69
$GPRMC,123255.00,A,2753.1521951,N,11251.2196010,E,0.02,0.00,300520,0.0,E,D*36
$GPGGA,123255.00,2753.1521951,N,11251.2196010,E,4,20,1.0,101.563,M,-16.632,M,0.0,*69
$GPRMC,123256.00,A,2753.1521950,N,11251.2196010,E,0.02,0.00,300520,0.0,E,D*34
$GPGGA,123256.00,2753.1521950,N,11251.2196010,E,4,20,1.0,101.563,M,-16.632,M,0.0,*6B
$GPRMC,123257.00,A,2753.1521950,N,11251.2196010,E,0.02,0.00,300520,0.0,E,D*35
$GPGGA,123257.00,2753.1521950,N,11251.2196010,E,4,20,1.0,101.563,M,-16.632,M,0.0,*6A
$GPRMC,123258.00,A,2753.1521950,N,11251.2196010,E,0.02,0.00,300520,0.0,E,D*3A
$GPGGA,123258.00,2753.1521950,N,11251.2196010,E,4,20,1.0,101.563,M,-16.632,M,0.0,*65
$GPRMC,123259.00,A,2753.1521950,N,11251.2196010,E,0.02,0.00,300520,0.0,E,D*3B
$GPGGA,123259.00,2753.1521950,N,11251.2196010,E,4,20,1.0,101.563,M,-16.632,M,0.0,*64
$GPRMC,123300.00,A,2753.1521950,N,11251.2196010,E,0.02,0.00,300520,0.0,E,D*36
$GPGGA,123300.00,2753.1521950,N,11251.2196010,E,4,20,1.0,101.563,M,-16.632,M,0.0,*69
$GPRMC,123301.00,A,2753.1521950,N,11251.2196010,E,0.02,0.00,300520,0.0,E,D*37
$GPGGA,123301.00,2753.1521950,N,11251.2196010,E,4,20,1.0,101.563,M,-16.632,M,0.0,*68
$GPRMC,123302.00,A,2753.1521950,N,11251.2196010,E,0.02,0.00,300520,0.0,E,D*34
$GPGGA,123302.00,2753.1521950,N,11251.2196010,E,4,20,1.0,101.563,M,-16.632,M,0.0,*6B
$GPRMC,123303.00,A,2753.1521950,N,11251.2196010,E,0.02,0.00,300520,0.0,E,D*35
$GPGGA,123303.00,2753.1521950,N,11251.2196010,E,4,20,1.0,101.563,M,-16.632,M,0.0,*6A
$GPRMC,123304.00,A,2753.1521950,N,11251.2196010,E,0.02,0.00,300520,0.0,E,D*32
$GPGGA,123304.00,2753.1521950,N,11251.2196010,E,4,20,1.0,101.563,M,-16.632,M,0.0,*6D
$GPRMC,123305.00,A,2753.1521950,N,11251.2196010,E,0.02,0.00,300520,0.0,E,D*33
$GPGGA,123305.00,2753.1521950,N,11251.2196010,E,4,20,1.0,101.563,M,-16.632,M,0.0,*6C
$GPRMC,123306.00,A,2753.1521950,N,11251.2196010,E,0.02,0.00,300520,0.0,E,D*30
$GPGGA,123306.00,2753.1521950,N,11251.2196010,E,4,20,1.0,101.563,M,-16.632,M,0.0,*6F
$GPRMC,123307.00,A,2753.1521950,N,11251.2196010,E,0.02,0.00,300520,0.0,E,D*31
$GPGGA,123307.00,2753.1521950,N,11251.2196010,E,4,20,1.0,101.563,M,-16.632,M,0.0,*6E
$GPRMC,123308.00,A,2753.1521950,N,11251.2196010,E,0.02,0.00,300520,0.0,E,D*3E
$GPGGA,123308.00,2753.1521950,N,11251.2196010,E,4,20,1.0,101.563,M,-16.632,M,0.0,*61
$GPRMC,123309.00,A,2753.1521950,N,11251.2196010,E,0.02,0.00,300520,0.0,E,D*3F
$GPGGA,123309.00,2753.1521950,N,11251.2196010,E,4,20,1.0,101.563,M,-16.632,M,0.0,*60
$GPRMC,123310.00,A,2753.1521950,N,11251.2196011,E,0.02,0.00,300520,0.0,E,D*36
$GPGGA,123310.00,2753.1521950,N,11251.2196011,E,4,20,1.0,101.563,M,-16.632,M,0.0,*69
$GPRMC,123311.00,A,2753.1521950,N,11251.2196010,E,0.02,0.00,300520,0.0,E,D*36
$GPGGA,123311.00,2753.1521950,N,11251.2196010,E,4,20,1.0,101.563,M,-16.632,M,0.0,*69
$GPRMC,123312.00,A,2753.1521950,N,11251.2196011,E,0.02,0.00,300520,0.0,E,D*34
$GPGGA,123312.00,2753.1521950,N,11251.2196011,E,4,20,1.0,101.563,M,-16.632,M,0.0,*6B
$GPRMC,123313.00,A,2753.1521950,N,11251.2196010,E,0.02,0.00,300520,0.0,E,D*34
$GPGGA,123313.00,2753.1521950,N,11251.2196010,E,4,20,1.0,101.563,M,-16.632,M,0.0,*6B
$GPRMC,123314.00,A,2753.1521950,N,11251.2196010,E,0.02,0.00,300520,0.0,E,D*33
$GPGGA,123314.00,2753.1521950,N,11251.2196010,E,4,20,1.0,101.563,M,-16.632,M,0.0,*6C
$GPRMC,123315.00,A,2753.1521950,N,11251.2196011,E,0.02,0.00,300520,0.0,E,D*33
$GPGGA,123315.00,2753.1521950,N,11251.2196011,E,4,20,1.0,101.563,M,-16.632,M,0.0,*6C
$GPRMC,123316.00,A,2753.1521950,N,11251.2196011,E,0.02,0.00,300520,0.0,E,D*30
$GPGGA,123316.00,2753.1521950,N,11251.2196011,E,4,20,1.0,101.563,M,-16.632,M,0.0,*6F
$GPRMC,123317.00,A,2753.1521950,N,11251.2196011,E,0.02,0.00,300520,0.0,E,D*31
$GPGGA,123317.00,2753.1521950,N,11251.2196011,E,4,20,1.0,101.563,M,-16.632,M,0.0,*6E
$GPRMC,123318.00,A,2753.1521950,N,11251.2196011,E,0.02,0.00,300520,0.0,E,D*3E
$GPGGA,123318.00,2753.1521950,N,11251.2196011,E,4,20,1.0,101.563,M,-16.632,M,0.0,*61
$GPRMC,123319.00,A,2753.1521950,N,11251.2196011,E,0.02,0.00,300520,0.0,E,D*3F
$GPGGA,123319.00,2753.1521950,N,11251.2196011,E,4,20,1.0,101.563,M,-16.632,M,0.0,*60
$GPRMC,123320.00,A,2753.1521950,N,11251.2196011,E,0.02,0.00,300520,0.0,E,D*35
$GPGGA,123320.00,2753.1521950,N,11251.2196011,E,4,20,1.0,101.563,M,-16.632,M,0.0,*6A
$GPRMC,123321.00,A,2753.1521950,N,11251.2196011,E,0.02,0.00,300520,0.0,E,D*34
$GPGGA,123321.00,2753.1521950,N,11251.2196011,E,4,20,1.0,101.563,M,-16.632,M,0.0,*6B
$GPRMC,123322.00,A,2753.1521950,N,11251.2196011,E,0.02,0.00,300520,0.0,E,D*37
$GPGGA,123322.00,2753.1521950,N,11251.2196011,E,4,20,1.0,101.563,M,-16.632,M,0.0,*68
$GPRMC,123323.00,A,2753.1521950,N,11251.2196011,E,0.02,0.00,300520,0.0,E,D*36
$GPGGA,123323.00,2753.1521950,N,11251.2196011,E,4,20,1.0,101.563,M,-16.632,M,0.0,*69
$GPRMC,123324.00,A,2753.1521950,N,11251.2196011,E,0.02,0.00,300520,0.0,E,D*31
$GPGGA,123324.00,2753.1521950,N,11251.2196011,E,4,20,1.0,101.563,M,-16.632,M,0.0,*6E
$GPRMC,123325.00,A,2753.1521950,N,11251.2196011,E,0.02,0.00,300520,0.0,E,D*30
$GPGGA,123325.00,2753.1521950,N,11251.2196011,E,4,20,1.0,101.563,M,-16.632,M,0.0,*6F
$GPRMC,123326.00,A,2753.1521950,N,11251.2196011,E,0.02,0.00,300520,0.0,E,D*33
$GPGGA,123326.00,2753.1521950,N,11251.2196011,E,4,20,1.0,101.563,M,-16.632,M,0.0,*6C
$GPRMC,123327.00,A,2753.1521950,N,11251.2196011,E,0.02,0.00,300520,0.0,E,D*32
$GPGGA,123327.00,2753.1521950,N,11251.2196011,E,4,20,1.0,101.563,M,-16.632,M,0.0,*6D
$GPRMC,123328.00,A,2753.1521950,N,11251.2196011,E,0.02,0.00,300520,0.0,E,D*3D
$GPGGA,123328.00,2753.1521950,N,11251.2196011,E,4,20,1.0,101.563,M,-16.632,M,0.0,*62
$GPRMC,123329.00,A,2753.1521950,N,11251.2196011,E,0.02,0.00,300520,0.0,E,D*3C
$GPGGA,123329.00,2753.1521950,N,11251.2196011,E,4,20,1.0,101.563,M,-16.632,M,0.0,*63
$GPRMC,123330.00,A,2753.1521950,N,11251.2196011,E,0.02,0.00,300520,0.0,E,D*34
$GPGGA,123330.00,2753.1521950,N,11251.2196011,E,4,20,1.0,101.563,M,-16.632,M,0.0,*6B
$GPRMC,123331.00,A,2753.1521950,N,11251.2196011,E,0.02,0.00,300520,0.0,E,D*35
$GPGGA,123331.00,2753.1521950,N,11251.2196011,E,4,20,1.0,101.563,M,-16.632,M,0.0,*6A
$GPRMC,123332.00,A,2753.1521950,N,11251.2196011,E,0.02,0.00,300520,0.0,E,D*36
$GPGGA,123332.00,2753.1521950,N,11251.2196011,E,4,20,1.0,101.563,M,-16.632,M,0.0,*69
$GPRMC,123333.00,A,2753.1521950,N,11251.2196011,E,0.02,0.00,300520,0.0,E,D*37
$GPGGA,123333.00,2753.1521950,N,11251.2196011,E,4,20,1.0,101.563,M,-16.632,M,0.0,*68
$GPRMC,123334.00,A,2753.1521950,N,11251.2196011,E,0.02,0.00,300520,0.0,E,D*30
$GPGGA,123334.00,2753.1521950,N,11251.2196011,E,4,20,1.0,101.563,M,-16.632,M,0.0,*6F
$GPRMC,123335.00,A,2753.1521950,N,11251.2196011,E,0.02,0.00,300520,0.0,E,D*31
$GPGGA,123335.00,2753.1521950,N,11251.2196011,E,4,20,1.0,101.563,M,-16.632,M,0.0,*6E
$GPRMC,123336.00,A,2753.1521950,N,11251.2196012,E,0.02,0.00,300520,0.0,E,D*31
$GPGGA,123336.00,2753.1521950,N,11251.2196012,E,4,20,1.0,101.563,M,-16.632,M,0.0,*6E
$GPRMC,123337.00,A,2753.1521950,N,11251.2196012,E,0.02,0.00,300520,0.0,E,D*30
$GPGGA,123337.00,2753.1521950,N,11251.2196012,E,4,20,1.0,101.563,M,-16.632,M,0.0,*6F
$GPRMC,123338.00,A,2753.1521949,N,11251.2196012,E,0.02,0.00,300520,0.0,E,D*37
$GPGGA,123338.00,2753.1521949,N,11251.2196012,E,4,20,1.0,101.563,M,-16.632,M,0.0,*68
$GPRMC,123339.00,A,2753.1521949,N,11251.2196012,E,0.02,0.00,300520,0.0,E,D*36
$GPGGA,123339.00,2753.1521949,N,11251.2196012,E,4,20,1.0,101.563,M,-16.632,M,0.0,*69
$GPRMC,123340.00,A,2753.1521949,N,11251.2196012,E,0.02,0.00,300520,0.0,E,D*38
$GPGGA,123340.00,2753.1521949,N,11251.2196012,E,4,20,1.0,101.563,M,-16.632,M,0.0,*67
$GPRMC,123341.00,A,2753.1521949,N,11251.2196012,E,0.02,0.00,300520,0.0,E,D*39
$GPGGA,123341.00,2753.1521949,N,11251.2196012,E,4,20,1.0,101.563,M,-16.632,M,0.0,*66
$GPRMC,123342.00,A,2753.1521949,N,11251.2196012,E,0.02,0.00,300520,0.0,E,D*3A
$GPGGA,123342.00,2753.1521949,N,11251.2196012,E,4,20,1.0,101.563,M,-16.632,M,0.0,*65
$GPRMC,123343.00,A,2753.1521949,N,11251.2196012,E,0.02,0.00,300520,0.0,E,D*3B
$GPGGA,123343.00,2753.1521949,N,11251.2196012,E,4,20,1.0,101.563,M,-16.632,M,0.0,*64
$GPRMC,123344.00,A,2753.1521949,N,11251.2196012,E,0.02,0.00,300520,0.0,E,D*3C
$GPGGA,123344.00,2753.1521949,N,11251.2196012,E,4,20,1.0,101.563,M,-16.632,M,0.0,*63
$GPRMC,123345.00,A,2753.1521949,N,11251.2196012,E,0.02,0.00,300520,0.0,E,D*3D
$GPGGA,123345.00,2753.1521949,N,11251.2196012,E,4,20,1.0,101.563,M,-16.632,M,0.0,*62
$GPRMC,123346.00,A,2753.1521949,N,11251.2196012,E,0.02,0.00,300520,0.0,E,D*3E
$GPGGA,123346.00,2753.1521949,N,11251.2196012,E,4,20,1.0,101.563,M,-16.632,M,0.0,*61
$GPRMC,123347.00,A,2753.1521949,N,11251.2196012,E,0.02,0.00,300520,0.0,E,D*3F
$GPGGA,123347.00,2753.1521949,N,11251.2196012,E,4,20,1.0,101.563,M,-16.632,M,0.0,*60
$GPRMC,123348.00,A,2753.1521949,N,11251.2196012,E,0.02,0.00,300520,0.0,E,D*30
$GPGGA,123348.00,2753.1521949,N,11251.2196012,E,4,20,1.0,101.563,M,-16.632,M,0.0,*6F
$GPRMC,123349.00,A,2753.1521949,N,11251.2196012,E,0.02,0.00,300520,0.0,E,D*31
$GPGGA,123349.00,2753.1521949,N,11251.2196012,E,4,20,1.0,101.563,M,-16.632,M,0.0,*6E
$GPRMC,123350.00,A,2753.1521949,N,11251.2196012,E,0.02,0.00,300520,0.0,E,D*39
$GPGGA,123350.00,2753.1521949,N,11251.2196012,E,4,20,1.0,101.563,M,-16.632,M,0.0,*66
$GPRMC,123351.00,A,2753.1521949,N,11251.2196012,E,0.02,0.00,300520,0.0,E,D*38
$GPGGA,123351.00,2753.1521949,N,11251.2196012,E,4,20,1.0,101.562,M,-16.632,M,0.0,*66
$GPRMC,123352.00,A,2753.1521950,N,11251.2196012,E,0.02,0.00,300520,0.0,E,D*33
$GPGGA,123352.00,2753.1521950,N,11251.2196012,E,4,20,1.0,101.562,M,-16.632,M,0.0,*6D
$GPRMC,123353.00,A,2753.1521950,N,11251.2196012,E,0.02,0.00,300520,0.0,E,D*32
$GPGGA,123353.00,2753.1521950,N,11251.2196012,E,4,20,1.0,101.562,M,-16.632,M,0.0,*6C
$GPRMC,123354.00,A,2753.1521950,N,11251.2196012,E,0.02,0.00,300520,0.0,E,D*35
$GPGGA,123354.00,2753.1521950,N,11251.2196012,E,4,20,1.0,101.562,M,-16.632,M,0.0,*6B
$GPRMC,123355.00,A,2753.1521950,N,11251.2196012,E,0.02,0.00,300520,0.0,E,D*34
$GPGGA,123355.00,2753.1521950,N,11251.2196012,E,4,20,1.0,101.562,M,-16.632,M,0.0,*6A
$GPRMC,123356.00,A,2753.1521950,N,11251.2196012,E,0.02,0.00,300520,0.0,E,D*37
$GPGGA,123356.00,2753.1521950,N,11251.2196012,E,4,20,1.0,101.562,M,-16.632,M,0.0,*69
$GPRMC,123357.00,A,2753.1521950,N,11251.2196012,E,0.02,0.00,300520,0.0,E,D*36
$GPGGA,123357.00,2753.1521950,N,11251.2196012,E,4,20,1.0,101.562,M,-16.632,M,0.0,*68
$GPRMC,123358.00,A,2753.1521950,N,11251.2196012,E,0.02,0.00,300520,0.0,E,D*39
$GPGGA,123358.00,2753.1521950,N,11251.2196012,E,4,20,1.0,101.562,M,-16.632,M,0.0,*67
$GPRMC,123359.00,A,2753.1521950,N,11251.2196012,E,0.02,0.00,300520,0.0,E,D*38
$GPGGA,123359.00,2753.1521950,N,11251.2196012,E,4,20,1.0,101.562,M,-16.632,M,0.0,*66
$GPRMC,123400.00,A,2753.1521950,N,11251.2196012,E,0.02,0.00,300520,0.0,E,D*33
$GPGGA,123400.00,2753.1521950,N,11251.2196012,E,4,20,1.0,101.562,M,-16.632,M,0.0,*6D
$GPRMC,123401.00,A,2753.1521950,N,11251.2196012,E,0.02,0.00,300520,0.0,E,D*32
$GPGGA,123401.00,2753.1521950,N,11251.2196012,E,4,20,1.0,101.562,M,-16.632,M,0.0,*6C
$GPRMC,123402.00,A,2753.1521950,N,11251.2196012,E,0.02,0.00,300520,0.0,E,D*31
$GPGGA,123402.00,2753.1521950,N,11251.2196012,E,4,20,1.0,101.562,M,-16.632,M,0.0,*6F
$GPRMC,123403.00,A,2753.1521950,N,11251.2196012,E,0.02,0.00,300520,0.0,E,D*30
$GPGGA,123403.00,2753.1521950,N,11251.2196012,E,4,20,1.0,101.562,M,-16.632,M,0.0,*6E
$GPRMC,123404.00,A,2753.1521950,N,11251.2196012,E,0.02,0.00,300520,0.0,E,D*37
$GPGGA,123404.00,2753.1521950,N,11251.2196012,E,4,20,1.0,101.562,M,-16.632,M,0.0,*69
$GPRMC,123405.00,A,2753.1521950,N,11251.2196012,E,0.02,0.00,300520,0.0,E,D*36
$GPGGA,123405.00,2753.1521950,N,11251.2196012,E,4,20,1.0,101.562,M,-16.632,M,0.0,*68
$GPRMC,123406.00,A,2753.1521950,N,11251.2196012,E,0.02,0.00,300520,0.0,E,D*35
$GPGGA,123406.00,2753.1521950,N,11251.2196012,E,4,20,1.0,101.562,M,-16.632,M,0.0,*6B
$GPRMC,123407.00,A,2753.1521950,N,11251.2196012,E,0.02,0.00,300520,0.0,E,D*34
$GPGGA,123407.00,2753.1521950,N,11251.2196012,E,4,20,1.0,101.562,M,-16.632,M,0.0,*6A
$GPRMC,123408.00,A,2753.1521950,N,11251.2196012,E,0.02,0.00,300520,0.0,E,D*3B
$GPGGA,123408.00,2753.1521950,N,11251.2196012,E,4,20,1.0,101.562,M,-16.632,M,0.0,*65
$GPRMC,123409.00,A,2753.1521950,N,11251.2196012,E,0.02,0.00,300520,0.0,E,D*3A
$GPGGA,123409.00,2753.1521950,N,11251.2196012,E,4,20,1.0,101.562,M,-16.632,M,0.0,*64
$GPRMC,123410.00,A,2753.1521950,N,11251.2196012,E,0.02,0.00,300520,0.0,E,D*32
$GPGGA,123410.00,2753.1521950,N,11251.2196012,E,4,20,1.0,101.562,M,-16.632,M,0.0,*6C
$GPRMC,123411.00,A,2753.1521950,N,11251.2196012,E,0.02,0.00,300520,0.0,E,D*33
$GPGGA,123411.00,2753.1521950,N,11251.2196012,E,4,20,1.0,101.562,M,-16.632,M,0.0,*6D
$GPRMC,123412.00,A,2753.1521950,N,11251.2196012,E,0.02,0.00,300520,0.0,E,D*30
$GPGGA,123412.00,2753.1521950,N,11251.2196012,E,4,20,1.0,101.562,M,-16.632,M,0.0,*6E
$GPRMC,123413.00,A,2753.1521950,N,11251.2196012,E,0.02,0.00,300520,0.0,E,D*31
$GPGGA,123413.00,2753.1521950,N,11251.2196012,E,4,20,1.0,101.562,M,-16.632,M,0.0,*6F
$GPRMC,123414.00,A,2753.1521950,N,11251.2196012,E,0.02,0.00,300520,0.0,E,D*36
$GPGGA,123414.00,2753.1521950,N,11251.2196012,E,4,20,1.0,101.562,M,-16.632,M,0.0,*68
$GPRMC,123415.00,A,2753.1521950,N,11251.2196012,E,0.02,0.00,300520,0.0,E,D*37
$GPGGA,123415.00,2753.1521950,N,11251.2196012,E,4,20,1.0,101.562,M,-16.632,M,0.0,*69
$GPRMC,123416.00,A,2753.1521950,N,11251.2196012,E,0.02,0.00,300520,0.0,E,D*34
$GPGGA,123416.00,2753.1521950,N,11251.2196012,E,4,20,1.0,101.562,M,-16.632,M,0.0,*6A
$GPRMC,123417.00,A,2753.1521950,N,11251.2196012,E,0.02,0.00,300520,0.0,E,D*35
$GPGGA,123417.00,2753.1521950,N,11251.2196012,E,4,21,1.0,101.562,M,-16.632,M,0.0,*6A
$GPRMC,123418.00,A,2753.1521950,N,11251.2196012,E,0.02,0.00,300520,0.0,E,D*3A
$GPGGA,123418.00,2753.1521950,N,11251.2196012,E,4,21,1.0,101.562,M,-16.632,M,0.0,*65
$GPRMC,123419.00,A,2753.1521950,N,11251.2196012,E,0.02,0.00,300520,0.0,E,D*3B
$GPGGA,123419.00,2753.1521950,N,11251.2196012,E,4,21,1.0,101.562,M,-16.632,M,0.0,*64
$GPRMC,123420.00,A,2753.1521950,N,11251.2196012,E,0.02,0.00,300520,0.0,E,D*31
$GPGGA,123420.00,2753.1521950,N,11251.2196012,E,4,21,1.0,101.562,M,-16.632,M,0.0,*6E
$GPRMC,123421.00,A,2753.1521951,N,11251.2196012,E,0.02,0.00,300520,0.0,E,D*31
$GPGGA,123421.00,2753.1521951,N,11251.2196012,E,4,21,1.0,101.562,M,-16.632,M,0.0,*6E
$GPRMC,123422.00,A,2753.1521951,N,11251.2196012,E,0.02,0.00,300520,0.0,E,D*32
$GPGGA,123422.00,2753.1521951,N,11251.2196012,E,4,21,1.0,101.562,M,-16.632,M,0.0,*6D
$GPRMC,123423.00,A,2753.1521951,N,11251.2196012,E,0.02,0.00,300520,0.0,E,D*33
$GPGGA,123423.00,2753.1521951,N,11251.2196012,E,4,21,1.0,101.562,M,-16.632,M,0.0,*6C
$GPRMC,123424.00,A,2753.1521951,N,11251.2196013,E,0.02,0.00,300520,0.0,E,D*35
$GPGGA,123424.00,2753.1521951,N,11251.2196013,E,4,21,1.0,101.562,M,-16.632,M,0.0,*6A
$GPRMC,123425.00,A,2753.1521951,N,11251.2196013,E,0.02,0.00,300520,0.0,E,D*34
$GPGGA,123425.00,2753.1521951,N,11251.2196013,E,4,21,1.0,101.562,M,-16.632,M,0.0,*6B
$GPRMC,123426.00,A,2753.1521951,N,11251.2196013,E,0.02,0.00,300520,0.0,E,D*37
$GPGGA,123426.00,2753.1521951,N,11251.2196013,E,4,21,1.0,101.562,M,-16.632,M,0.0,*68
$GPRMC,123427.00,A,2753.1521951,N,11251.2196012,E,0.02,0.00,300520,0.0,E,D*37
$GPGGA,123427.00,2753.1521951,N,11251.2196012,E,4,21,1.0,101.562,M,-16.632,M,0.0,*68
$GPRMC,123428.00,A,2753.1521951,N,11251.2196012,E,0.02,0.00,300520,0.0,E,D*38
$GPGGA,123428.00,2753.1521951,N,11251.2196012,E,4,21,1.0,101.562,M,-16.632,M,0.0,*67
$GPRMC,123429.00,A,2753.1521951,N,11251.2196012,E,0.02,0.00,300520,0.0,E,D*39
$GPGGA,123429.00,2753.1521951,N,11251.2196012,E,4,21,1.0,101.562,M,-16.632,M,0.0,*66
$GPRMC,123430.00,A,2753.1521951,N,11251.2196012,E,0.02,0.00,300520,0.0,E,D*31
$GPGGA,123430.00,2753.1521951,N,11251.2196012,E,4,21,1.0,101.562,M,-16.632,M,0.0,*6E
$GPRMC,123431.00,A,2753.1521951,N,11251.2196012,E,0.02,0.00,300520,0.0,E,D*30
$GPGGA,123431.00,2753.1521951,N,11251.2196012,E,4,21,1.0,101.561,M,-16.632,M,0.0,*6C
$GPRMC,123432.00,A,2753.1521951,N,11251.2196012,E,0.02,0.00,300520,0.0,E,D*33
$GPGGA,123432.00,2753.1521951,N,11251.2196012,E,4,21,1.0,101.561,M,-16.632,M,0.0,*6F
$GPRMC,123433.00,A,2753.1521951,N,11251.2196012,E,0.02,0.00,300520,0.0,E,D*32
$GPGGA,123433.00,2753.1521951,N,11251.2196012,E,4,21,1.0,101.561,M,-16.632,M,0.0,*6E
$GPRMC,123434.00,A,2753.1521951,N,11251.2196012,E,0.02,0.00,300520,0.0,E,D*35
$GPGGA,123434.00,2753.1521951,N,11251.2196012,E,4,21,1.0,101.561,M,-16.632,M,0.0,*69
$GPRMC,123435.00,A,2753.1521951,N,11251.2196012,E,0.02,0.00,300520,0.0,E,D*34
$GPGGA,123435.00,2753.1521951,N,11251.2196012,E,4,21,1.0,101.561,M,-16.632,M,0.0,*68
$GPRMC,123436.00,A,2753.1521951,N,11251.2196012,E,0.02,0.00,300520,0.0,E,D*37
$GPGGA,123436.00,2753.1521951,N,11251.2196012,E,4,21,1.0,101.561,M,-16.632,M,0.0,*6B
$GPRMC,123437.00,A,2753.1521951,N,11251.2196012,E,0.02,0.00,300520,0.0,E,D*36
$GPGGA,123437.00,2753.1521951,N,11251.2196012,E,4,21,1.0,101.561,M,-16.632,M,0.0,*6A
$GPRMC,123438.00,A,2753.1521951,N,11251.2196012,E,0.02,0.00,300520,0.0,E,D*39
$GPGGA,123438.00,2753.1521951,N,11251.2196012,E,4,21,1.0,101.561,M,-16.632,M,0.0,*65
$GPRMC,123439.00,A,2753.1521951,N,11251.2196012,E,0.02,0.00,300520,0.0,E,D*38
$GPGGA,123439.00,2753.1521951,N,11251.2196012,E,4,21,1.0,101.561,M,-16.632,M,0.0,*64
$GPRMC,123440.00,A,2753.1521951,N,11251.2196012,E,0.02,0.00,300520,0.0,E,D*36
$GPGGA,123440.00,2753.1521951,N,11251.2196012,E,4,21,1.0,101.561,M,-16.632,M,0.0,*6A
$GPRMC,123441.00,A,2753.1521951,N,11251.2196012,E,0.02,0.00,300520,0.0,E,D*37
$GPGGA,123441.00,2753.1521951,N,11251.2196012,E,4,21,1.0,101.561,M,-16.632,M,0.0,*6B
$GPRMC,123442.00,A,2753.1521951,N,11251.2196013,E,0.02,0.00,300520,0.0,E,D*35
$GPGGA,123442.00,2753.1521951,N,11251.2196013,E,4,21,1.0,101.561,M,-16.632,M,0.0,*69
$GPRMC,123443.00,A,2753.1521951,N,11251.2196012,E,0.02,0.00,300520,0.0,E,D*35
$GPGGA,123443.00,2753.1521951,N,11251.2196012,E,4,21,1.0,101.561,M,-16.632,M,0.0,*69
$GPRMC,123444.00,A,2753.1521951,N,11251.2196012,E,0.02,0.00,300520,0.0,E,D*32
$GPGGA,123444.00,2753.1521951,N,11251.2196012,E,4,21,1.0,101.561,M,-16.632,M,0.0,*6E
$GPRMC,123445.00,A,2753.1521951,N,11251.2196012,E,0.02,0.00,300520,0.0,E,D*33
$GPGGA,123445.00,2753.1521951,N,11251.2196012,E,4,21,1.0,101.561,M,-16.632,M,0.0,*6F
$GPRMC,123446.00,A,2753.1521951,N,11251.2196013,E,0.02,0.00,300520,0.0,E,D*31
$GPGGA,123446.00,2753.1521951,N,11251.2196013,E,4,21,1.0,101.561,M,-16.632,M,0.0,*6D
$GPRMC,123447.00,A,2753.1521951,N,11251.2196013,E,0.02,0.00,300520,0.0,E,D*30
$GPGGA,123447.00,2753.1521951,N,11251.2196013,E,4,21,1.0,101.561,M,-16.632,M,0.0,*6C
$GPRMC,123448.00,A,2753.1521951,N,11251.2196013,E,0.02,0.00,300520,0.0,E,D*3F
$GPGGA,123448.00,2753.1521951,N,11251.2196013,E,4,21,1.0,101.561,M,-16.632,M,0.0,*63
$GPRMC,123449.00,A,2753.1521951,N,11251.2196013,E,0.02,0.00,300520,0.0,E,D*3E
$GPGGA,123449.00,2753.1521951,N,11251.2196013,E,4,21,1.0,101.561,M,-16.632,M,0.0,*62
$GPRMC,123450.00,A,2753.1521951,N,11251.2196013,E,0.02,0.00,300520,0.0,E,D*36
$GPGGA,123450.00,2753.1521951,N,11251.2196013,E,4,21,1.0,101.561,M,-16.632,M,0.0,*6A
$GPRMC,123451.00,A,2753.1521952,N,11251.2196013,E,0.02,0.00,300520,0.0,E,D*34
$GPGGA,123451.00,2753.1521952,N,11251.2196013,E,4,21,1.0,101.561,M,-16.632,M,0.0,*68
$GPRMC,123452.00,A,2753.1521952,N,11251.2196013,E,0.02,0.00,300520,0.0,E,D*37
$GPGGA,123452.00,2753.1521952,N,11251.2196013,E,4,21,1.0,101.561,M,-16.632,M,0.0,*6B
$GPRMC,123453.00,A,2753.1521952,N,11251.2196013,E,0.02,0.00,300520,0.0,E,D*36
$GPGGA,123453.00,2753.1521952,N,11251.2196013,E,4,21,1.0,101.561,M,-16.632,M,0.0,*6A
$GPRMC,123454.00,A,2753.1521952,N,11251.2196013,E,0.02,0.00,300520,0.0,E,D*31
$GPGGA,123454.00,2753.1521952,N,11251.2196013,E,4,21,1.0,101.561,M,-16.632,M,0.0,*6D
$GPRMC,123455.00,A,2753.1521952,N,11251.2196013,E,0.02,0.00,300520,0.0,E,D*30
$GPGGA,123455.00,2753.1521952,N,11251.2196013,E,4,21,1.0,101.561,M,-16.632,M,0.0,*6C
$GPRMC,123456.00,A,2753.1521952,N,11251.2196012,E,0.02,0.00,300520,0.0,E,D*32
$GPGGA,123456.00,2753.1521952,N,11251.2196012,E,4,21,1.0,101.561,M,-16.632,M,0.0,*6E
$GPRMC,123457.00,A,2753.1521952,N,11251.2196012,E,0.02,0.00,300520,0.0,E,D*33
$GPGGA,123457.00,2753.1521952,N,11251.2196012,E,4,21,1.0,101.561,M,-16.632,M,0.0,*6F
$GPRMC,123458.00,A,2753.1521952,N,11251.2196012,E,0.02,0.00,300520,0.0,E,D*3C
$GPGGA,123458.00,2753.1521952,N,11251.2196012,E,4,21,1.0,101.561,M,-16.632,M,0.0,*60
$GPRMC,123459.00,A,2753.1521952,N,11251.2196012,E,0.02,0.00,300520,0.0,E,D*3D
$GPGGA,123459.00,2753.1521952,N,11251.2196012,E,4,21,1.0,101.561,M,-16.632,M,0.0,*61
$GPRMC,123500.00,A,2753.1521952,N,11251.2196013,E,0.02,0.00,300520,0.0,E,D*31
$GPGGA,123500.00,2753.1521952,N,11251.2196013,E,4,21,1.0,101.561,M,-16.632,M,0.0,*6D
$GPRMC,123501.00,A,2753.1521952,N,11251.2196012,E,0.02,0.00,300520,0.0,E,D*31
$GPGGA,123501.00,2753.1521952,N,11251.2196012,E,4,21,1.0,101.560,M,-16.632,M,0.0,*6C
$GPRMC,123502.00,A,2753.1521952,N,11251.2196012,E,0.02,0.00,300520,0.0,E,D*32
$GPGGA,123502.00,2753.1521952,N,11251.2196012,E,4,21,1.0,101.560,M,-16.632,M,0.0,*6F
$GPRMC,123503.00,A,2753.1521952,N,11251.2196012,E,0.02,0.00,300520,0.0,E,D*33
$GPGGA,123503.00,2753.1521952,N,11251.2196012,E,4,21,1.0,101.560,M,-16.632,M,0.0,*6E
$GPRMC,123504.00,A,2753.1521952,N,11251.2196012,E,0.02,0.00,300520,0.0,E,D*34
$GPGGA,123504.00,2753.1521952,N,11251.2196012,E,4,21,1.0,101.560,M,-16.632,M,0.0,*69
$GPRMC,123505.00,A,2753.1521952,N,11251.2196012,E,0.02,0.00,300520,0.0,E,D*35
$GPGGA,123505.00,2753.1521952,N,11251.2196012,E,4,21,1.0,101.560,M,-16.632,M,0.0,*68
$GPRMC,123506.00,A,2753.1521952,N,11251.2196012,E,0.02,0.00,300520,0.0,E,D*36
$GPGGA,123506.00,2753.1521952,N,11251.2196012,E,4,21,1.0,101.560,M,-16.632,M,0.0,*6B
$GPRMC,123507.00,A,2753.1521952,N,11251.2196012,E,0.02,0.00,300520,0.0,E,D*37
$GPGGA,123507.00,2753.1521952,N,11251.2196012,E,4,21,1.0,101.560,M,-16.632,M,0.0,*6A
$GPRMC,123508.00,A,2753.1521952,N,11251.2196012,E,0.02,0.00,300520,0.0,E,D*38
$GPGGA,123508.00,2753.1521952,N,11251.2196012,E,4,21,1.0,101.560,M,-16.632,M,0.0,*65
$GPRMC,123509.00,A,2753.1521952,N,11251.2196012,E,0.02,0.00,300520,0.0,E,D*39
$GPGGA,123509.00,2753.1521952,N,11251.2196012,E,4,21,1.0,101.560,M,-16.632,M,0.0,*64
$GPRMC,123510.00,A,2753.1521952,N,11251.2196012,E,0.02,0.00,300520,0.0,E,D*31
$GPGGA,123510.00,2753.1521952,N,11251.2196012,E,4,21,1.0,101.560,M,-16.632,M,0.0,*6C
$GPRMC,123511.00,A,2753.1521952,N,11251.2196012,E,0.02,0.00,300520,0.0,E,D*30
$GPGGA,123511.00,2753.1521952,N,11251.2196012,E,4,21,1.0,101.560,M,-16.632,M,0.0,*6D
$GPRMC,123512.00,A,2753.1521952,N,11251.2196012,E,0.02,0.00,300520,0.0,E,D*33
$GPGGA,123512.00,2753.1521952,N,11251.2196012,E,4,21,1.0,101.560,M,-16.632,M,0.0,*6E
$GPRMC,123513.00,A,2753.1521952,N,11251.2196012,E,0.02,0.00,300520,0.0,E,D*32
$GPGGA,123513.00,2753.1521952,N,11251.2196012,E,4,21,1.0,101.560,M,-16.632,M,0.0,*6F
$GPRMC,123514.00,A,2753.1521952,N,11251.2196012,E,0.02,0.00,300520,0.0,E,D*35
$GPGGA,123514.00,2753.1521952,N,11251.2196012,E,4,21,1.0,101.560,M,-16.632,M,0.0,*68
$GPRMC,123515.00,A,2753.1521952,N,11251.2196012,E,0.02,0.00,300520,0.0,E,D*34
$GPGGA,123515.00,2753.1521952,N,11251.2196012,E,4,21,1.0,101.560,M,-16.632,M,0.0,*69
$GPRMC,123516.00,A,2753.1521952,N,11251.2196012,E,0.02,0.00,300520,0.0,E,D*37
$GPGGA,123516.00,2753.1521952,N,11251.2196012,E,4,21,1.0,101.560,M,-16.632,M,0.0,*6A
$GPRMC,123517.00,A,2753.1521952,N,11251.2196013,E,0.02,0.00,300520,0.0,E,D*37
$GPGGA,123517.00,2753.1521952,N,11251.2196013,E,4,21,1.0,101.560,M,-16.632,M,0.0,*6A
$GPRMC,123518.00,A,2753.1521952,N,11251.2196013,E,0.02,0.00,300520,0.0,E,D*38
$GPGGA,123518.00,2753.1521952,N,11251.2196013,E,4,21,1.0,101.560,M,-16.632,M,0.0,*65
$GPRMC,123519.00,A,2753.1521952,N,11251.2196013,E,0.02,0.00,300520,0.0,E,D*39
$GPGGA,123519.00,2753.1521952,N,11251.2196013,E,4,21,1.0,101.560,M,-16.632,M,0.0,*64
$GPRMC,123520.00,A,2753.1521952,N,11251.2196013,E,0.02,0.00,300520,0.0,E,D*33
$GPGGA,123520.00,2753.1521952,N,11251.2196013,E,4,21,1.0,101.560,M,-16.632,M,0.0,*6E
$GPRMC,123521.00,A,2753.1521952,N,11251.2196013,E,0.02,0.00,300520,0.0,E,D*32
$GPGGA,123521.00,2753.1521952,N,11251.2196013,E,4,21,1.0,101.560,M,-16.632,M,0.0,*6F
$GPRMC,123522.00,A,2753.1521952,N,11251.2196013,E,0.02,0.00,300520,0.0,E,D*31
$GPGGA,123522.00,2753.1521952,N,11251.2196013,E,4,21,1.0,101.560,M,-16.632,M,0.0,*6C
$GPRMC,123523.00,A,2753.1521952,N,11251.2196013,E,0.02,0.00,300520,0.0,E,D*30
$GPGGA,123523.00,2753.1521952,N,11251.2196013,E,4,21,1.0,101.560,M,-16.632,M,0.0,*6D
$GPRMC,123524.00,A,2753.1521952,N,11251.2196013,E,0.02,0.00,300520,0.0,E,D*37
$GPGGA,123524.00,2753.1521952,N,11251.2196013,E,4,21,1.0,101.560,M,-16.632,M,0.0,*6A
$GPRMC,123525.00,A,2753.1521953,N,11251.2196013,E,0.02,0.00,300520,0.0,E,D*37
$GPGGA,123525.00,2753.1521953,N,11251.2196013,E,4,21,1.0,101.560,M,-16.632,M,0.0,*6A
$GPRMC,123526.00,A,2753.1521953,N,11251.2196013,E,0.02,0.00,300520,0.0,E,D*34
$GPGGA,123526.00,2753.1521953,N,11251.2196013,E,4,21,1.0,101.560,M,-16.632,M,0.0,*69
$GPRMC,123527.00,A,2753.1521953,N,11251.2196013,E,0.02,0.00,300520,0.0,E,D*35
$GPGGA,123527.00,2753.1521953,N,11251.2196013,E,4,21,1.0,101.560,M,-16.632,M,0.0,*68
$GPRMC,123528.00,A,2753.1521953,N,11251.2196013,E,0.02,0.00,300520,0.0,E,D*3A
$GPGGA,123528.00,2753.1521953,N,11251.2196013,E,4,21,1.0,101.560,M,-16.632,M,0.0,*67
$GPRMC,123529.00,A,2753.1521953,N,11251.2196013,E,0.02,0.00,300520,0.0,E,D*3B
$GPGGA,123529.00,2753.1521953,N,11251.2196013,E,4,21,1.0,101.560,M,-16.632,M,0.0,*66
$GPRMC,123530.00,A,2753.1521953,N,11251.2196013,E,0.02,0.00,300520,0.0,E,D*33
$GPGGA,123530.00,2753.1521953,N,11251.2196013,E,4,21,1.0,101.560,M,-16.632,M,0.0,*6E
$GPRMC,123531.00,A,2753.1521953,N,11251.2196013,E,0.02,0.00,300520,0.0,E,D*32
$GPGGA,123531.00,2753.1521953,N,11251.2196013,E,4,21,1.0,101.560,M,-16.632,M,0.0,*6F
$GPRMC,123532.00,A,2753.1521953,N,11251.2196013,E,0.02,0.00,300520,0.0,E,D*31
$GPGGA,123532.00,2753.1521953,N,11251.2196013,E,4,21,1.0,101.560,M,-16.632,M,0.0,*6C
$GPRMC,123533.00,A,2753.1521953,N,11251.2196013,E,0.02,0.00,300520,0.0,E,D*30
$GPGGA,123533.00,2753.1521953,N,11251.2196013,E,4,21,1.0,101.560,M,-16.632,M,0.0,*6D
$GPRMC,123534.00,A,2753.1521953,N,11251.2196013,E,0.02,0.00,300520,0.0,E,D*37
$GPGGA,123534.00,2753.1521953,N,11251.2196013,E,4,21,1.0,101.560,M,-16.632,M,0.0,*6A
$GPRMC,123535.00,A,2753.1521953,N,11251.2196013,E,0.02,0.00,300520,0.0,E,D*36
$GPGGA,123535.00,2753.1521953,N,11251.2196013,E,4,21,1.0,101.560,M,-16.632,M,0.0,*6B
$GPRMC,123536.00,A,2753.1521953,N,11251.2196013,E,0.02,0.00,300520,0.0,E,D*35
$GPGGA,123536.00,2753.1521953,N,11251.2196013,E,4,21,1.0,101.560,M,-16.632,M,0.0,*68
$GPRMC,123537.00,A,2753.1521953,N,11251.2196013,E,0.02,0.00,300520,0.0,E,D*34
$GPGGA,123537.00,2753.1521953,N,11251.2196013,E,4,21,1.0,101.560,M,-16.632,M,0.0,*69
$GPRMC,123538.00,A,2753.1521954,N,11251.2196013,E,0.02,0.00,300520,0.0,E,D*3C
$GPGGA,123538.00,2753.1521954,N,11251.2196013,E,4,21,1.0,101.560,M,-16.632,M,0.0,*61
$GPRMC,123539.00,A,2753.1521954,N,11251.2196013,E,0.02,0.00,300520,0.0,E,D*3D
$GPGGA,123539.00,2753.1521954,N,11251.2196013,E,4,21,1.0,101.560,M,-16.632,M,0.0,*60
$GPRMC,123540.00,A,2753.1521954,N,11251.2196013,E,0.02,0.00,300520,0.0,E,D*33
$GPGGA,123540.00,2753.1521954,N,11251.2196013,E,4,21,1.0,101.560,M,-16.632,M,0.0,*6E
$GPRMC,123541.00,A,2753.1521954,N,11251.2196014,E,0.02,0.00,300520,0.0,E,D*35
$GPGGA,123541.00,2753.1521954,N,11251.2196014,E,4,21,1.0,101.560,M,-16.632,M,0.0,*68
$GPRMC,123542.00,A,2753.1521954,N,11251.2196014,E,0.02,0.00,300520,0.0,E,D*36
$GPGGA,123542.00,2753.1521954,N,11251.2196014,E,4,21,1.0,101.560,M,-16.632,M,0.0,*6B
$GPRMC,123543.00,A,2753.1521954,N,11251.2196014,E,0.02,0.00,300520,0.0,E,D*37
$GPGGA,123543.00,2753.1521954,N,11251.2196014,E,4,21,1.0,101.560,M,-16.632,M,0.0,*6A
$GPRMC,123544.00,A,2753.1521954,N,11251.2196014,E,0.02,0.00,300520,0.0,E,D*30
$GPGGA,123544.00,2753.1521954,N,11251.2196014,E,4,21,1.0,101.560,M,-16.632,M,0.0,*6D
$GPRMC,123545.00,A,2753.1521954,N,11251.2196014,E,0.02,0.00,300520,0.0,E,D*31
$GPGGA,123545.00,2753.1521954,N,11251.2196014,E,4,21,1.0,101.560,M,-16.632,M,0.0,*6C
$GPRMC,123546.00,A,2753.1521954,N,11251.2196014,E,0.02,0.00,300520,0.0,E,D*32
$GPGGA,123546.00,2753.1521954,N,11251.2196014,E,4,21,1.0,101.560,M,-16.632,M,0.0,*6F
$GPRMC,123547.00,A,2753.1521954,N,11251.2196014,E,0.02,0.00,300520,0.0,E,D*33
$GPGGA,123547.00,2753.1521954,N,11251.2196014,E,4,21,1.0,101.560,M,-16.632,M,0.0,*6E
$GPRMC,123548.00,A,2753.1521955,N,11251.2196014,E,0.02,0.00,300520,0.0,E,D*3D
$GPGGA,123548.00,2753.1521955,N,11251.2196014,E,4,21,1.0,101.560,M,-16.632,M,0.0,*60
$GPRMC,123549.00,A,2753.1521955,N,11251.2196014,E,0.02,0.00,300520,0.0,E,D*3C
$GPGGA,123549.00,2753.1521955,N,11251.2196014,E,4,21,1.0,101.560,M,-16.632,M,0.0,*61
$GPRMC,123550.00,A,2753.1521955,N,11251.2196014,E,0.02,0.00,300520,0.0,E,D*34
$GPGGA,123550.00,2753.1521955,N,11251.2196014,E,4,21,1.0,101.560,M,-16.632,M,0.0,*69
$GPRMC,123551.00,A,2753.1521955,N,11251.2196014,E,0.02,0.00,300520,0.0,E,D*35
$GPGGA,123551.00,2753.1521955,N,11251.2196014,E,4,21,1.0,101.560,M,-16.632,M,0.0,*68
$GPRMC,123552.00,A,2753.1521955,N,11251.2196014,E,0.02,0.00,300520,0.0,E,D*36
$GPGGA,123552.00,2753.1521955,N,11251.2196014,E,4,21,1.0,101.560,M,-16.632,M,0.0,*6B
$GPRMC,123553.00,A,2753.1521955,N,11251.2196014,E,0.02,0.00,300520,0.0,E,D*37
$GPGGA,123553.00,2753.1521955,N,11251.2196014,E,4,21,1.0,101.560,M,-16.632,M,0.0,*6A
$GPRMC,123554.00,A,2753.1521955,N,11251.2196014,E,0.02,0.00,300520,0.0,E,D*30
$GPGGA,123554.00,2753.1521955,N,11251.2196014,E,4,21,1.0,101.560,M,-16.632,M,0.0,*6D
$GPRMC,123555.00,A,2753.1521955,N,11251.2196014,E,0.02,0.00,300520,0.0,E,D*31
$GPGGA,123555.00,2753.1521955,N,11251.2196014,E,4,21,1.0,101.560,M,-16.632,M,0.0,*6C
$GPRMC,123556.00,A,2753.1521955,N,11251.2196014,E,0.02,0.00,300520,0.0,E,D*32
$GPGGA,123556.00,2753.1521955,N,11251.2196014,E,4,21,1.0,101.560,M,-16.632,M,0.0,*6F
$GPRMC,123557.00,A,2753.1521955,N,11251.2196014,E,0.02,0.00,300520,0.0,E,D*33
$GPGGA,123557.00,2753.1521955,N,11251.2196014,E,4,21,1.0,101.560,M,-16.632,M,0.0,*6E
$GPRMC,123558.00,A,2753.1521955,N,11251.2196014,E,0.02,0.00,300520,0.0,E,D*3C
$GPGGA,123558.00,2753.1521955,N,11251.2196014,E,4,21,1.0,101.560,M,-16.632,M,0.0,*61
$GPRMC,123559.00,A,2753.1521955,N,11251.2196014,E,0.02,0.00,300520,0.0,E,D*3D
$GPGGA,123559.00,2753.1521955,N,11251.2196014,E,4,20,1.0,101.560,M,-16.632,M,0.0,*61
$GPRMC,123600.00,A,2753.1521955,N,11251.2196014,E,0.02,0.00,300520,0.0,E,D*32
$GPGGA,123600.00,2753.1521955,N,11251.2196014,E,4,21,1.0,101.560,M,-16.632,M,0.0,*6F
$GPRMC,123601.00,A,2753.1521955,N,11251.2196014,E,0.02,0.00,300520,0.0,E,D*33
$GPGGA,123601.00,2753.1521955,N,11251.2196014,E,4,21,1.0,101.560,M,-16.632,M,0.0,*6E
$GPRMC,123602.00,A,2753.1521955,N,11251.2196014,E,0.02,0.00,300520,0.0,E,D*30
$GPGGA,123602.00,2753.1521955,N,11251.2196014,E,4,21,1.0,101.560,M,-16.632,M,0.0,*6D
$GPRMC,123603.00,A,2753.1521955,N,11251.2196014,E,0.02,0.00,300520,0.0,E,D*31
$GPGGA,123603.00,2753.1521955,N,11251.2196014,E,4,21,1.0,101.560,M,-16.632,M,0.0,*6C
$GPRMC,123604.00,A,2753.1521955,N,11251.2196014,E,0.02,0.00,300520,0.0,E,D*36
$GPGGA,123604.00,2753.1521955,N,11251.2196014,E,4,21,1.0,101.560,M,-16.632,M,0.0,*6B
$GPRMC,123605.00,A,2753.1521956,N,11251.2196014,E,0.02,0.00,300520,0.0,E,D*34
$GPGGA,123605.00,2753.1521956,N,11251.2196014,E,4,21,1.0,101.560,M,-16.632,M,0.0,*69
$GPRMC,123606.00,A,2753.1521956,N,11251.2196014,E,0.02,0.00,300520,0.0,E,D*37
$GPGGA,123606.00,2753.1521956,N,11251.2196014,E,4,21,1.0,101.560,M,-16.632,M,0.0,*6A
$GPRMC,123607.00,A,2753.1521956,N,11251.2196014,E,0.02,0.00,300520,0.0,E,D*36
$GPGGA,123607.00,2753.1521956,N,11251.2196014,E,4,21,1.0,101.560,M,-16.632,M,0.0,*6B
$GPRMC,123608.00,A,2753.1521956,N,11251.2196014,E,0.02,0.00,300520,0.0,E,D*39
$GPGGA,123608.00,2753.1521956,N,11251.2196014,E,4,21,1.0,101.560,M,-16.632,M,0.0,*64
$GPRMC,123609.00,A,2753.1521956,N,11251.2196014,E,0.02,0.00,300520,0.0,E,D*38
$GPGGA,123609.00,2753.1521956,N,11251.2196014,E,4,21,1.0,101.560,M,-16.632,M,0.0,*65
$GPRMC,123610.00,A,2753.1521956,N,11251.2196014,E,0.02,0.00,300520,0.0,E,D*30
$GPGGA,123610.00,2753.1521956,N,11251.2196014,E,4,21,1.0,101.560,M,-16.632,M,0.0,*6D
$GPRMC,123611.00,A,2753.1521956,N,11251.2196014,E,0.02,0.00,300520,0.0,E,D*31
$GPGGA,123611.00,2753.1521956,N,11251.2196014,E,4,21,1.0,101.560,M,-16.632,M,0.0,*6C
$GPRMC,123612.00,A,2753.1521956,N,11251.2196014,E,0.02,0.00,300520,0.0,E,D*32
$GPGGA,123612.00,2753.1521956,N,11251.2196014,E,4,21,1.0,101.560,M,-16.632,M,0.0,*6F
$GPRMC,123613.00,A,2753.1521956,N,11251.2196014,E,0.02,0.00,300520,0.0,E,D*33
$GPGGA,123613.00,2753.1521956,N,11251.2196014,E,4,21,1.0,101.560,M,-16.632,M,0.0,*6E
$GPRMC,123614.00,A,2753.1521956,N,11251.2196014,E,0.02,0.00,300520,0.0,E,D*34
$GPGGA,123614.00,2753.1521956,N,11251.2196014,E,4,21,1.0,101.560,M,-16.632,M,0.0,*69
$GPRMC,123615.00,A,2753.1521956,N,11251.2196014,E,0.02,0.00,300520,0.0,E,D*35
$GPGGA,123615.00,2753.1521956,N,11251.2196014,E,4,21,1.0,101.560,M,-16.632,M,0.0,*68
$GPRMC,123616.00,A,2753.1521956,N,11251.2196014,E,0.02,0.00,300520,0.0,E,D*36
$GPGGA,123616.00,2753.1521956,N,11251.2196014,E,4,21,1.0,101.560,M,-16.632,M,0.0,*6B
$GPRMC,123617.00,A,2753.1521956,N,11251.2196014,E,0.02,0.00,300520,0.0,E,D*37
$GPGGA,123617.00,2753.1521956,N,11251.2196014,E,4,21,1.0,101.560,M,-16.632,M,0.0,*6A
$GPRMC,123618.00,A,2753.1521956,N,11251.2196014,E,0.02,0.00,300520,0.0,E,D*38
$GPGGA,123618.00,2753.1521956,N,11251.2196014,E,4,21,1.0,101.560,M,-16.632,M,0.0,*65
$GPRMC,123619.00,A,2753.1521956,N,11251.2196014,E,0.02,0.00,300520,0.0,E,D*39
$GPGGA,123619.00,2753.1521956,N,11251.2196014,E,4,21,1.0,101.560,M,-16.632,M,0.0,*64
$GPRMC,123620.00,A,2753.1521956,N,11251.2196014,E,0.02,0.00,300520,0.0,E,D*33
$GPGGA,123620.00,2753.1521956,N,11251.2196014,E,4,21,1.0,101.560,M,-16.632,M,0.0,*6E
$GPRMC,123621.00,A,2753.1521956,N,11251.2196014,E,0.02,0.00,300520,0.0,E,D*32
$GPGGA,123621.00,2753.1521956,N,11251.2196014,E,4,20,1.0,101.560,M,-16.632,M,0.0,*6E
$GPRMC,123622.00,A,2753.1521956,N,11251.2196014,E,0.02,0.00,300520,0.0,E,D*31
$GPGGA,123622.00,2753.1521956,N,11251.2196014,E,4,21,1.0,101.560,M,-16.632,M,0.0,*6C
$GPRMC,123623.00,A,2753.1521956,N,11251.2196014,E,0.02,0.00,300520,0.0,E,D*30
$GPGGA,123623.00,2753.1521956,N,11251.2196014,E,4,21,1.0,101.560,M,-16.632,M,0.0,*6D
$GPRMC,123624.00,A,2753.1521956,N,11251.2196014,E,0.02,0.00,300520,0.0,E,D*37
$GPGGA,123624.00,2753.1521956,N,11251.2196014,E,4,21,1.0,101.560,M,-16.632,M,0.0,*6A
$GPRMC,123625.00,A,2753.1521956,N,11251.2196014,E,0.02,0.00,300520,0.0,E,D*36
$GPGGA,123625.00,2753.1521956,N,11251.2196014,E,4,21,1.0,101.560,M,-16.632,M,0.0,*6B
$GPRMC,123626.00,A,2753.1521956,N,11251.2196014,E,0.02,0.00,300520,0.0,E,D*35
$GPGGA,123626.00,2753.1521956,N,11251.2196014,E,4,21,1.0,101.560,M,-16.632,M,0.0,*68
$GPRMC,123627.00,A,2753.1521956,N,11251.2196014,E,0.02,0.00,300520,0.0,E,D*34
$GPGGA,123627.00,2753.1521956,N,11251.2196014,E,4,21,1.0,101.560,M,-16.632,M,0.0,*69
$GPRMC,123628.00,A,2753.1521956,N,11251.2196014,E,0.02,0.00,300520,0.0,E,D*3B
$GPGGA,123628.00,2753.1521956,N,11251.2196014,E,4,21,1.0,101.560,M,-16.632,M,0.0,*66
$GPRMC,123629.00,A,2753.1521956,N,11251.2196014,E,0.02,0.00,300520,0.0,E,D*3A
$GPGGA,123629.00,2753.1521956,N,11251.2196014,E,4,21,1.0,101.560,M,-16.632,M,0.0,*67
$GPRMC,123630.00,A,2753.1521956,N,11251.2196014,E,0.02,0.00,300520,0.0,E,D*32
$GPGGA,123630.00,2753.1521956,N,11251.2196014,E,4,21,1.0,101.560,M,-16.632,M,0.0,*6F
$GPRMC,123631.00,A,2753.1521956,N,11251.2196014,E,0.02,0.00,300520,0.0,E,D*33
$GPGGA,123631.00,2753.1521956,N,11251.2196014,E,4,21,1.0,101.560,M,-16.632,M,0.0,*6E
$GPRMC,123632.00,A,2753.1521956,N,11251.2196014,E,0.02,0.00,300520,0.0,E,D*30
$GPGGA,123632.00,2753.1521956,N,11251.2196014,E,4,21,1.0,101.560,M,-16.632,M,0.0,*6D
$GPRMC,123633.00,A,2753.1521956,N,11251.2196014,E,0.02,0.00,300520,0.0,E,D*31
$GPGGA,123633.00,2753.1521956,N,11251.2196014,E,4,21,1.0,101.560,M,-16.632,M,0.0,*6C
$GPRMC,123634.00,A,2753.1521956,N,11251.2196014,E,0.02,0.00,300520,0.0,E,D*36
$GPGGA,123634.00,2753.1521956,N,11251.2196014,E,4,21,1.0,101.560,M,-16.632,M,0.0,*6B
$GPRMC,123635.00,A,2753.1521956,N,11251.2196014,E,0.02,0.00,300520,0.0,E,D*37
$GPGGA,123635.00,2753.1521956,N,11251.2196014,E,4,21,1.0,101.560,M,-16.632,M,0.0,*6A
$GPRMC,123636.00,A,2753.1521956,N,11251.2196014,E,0.02,0.00,300520,0.0,E,D*34
$GPGGA,123636.00,2753.1521956,N,11251.2196014,E,4,21,1.0,101.560,M,-16.632,M,0.0,*69
$GPRMC,123637.00,A,2753.1521956,N,11251.2196014,E,0.02,0.00,300520,0.0,E,D*35
$GPGGA,123637.00,2753.1521956,N,11251.2196014,E,4,21,1.0,101.560,M,-16.632,M,0.0,*68
$GPRMC,123638.00,A,2753.1521956,N,11251.2196014,E,0.02,0.00,300520,0.0,E,D*3A
$GPGGA,123638.00,2753.1521956,N,11251.2196014,E,4,21,1.0,101.560,M,-16.632,M,0.0,*67
$GPRMC,123639.00,A,2753.1521956,N,11251.2196014,E,0.02,0.00,300520,0.0,E,D*3B
$GPGGA,123639.00,2753.1521956,N,11251.2196014,E,4,21,1.0,101.559,M,-16.632,M,0.0,*6C
$GPRMC,123640.00,A,2753.1521956,N,11251.2196014,E,0.02,0.00,300520,0.0,E,D*35
$GPGGA,123640.00,2753.1521956,N,11251.2196014,E,4,21,1.0,101.559,M,-16.632,M,0.0,*62
$GPRMC,123641.00,A,2753.1521956,N,11251.2196014,E,0.02,0.00,300520,0.0,E,D*34
$GPGGA,123641.00,2753.1521956,N,11251.2196014,E,4,21,1.0,101.559,M,-16.632,M,0.0,*63
$GPRMC,123642.00,A,2753.1521955,N,11251.2196014,E,0.02,0.00,300520,0.0,E,D*34
$GPGGA,123642.00,2753.1521955,N,11251.2196014,E,4,21,1.0,101.559,M,-16.632,M,0.0,*63
$GPRMC,123643.00,A,2753.1521955,N,11251.2196014,E,0.02,0.00,300520,0.0,E,D*35
$GPGGA,123643.00,2753.1521955,N,11251.2196014,E,4,21,1.0,101.559,M,-16.632,M,0.0,*62
$GPRMC,123644.00,A,2753.1521955,N,11251.2196014,E,0.02,0.00,300520,0.0,E,D*32
$GPGGA,123644.00,2753.1521955,N,11251.2196014,E,4,21,1.0,101.559,M,-16.632,M,0.0,*65
