     3.02           OBSERVATION DATA    M: Mixed            RINEX VERSION / TYPE
RTKCONV 2.4.3 b33                       20200602 075854 UTC PGM / RUN BY / DATE 
log: D:\Documents\Visual Studio 2019\rtklib_portToVS\rtkli  COMMENT             
format: u-blox                                              COMMENT             
                                                            MARKER NAME         
                                                            MARKER NUMBER       
                                                            MARKER TYPE         
                                                            OBSERVER / AGENCY   
                                                            REC # / TYPE / VERS 
                                                            ANT # / TYPE        
 -2191130.1970  5198844.5539  2965372.3540                  APPROX POSITION XYZ 
        0.0000        0.0000        0.0000                  ANTENNA: DELTA H/E/N
G    4 C1C L1C D1C S1C                                      SYS / # / OBS TYPES 
C    4 C1I L1I D1I S1I                                      SYS / # / OBS TYPES 
  2020     5    30    12    31    4.0000000     GPS         TIME OF FIRST OBS   
  2020     5    30    12    44    5.0000000     GPS         TIME OF LAST OBS    
G                                                           SYS / PHASE SHIFT   
C                                                           SYS / PHASE SHIFT   
  0                                                         GLONASS SLOT / FRQ #
 C1C    0.000 C1P    0.000 C2C    0.000 C2P    0.000        GLONASS COD/PHS/BIS 
                                                            END OF HEADER       
> 2020  5 30 12 31  4.0000000  0 24                     
G 5  21416889.345   -22267031.406        -945.654          47.250  
C28  22129738.697   -32398027.9662      -1036.172          47.250  
G 2  21763802.396   -27346487.164        -564.346          43.250  
C14  25661826.870     -636619.0372      -2094.990          39.500  
G12  25691673.792    -6296173.6601      -1718.457          28.750  
G 6  24405905.662   -10666241.292       -2087.705          35.250  
G 7  25998933.108       73126.778        -357.627          31.250  
C 3  36443984.613   -13545988.0122        406.963          41.500  
G13  20412093.453   -22174614.253        1254.541          45.500  
C 9  37810311.289    -7573677.6442       1527.266          36.000  
C 8  36517416.385   -19880797.8092        934.297          44.750  
C 1  37884234.844   -12917119.3582        439.033          39.000  
C 2  37364898.739   -14213228.4542        445.947          38.000  
C 4  38844684.288   -12971568.2082        416.104          36.750  
C13  36460475.278   -26538889.2892       1082.246          46.750  
C 5  39396319.175   -13876176.4463        441.836          35.750  
G15  21171558.828   -20184906.638        2895.674          42.250  
C16  36743539.867   -18776618.8442       1222.256          43.250  
C 6  36331551.952   -18527483.1282       1036.123          43.250  
C27  22604862.198   -26123570.1562       2053.301          50.250  
G29  21554033.469   -26076259.560        1565.107          46.500  
G30  24511270.530    -9400309.282         854.814          36.500  
G25  25713900.065    -3848100.1471      -1572.158          28.500  
G18  24883909.111    -4977683.739        3416.582          38.000  
> 2020  5 30 12 31  5.0000000  0 25                     
G 5  21417068.943   -22266085.996        -945.283          47.250  
C28  22129937.665   -32396991.8132      -1036.123          47.250  
G 2  21763909.645   -27345922.931        -564.199          43.250  
C14  25662229.237     -634524.4202      -2094.463          39.500  
G12  25692002.170    -6294455.552       -1717.744          28.750  
G 6  24406303.038   -10664153.727       -2087.422          35.250  
G 7  25999001.059       73484.647        -357.783          31.000  
C 3  36443906.610   -13546395.2412        407.373          41.500  
C10  40664505.688        6724.2253       -866.182          26.750  
G13  20411854.734   -22175868.645        1254.365          45.500  
C 9  37810017.881    -7575205.1502       1527.539          36.000  
C 8  36517237.067   -19881732.4302        934.746          44.750  
C 1  37884150.559   -12917558.8182        439.580          39.000  
C 2  37364813.059   -14213674.7272        446.367          38.000  
C 4  38844604.611   -12971984.7252        416.670          36.750  
C13  36460267.481   -26539971.8792       1082.773          46.750  
C 5  39396234.332   -13876618.5742        442.217          36.000  
G15  21171007.890   -20187802.280        2895.674          42.250  
C16  36743305.057   -18777841.3092       1222.568          43.000  
C 6  36331353.020   -18528519.5072       1036.514          43.250  
C27  22604467.823   -26125623.4702       2053.340          50.250  
G29  21553735.384   -26077824.533        1564.961          46.500  
G30  24511107.894    -9401164.150         854.912          36.750  
G25  25714197.975    -3846528.473       -1571.455          28.250  
G18  24883259.056    -4981100.667        3417.129          38.000  
> 2020  5 30 12 31  6.0000000  0 25                     
G 5  21417248.925   -22265140.747        -945.156          47.250  
C28  22130136.702   -32395955.4452      -1036.367          47.000  
G 2  21764016.894   -27345358.575        -564.316          43.250  
C14  25662631.395     -632430.1792      -2094.150          39.500  
G12  25692329.955    -6292738.004       -1717.246          28.750  
G 6  24406700.345   -10662066.184       -2087.471          35.250  
G 7  25999069.010       73842.692        -358.125          31.500  
C 3  36443828.294   -13546802.7392        407.686          41.500  
C10  40664673.140        7590.1812       -865.596          26.750  
G13  20411616.260   -22177122.658        1253.945          45.500  
C 9  37809724.578    -7576732.7632       1527.725          36.000  
C 8  36517057.434   -19882667.2772        935.000          44.750  
C 1  37884066.135   -12917998.5612        439.902          39.000  
C 2  37364727.343   -14214121.2982        446.768          38.000  
C 4  38844524.584   -12972401.5202        416.865          36.500  
C13  36460059.474   -26541054.7362       1082.988          46.750  
C 5  39396149.455   -13877060.9932        442.510          35.750  
G15  21170456.533   -20190697.705        2895.459          42.250  
C16  36743070.142   -18779063.8982       1222.705          43.000  
C 6  36331154.087   -18529556.0002       1036.621          43.250  
C27  22604073.413   -26127676.6352       2053.203          50.250  
G29  21553437.718   -26079389.145        1564.600          46.500  
G30  24510945.747    -9402018.831         854.736          36.750  
G25  25714494.977    -3844957.181       -1571.104          28.750  
G18  24882608.860    -4984517.959        3417.500          38.000  
> 2020  5 30 12 31  7.0000000  0 25                     
G 5  21417428.697   -22264195.647        -945.068          47.250  
C28  22130335.669   -32394918.8472      -1036.660          47.000  
G 2  21764124.458   -27344794.100        -564.512          43.250  
C14  25663033.517     -630336.2862      -2093.828          39.250  
G12  25692656.867    -6291020.895       -1717.061          28.750  
G 6  24407097.582   -10659978.668       -2087.412          35.500  
G 7  25999136.961       74200.878        -358.242          32.000  
C 3  36443749.907   -13547210.5072        407.871          41.500  
C10  40664837.521        8455.6682       -865.459          26.500  
G13  20411377.680   -22178376.277        1253.525          45.500  
C 9  37809431.135    -7578260.5772       1527.930          36.000  
C 8  36516877.872   -19883602.3602        935.176          44.750  
C 1  37883981.746   -12918438.5332        440.029          39.000  
C 2  37364641.523   -14214568.1222        446.885          37.750  
C 4  38844444.313   -12972818.5802        417.207          36.500  
C13  36459851.572   -26542137.8812       1083.262          46.750  
C 5  39396064.472   -13877503.6842        442.812          36.000  
G15  21169905.420   -20193592.887        2895.078          42.250  
C16  36742835.436   -18780286.5902       1222.715          43.000  
C 6  36330954.980   -18530592.6112       1036.660          43.250  
C27  22603679.352   -26129729.6142       2052.930          50.250  
G29  21553140.157   -26080953.382        1564.141          46.500  
G30  24510783.250    -9402873.357         854.531          36.750  
G25  25714794.179    -3843386.183       -1571.016          28.500  
G18  24881958.526    -4987935.621        3417.812          38.000  
> 2020  5 30 12 31  8.0000000  0 25                     
G 5  21417608.678   -22263250.826        -944.932          47.250  
C28  22130534.741   -32393882.1722      -1036.895          47.000  
G 2  21764231.951   -27344229.626        -564.678          43.250  
C14  25663435.675     -628242.8362      -2093.516          39.500  
G12  25692983.640    -6289304.559       -1716.191          29.000  
G 6  24407494.888   -10657891.299       -2087.539          35.500  
G 7  25999205.401       74559.145        -358.438          31.750  
C 3  36443671.451   -13547618.6572        408.066          41.500  
C10  40665003.577        9320.7252       -865.059          26.500  
G13  20411139.171   -22179629.633        1253.076          45.750  
C 9  37809137.692    -7579788.6372       1527.949          35.750  
C 8  36516698.239   -19884537.7922        935.391          44.750  
C 1  37883897.077   -12918878.9222        440.381          39.000  
C 2  37364555.633   -14215015.3412        447.197          38.000  
C 4  38844364.251   -12973236.0102        417.373          36.750  
C13  36459643.391   -26543221.4352       1083.496          46.750  
C 5  39395979.524   -13877946.7022        442.969          35.750  
G15  21169354.342   -20196487.992        2894.873          42.250  
C16  36742600.626   -18781509.5252       1222.861          43.000  
C 6  36330755.943   -18531629.4502       1036.729          43.250  
C27  22603285.221   -26131782.5532       2052.734          50.250  
G29  21552842.491   -26082517.375        1563.711          46.750  
G30  24510620.754    -9403727.786         854.297          36.750  
G25  25715092.508    -3841815.675       -1570.713          28.250  
G18  24881308.016    -4991353.758        3418.105          38.000  
> 2020  5 30 12 31  9.0000000  0 25                     
G 5  21417788.555   -22262305.917        -944.854          47.500  
C28  22130733.814   -32392845.0482      -1037.168          47.000  
G 2  21764339.444   -27343664.807        -564.814          43.250  
C14  25663837.344     -626149.5232      -2093.193          39.250  
G12  25693308.110    -6287588.440       -1715.996          29.000  
G 6  24407892.334   -10655803.730       -2087.520          35.500  
G 7  25999273.596       74917.817        -358.711          31.750  
C 3  36443592.995   -13548026.8592        408.262          41.500  
C10  40665168.761       10185.5522       -864.697          26.250  
G13  20410900.870   -22180882.351        1252.617          45.750  
C 9  37808844.319    -7581316.6422       1528.018          35.750  
C 8  36516518.572   -19885473.2412        935.537          44.750  
C 1  37883812.304   -12919319.3202        440.479          39.000  
C 2  37364469.813   -14215462.5572        447.295          38.000  
C 4  38844283.945   -12973653.5152        417.588          36.500  
C13  36459435.384   -26544305.0392       1083.711          46.750  
C 5  39395894.507   -13878389.8292        443.281          35.750  
G15  21168803.613   -20199382.632        2894.551          42.250  
C16  36742365.642   -18782732.3402       1222.861          43.000  
C 6  36330556.801   -18532666.1992       1036.797          43.250  
C27  22602890.881   -26133835.1002       2052.510          50.250  
G29  21552545.035   -26084080.756        1563.291          46.750  
G30  24510458.153    -9404581.852         854.033          36.750  
G25  25715390.208    -3840245.270       -1570.371          28.250  
G18  24880657.542    -4994772.023        3418.398          38.000  
> 2020  5 30 12 31 10.0000000  0 25                     
G 5  21417968.432   -22261360.959        -945.137          47.500  
C28  22130933.060   -32391807.5062      -1037.832          47.000  
G 2  21764446.798   -27343099.675        -565.361          43.250  
C14  25664239.432     -624056.3132      -2093.291          39.250  
G12  25693634.533    -6285872.661       -1715.762          28.750  
G 6  24408289.641   -10653715.986       -2087.793          35.500  
G 7  25999341.757       75276.870        -359.375          31.750  
C 3  36443514.539   -13548435.1202        408.193          41.500  
C10  40665334.154       11050.2122       -864.717          26.250  
G13  20410662.710   -22182134.491        1251.826          45.750  
C 9  37808550.702    -7582844.5872       1527.793          35.750  
C 8  36516338.800   -19886408.7102        935.361          44.750  
C 1  37883727.845   -12919759.8252        440.361          39.000  
C 2  37364383.923   -14215909.8712        447.207          38.000  
C 4  38844203.570   -12974071.0492        417.480          36.500  
C13  36459227.134   -26545388.7222       1083.604          46.750  
C 5  39395809.245   -13878833.0162        443.135          35.750  
G15  21168252.745   -20202276.839        2893.945          42.250  
C16  36742130.831   -18783955.0712       1222.559          43.000  
C 6  36330357.415   -18533702.8532       1036.533          43.250  
C27  22602496.855   -26135887.2832       2051.953          50.250  
G29  21552247.613   -26085643.571        1562.539          46.750  
G30  24510295.796    -9405435.507         853.496          36.500  
G25  25715689.654    -3838674.988       -1570.371          28.500  
G18  24880006.719    -4998190.471        3418.379          37.750  
> 2020  5 30 12 31 11.0000000  0 25                     
G 5  21418148.344   -22260416.039        -945.068          47.500  
C28  22131132.446   -32390769.6392      -1038.145          47.000  
G 2  21764554.117   -27342534.299        -565.596          43.250  
C14  25664641.311     -621963.3502      -2093.018          39.500  
G12  25693961.620    -6284157.232       -1715.439          28.750  
G 6  24408687.087   -10651628.155       -2088.037          35.500  
G 7  25999410.301       75636.247        -359.668          31.500  
C 3  36443436.257   -13548843.5192        408.330          41.500  
C10  40665500.629       11914.6552       -864.326          26.250  
G13  20410424.619   -22183386.118        1251.299          45.750  
C 9  37808257.259    -7584372.5612       1527.832          35.750  
C 8  36516159.341   -19887344.3122        935.469          44.750  
C 1  37883643.281   -12920200.4702        440.566          39.000  
C 2  37364298.033   -14216357.3312        447.354          38.000  
C 4  38844123.508   -12974488.7332        417.598          36.750  
C13  36459019.092   -26546472.5542       1083.730          46.750  
C 5  39395724.402   -13879276.3192        443.193          35.750  
G15  21167701.807   -20205170.711        2893.613          42.250  
C16  36741895.951   -18785177.7972       1222.559          43.000  
C 6  36330158.413   -18534739.4862       1036.455          43.250  
C27  22602102.795   -26137939.1782       2051.670          50.250  
G29  21551950.541   -26087205.884        1562.002          46.750  
G30  24510133.265    -9406288.854         853.057          36.500  
G25  25715990.356    -3837105.024       -1570.156          29.000  
G18  24879356.140    -5001609.125        3418.506          38.000  
> 2020  5 30 12 31 12.0000000  0 25                     
G 5  21418327.941   -22259471.147        -944.883          47.500  
C28  22131331.972   -32389731.4432      -1038.311          47.000  
G 2  21764661.680   -27341968.700        -565.635          43.000  
C14  25665043.399     -619870.6332      -2092.637          39.250  
G12  25694288.951    -6282442.206       -1714.775          29.000  
G 6  24409084.324   -10649540.244       -2087.852          35.750  
G 7  25999478.427       75995.932        -359.805          31.000  
C 3  36443357.871   -13549252.0692        408.594          41.500  
C10  40665666.860       12778.7512       -863.975          26.500  
G13  20410186.633   -22184637.236        1250.967          45.750  
C 9  37807963.642    -7585900.6062       1528.037          35.750  
C 8  36515979.534   -19888280.0402        935.742          44.750  
C 1  37883558.508   -12920641.2572        440.859          39.000  
C 2  37364211.899   -14216804.9322        447.607          38.000  
C 4  38844043.272   -12974906.5952        417.969          36.500  
C13  36458810.911   -26547556.5792       1084.062          46.750  
C 5  39395638.826   -13879719.7852        443.486          35.750  
G15  21167151.287   -20208064.241        2893.389          42.250  
C16  36741661.106   -18786400.5412       1222.754          43.000  
C 6  36329959.341   -18535776.1542       1036.689          43.250  
C27  22601708.804   -26139990.7932       2051.553          50.250  
G29  21551653.259   -26088767.727        1561.689          46.750  
G30  24509970.943    -9407141.948         853.008          36.500  
G25  25716295.421    -3835535.270       -1569.521          29.500  
G18  24878705.665    -5005028.071        3419.043          37.750  
> 2020  5 30 12 31 13.0000000  0 25                     
G 5  21418507.714   -22258526.275        -944.844          47.500  
C28  22131531.428   -32388692.8892      -1038.652          47.000  
G 2  21764769.348   -27341402.839        -565.938          43.000  
C14  25665445.242     -617778.0982      -2092.441          39.250  
G12  25694615.061    -6280727.642       -1714.463          29.000  
G 6  24409481.805   -10647452.190       -2087.959          35.750  
G 7  25999547.041       76355.869        -359.990          30.500  
C 3  36443279.380   -13549660.7452        408.760          41.500  
C10  40665831.136       13642.6442       -863.721          26.500  
G13  20409948.542   -22185887.829        1250.449          45.750  
C 9  37807670.199    -7587428.7002       1528.174          35.750  
C 8  36515799.867   -19889215.8502        935.869          44.750  
C 1  37883473.805   -12921082.1702        440.986          38.750  
C 2  37364125.974   -14217252.6492        447.783          38.000  
C 4  38843962.966   -12975324.5422        418.076          36.500  
C13  36458602.730   -26548640.7392       1084.209          46.750  
C 5  39395553.495   -13880163.3422        443.662          35.750  
G15  21166600.733   -20210957.400        2893.086          42.250  
C16  36741426.296   -18787623.2512       1222.764          43.000  
C 6  36329760.164   -18536812.8072       1036.670          43.250  
C27  22601314.847   -26142042.0962       2051.240          50.250  
G29  21551356.221   -26090329.047        1561.201          46.750  
G30  24509808.586    -9407994.671         852.686          36.500  
G25  25716590.365    -3833965.741       -1569.297          29.250  
G18  24878054.737    -5008447.207        3419.238          37.750  
> 2020  5 30 12 31 14.0000000  0 25                     
G 5  21418687.695   -22257581.595        -944.717          47.250  
C28  22131730.919   -32387654.1592      -1038.877          47.000  
G 2  21764877.120   -27340836.899        -566.064          43.000  
C14  25665846.911     -615685.9742      -2092.119          39.500  
G12  25694944.137    -6279013.609       -1713.887          29.000  
G 6  24409879.216   -10645364.226       -2088.096          35.750  
G 7  25999615.551       76716.022        -360.312          30.750  
C 3  36443200.854   -13550069.7252        408.936          41.500  
C10  40665995.936       14506.0802       -863.301          26.500  
G13  20409710.591   -22187138.075        1250.010          45.750  
C 9  37807376.477    -7588956.9092       1528.174          35.500  
C 8  36515620.130   -19890151.9412        936.074          44.750  
C 1  37883389.346   -12921523.4002        441.221          39.000  
C 2  37364040.084   -14217700.6902        447.998          38.000  
C 4  38843882.625   -12975742.8282        418.281          36.500  
C13  36458394.304   -26549725.2112       1084.473          46.750  
C 5  39395468.373   -13880607.2542        443.896          35.750  
G15  21166050.283   -20213850.387        2892.822          42.250  
C16  36741191.172   -18788846.1102       1222.803          43.000  
C 6  36329561.162   -18537849.6002       1036.738          43.250  
C27  22600920.926   -26144093.2792       2051.045          50.250  
G29  21551059.079   -26091890.032        1560.771          46.750  
G30  24509646.439    -9408847.283         852.432          36.500  
G25  25716886.914    -3832396.611       -1568.994          29.250  
G18  24877403.879    -5011866.743        3419.600          37.750  
> 2020  5 30 12 31 15.0000000  0 25                     
G 5  21418867.467   -22256637.156        -944.219          47.250  
C28  22131930.549   -32386615.3102      -1038.760          47.000  
G 2  21764984.858   -27340270.944        -565.801          43.000  
C14  25666248.511     -613594.2502      -2091.387          39.250  
G12  25695270.770    -6277300.143       -1713.135          29.250  
G 6  24410276.732   -10643276.395       -2087.607          36.000  
G 7  25999684.060       77076.181        -359.990          30.500  
C 3  36443122.293   -13550479.0792        409.600          41.500  
C10  40666161.469       15369.0072       -862.803          26.500  
G13  20409472.570   -22188388.027        1250.000          45.750  
C 9  37807082.929    -7590485.4432       1528.721          35.750  
C 8  36515440.253   -19891088.3802        936.680          44.750  
C 1  37883304.538   -12921964.9792        441.758          38.750  
C 2  37363953.984   -14218149.0742        448.594          38.000  
C 4  38843802.180   -12976161.4852        418.965          36.500  
C13  36458185.914   -26550810.0792       1085.156          46.750  
C 5  39395383.216   -13881051.5182        444.541          36.000  
G15  21165499.938   -20216743.235        2892.988          42.250  
C16  36740956.118   -18790069.1872       1223.281          43.000  
C 6  36329362.090   -18538886.6392       1037.266          43.250  
C27  22600527.005   -26146144.3882       2051.240          50.250  
G29  21550761.867   -26093450.750        1560.791          46.500  
G30  24509483.907    -9409699.795         852.607          36.750  
G25  25717178.646    -3830827.871       -1568.564          29.250  
G18  24876752.777    -5015286.730        3420.312          37.750  
> 2020  5 30 12 31 16.0000000  0 25                     
G 5  21419047.030   -22255693.282        -943.691          47.500  
C28  22132130.180   -32385576.6542      -1038.564          47.000  
G 2  21765092.421   -27339705.277        -565.527          42.750  
C14  25666650.005     -611503.2972      -2090.645          39.500  
G12  25695595.833    -6275587.622       -1712.246          29.000  
G 6  24410673.969   -10641188.958       -2087.285          36.000  
G 7  25999752.535       77436.208        -359.990          30.250  
C 3  36443043.627   -13550889.0992        410.273          41.500  
C10  40666330.003       16231.2282       -861.875          26.500  
G13  20409234.654   -22189637.996        1250.000          45.750  
C 9  37806789.277    -7592014.4712       1529.180          35.750  
C 8  36515260.516   -19892025.4262        937.246          44.750  
C 1  37883219.695   -12922407.2442        442.529          39.000  
C 2  37363867.780   -14218598.1252        449.268          38.000  
C 4  38843721.525   -12976580.7962        419.473          36.500  
C13  36457977.663   -26551895.6162       1085.801          46.750  
C 5  39395297.605   -13881496.4402        445.215          36.000  
G15  21164949.593   -20219636.260        2893.096          42.500  
C16  36740721.273   -18791292.7682       1223.750          43.000  
C 6  36329162.843   -18539924.1902       1037.754          43.250  
C27  22600133.223   -26148195.7312       2051.445          50.250  
G29  21550465.108   -26095011.501        1560.801          46.750  
G30  24509321.899    -9410552.566         852.861          36.500  
G25  25717481.268    -3829259.925       -1567.451          29.250  
G18  24876101.569    -5018707.510        3421.084          37.500  
> 2020  5 30 12 31 17.0000000  0 25                     
G 5  21419226.663   -22254749.616        -943.652          47.500  
C28  22132329.741   -32384537.8272      -1038.926          47.250  
G 2  21765200.054   -27339139.548        -565.801          42.750  
C14  25667051.674     -609412.7192      -2090.566          39.250  
G12  25695919.395    -6273875.722       -1711.953          28.750  
G 6  24411070.822   -10639101.660       -2087.227          36.250  
G 7  25999820.975       77796.280        -360.352          30.500  
C 3  36442964.752   -13551299.4232        410.303          41.500  
C10  40666495.431       17092.9462       -861.465          26.250  
G13  20408997.087   -22190887.625        1249.453          45.750  
C 9  37806495.345    -7593543.7152       1529.248          35.750  
C 8  36515080.220   -19892962.7852        937.393          44.750  
C 1  37883134.712   -12922849.8192        442.529          39.000  
C 2  37363781.297   -14219047.4992        449.395          37.750  
C 4  38843641.219   -12977000.4432        419.668          36.500  
C13  36457769.308   -26552981.4812       1085.938          46.750  
C 5  39395212.238   -13881941.6702        445.303          35.750  
G15  21164399.109   -20222529.123        2892.734          42.250  
C16  36740486.288   -18792516.5192       1223.770          43.000  
C 6  36328963.562   -18540961.9092       1037.754          43.250  
C27  22599739.163   -26150246.9552       2051.143          50.250  
G29  21550168.210   -26096571.933        1560.273          46.750  
G30  24509159.438    -9411405.194         852.480          36.500  
G25  25717782.424    -3827692.395       -1567.275          29.000  
G18  24875450.467    -5022128.668        3421.240          37.500  
> 2020  5 30 12 31 18.0000000  0 25                     
G 5  21419406.295   -22253806.101        -943.457          47.500  
C28  22132529.371   -32383498.8042      -1039.082          47.250  
G 2  21765307.513   -27338573.719        -565.869          43.000  
C14  25667453.343     -607322.5252      -2090.029          39.500  
G12  25696243.760    -6272164.292       -1711.152          28.000  
G 6  24411468.128   -10637014.331       -2087.334          36.250  
G 7  25999889.415       78156.562        -360.283          30.500  
C 3  36442885.842   -13551710.0472        410.693          41.500  
C10  40666661.767       17954.2312       -860.977          26.250  
G13  20408759.345   -22192136.874        1249.150          45.500  
C 9  37806201.833    -7595073.1802       1529.551          35.500  
C 8  36514900.169   -19893900.3682        937.676          44.750  
C 1  37883049.765   -12923292.6852        442.988          39.000  
C 2  37363694.744   -14219497.1492        449.736          37.750  
C 4  38843560.355   -12977420.3522        420.078          36.500  
C13  36457560.812   -26554067.6462       1086.260          46.750  
C 5  39395126.732   -13882387.1922        445.605          35.750  
G15  21163848.554   -20225421.763        2892.607          42.500  
C16  36740251.303   -18793740.3992       1223.965          43.000  
C 6  36328764.106   -18541999.7512       1037.871          43.250  
C27  22599345.555   -26152298.0232       2051.016          50.250  
G29  21549871.173   -26098132.003        1559.941          46.750  
G30  24508997.256    -9412257.653         852.461          36.250  
G25  25718081.695    -3826125.151       -1567.217          29.250  
G18  24874799.399    -5025550.215        3421.670          37.500  
> 2020  5 30 12 31 19.0000000  0 25                     
G 5  21419585.718   -22252862.551        -943.447          47.500  
C28  22132728.932   -32382459.3692      -1039.434          47.000  
G 2  21765415.460   -27338007.555        -566.113          43.000  
C14  25667854.664     -605232.4492      -2089.902          39.500  
G12  25696569.800    -6270453.177       -1710.908          28.000  
G 6  24411865.644   -10634926.880       -2087.363          36.250  
G 7  25999957.889       78517.187        -360.576          30.500  
C 3  36442807.037   -13552120.7202        410.840          41.500  
C10  40666826.916       18815.3642       -860.947          26.500  
G13  20408521.673   -22193385.542        1248.633          45.750  
C 9  37805907.901    -7596602.5312       1529.463          35.750  
C 8  36514720.048   -19894838.0002        937.764          44.750  
C 1  37882964.677   -12923735.6422        443.105          39.000  
C 2  37363608.435   -14219946.8662        449.824          37.750  
C 4  38843479.944   -12977840.3222        420.195          36.500  
C13  36457352.212   -26555153.9002       1086.436          46.500  
C 5  39395041.156   -13882832.7812        445.889          35.500  
G15  21163298.384   -20228313.981        2892.266          42.500  
C16  36740016.284   -18794964.2072       1223.936          43.000  
C 6  36328565.138   -18543037.5192       1037.900          43.250  
C27  22598951.739   -26154348.7442       2050.732          50.250  
G29  21549574.728   -26099691.499        1559.463          46.750  
G30  24508834.864    -9413109.741         852.158          36.250  
G25  25718378.977    -3824558.089       -1566.914          29.250  
G18  24874148.332    -5028971.941        3421.836          37.500  
> 2020  5 30 12 31 20.0000000  0 25                     
G 5  21419765.316   -22251919.119        -943.428          47.500  
C28  22132928.562   -32381419.6932      -1039.775          47.250  
G 2  21765523.232   -27337441.259        -566.357          42.750  
C14  25668256.019     -603142.7082      -2089.648          39.250  
G12  25696895.316    -6268742.573       -1710.410          28.000  
G 6  24412263.125   -10632839.440       -2087.402          36.250  
G 7  26000025.561       78877.985        -361.045          30.750  
C 3  36442728.162   -13552531.6422        411.006          41.500  
C10  40666992.344       19676.0792       -860.664          26.500  
G13  20408284.175   -22194633.792        1248.125          45.750  
C 9  37805614.179    -7598132.0412       1529.492          35.750  
C 8  36514540.171   -19895775.8342        937.871          44.750  
C 1  37882879.450   -12924178.8022        443.213          38.750  
C 2  37363522.161   -14220396.8282        449.980          37.750  
C 4  38843399.254   -12978260.5732        420.264          36.500  
C13  36457143.438   -26556240.3972       1086.533          46.750  
C 5  39394955.476   -13883278.6072        445.889          35.750  
G15  21162748.039   -20231205.949        2891.914          42.500  
C16  36739781.369   -18796188.0812       1223.887          43.000  
C 6  36328365.822   -18544075.3732       1037.891          43.250  
C27  22598557.957   -26156399.2562       2050.439          50.250  
G29  21549278.075   -26101250.607        1558.965          46.750  
G30  24508672.996    -9413961.614         851.846          36.250  
G25  25718673.990    -3822991.392       -1566.670          29.750  
G18  24873497.159    -5032393.959        3422.080          37.500  
> 2020  5 30 12 31 21.0000000  0 25                     
G 5  21419944.913   -22250975.769        -943.301          47.500  
C28  22133128.193   -32380379.7742      -1039.951          47.250  
G 2  21765631.005   -27336874.795        -566.523          43.000  
C14  25668657.199     -601053.2752      -2089.268          39.500  
G12  25697218.808    -6267032.471       -1710.059          28.250  
G 6  24412660.327   -10630751.958       -2087.480          36.250  
G 7  26000095.467       79239.106        -361.055          31.250  
C 3  36442649.252   -13552942.7902        411.211          41.250  
C10  40667156.550       20536.5172       -860.430          26.250  
G13  20408046.643   -22195881.619        1247.754          45.750  
C 9  37805320.283    -7599661.6822       1529.541          35.500  
C 8  36514359.910   -19896713.8712        938.145          44.750  
C 1  37882794.363   -12924622.2282        443.516          38.750  
C 2  37363435.573   -14220847.0382        450.352          37.750  
C 4  38843318.564   -12978681.0182        420.518          36.500  
C13  36456934.803   -26557327.1502       1086.875          46.750  
C 5  39394869.691   -13883724.6702        446.240          35.750  
G15  21162198.043   -20234097.654        2891.670          42.500  
C16  36739546.419   -18797412.0462       1224.043          43.000  
C 6  36328166.366   -18545113.3312       1038.008          43.250  
C27  22598164.280   -26158449.5662       2050.264          50.250  
G29  21548981.351   -26102809.294        1558.584          46.750  
G30  24508510.604    -9414813.246         851.582          36.250  
G25  25718973.017    -3821424.983       -1566.348          29.500  
G18  24872846.022    -5035816.324        3422.441          37.750  
> 2020  5 30 12 31 22.0000000  0 25                     
G 5  21420124.511   -22250032.442        -943.262          47.750  
C28  22133328.137   -32379339.4892      -1040.322          47.000  
G 2  21765738.882   -27336308.090        -566.689          43.000  
C14  25669058.449     -598964.0252      -2089.102          39.250  
G12  25697543.277    -6265322.751       -1709.531          28.000  
G 6  24413057.564   -10628664.367       -2087.490          36.500  
G 7  26000164.430       79600.469        -361.299          31.500  
C 3  36442570.342   -13553354.0552        411.406          41.250  
C10  40667320.652       21396.6812       -860.215          26.000  
G13  20407809.390   -22197128.903        1247.217          45.750  
C 9  37805026.665    -7601191.3622       1529.795          35.500  
C 8  36514179.754   -19897652.0212        938.281          44.750  
C 1  37882709.171   -12925065.7632        443.672          39.000  
C 2  37363349.125   -14221297.3522        450.410          37.750  
C 4  38843237.665   -12979101.6172        420.703          36.500  
C13  36456725.959   -26558414.0212       1087.002          46.750  
C 5  39394784.115   -13884170.8472        446.250          35.500  
G15  21161648.047   -20236988.985        2891.299          42.500  
C16  36739311.295   -18798635.9782       1224.004          43.000  
C 6  36327967.189   -18546151.2492       1037.998          43.250  
C27  22597770.464   -26160499.5672       2050.000          50.250  
G29  21548684.872   -26104367.452        1558.086          46.750  
G30  24508348.561    -9415664.608         851.396          36.250  
G25  25719273.440    -3819858.826       -1565.938          29.250  
G18  24872194.919    -5039238.922        3422.695          37.750  
> 2020  5 30 12 31 23.0000000  0 25                     
G 5  21420303.655   -22249089.348        -942.900          47.750  
C28  22133527.838   -32378299.0712      -1040.332          47.250  
G 2  21765846.654   -27335741.337        -566.660          43.000  
C14  25669459.665     -596875.2082      -2088.652          39.250  
G12  25697869.562    -6263613.654       -1708.809          27.500  
G 6  24413455.080   -10626576.878       -2087.363          36.250  
G 7  26000233.254       79961.957        -361.426          31.750  
C 3  36442491.328   -13553765.6682        411.807          41.250  
C10  40667484.091       22256.3542       -859.512          26.250  
G13  20407572.137   -22198375.884        1246.982          45.750  
C 9  37804732.908    -7602721.2442       1530.020          35.500  
C 8  36513999.493   -19898590.4532        938.613          44.750  
C 1  37882623.909   -12925509.6382        444.072          38.750  
C 2  37363262.467   -14221748.0082        450.918          38.000  
C 4  38843156.871   -12979522.5502        421.162          36.500  
C13  36456517.289   -26559501.2722       1087.490          46.500  
C 5  39394698.190   -13884617.3722        446.807          35.750  
G15  21161097.702   -20239880.174        2891.250          42.500  
C16  36739076.171   -18799860.1092       1224.336          43.000  
C 6  36327767.873   -18547189.3672       1038.271          43.250  
C27  22597376.613   -26162549.4692       2049.980          50.500  
G29  21548388.393   -26105925.336        1557.881          46.750  
G30  24508186.623    -9416515.827         851.279          36.250  
G25  25719570.303    -3818293.099       -1565.557          29.000  
G18  24871543.538    -5042661.929        3423.232          37.750  
> 2020  5 30 12 31 24.0000000  0 25                     
G 5  21420483.148   -22248146.324        -943.027          47.750  
C28  22133727.887   -32377258.3462      -1040.830          47.000  
G 2  21765954.671   -27335174.367        -567.031          42.750  
C14  25669860.776     -594786.6602      -2088.486          39.250  
G12  25698193.542    -6261904.917       -1708.477          27.750  
G 6  24413852.212   -10624489.335       -2087.539          36.250  
G 7  26000303.857       80323.686        -361.787          31.750  
C 3  36442412.174   -13554177.4632        411.768          41.500  
C10  40667648.995       23115.7792       -859.170          26.250  
G13  20407334.953   -22199622.383        1246.348          45.750  
C 9  37804439.291    -7604251.2022       1529.941          35.750  
C 8  36513819.372   -19899529.0602        938.662          44.750  
C 1  37882538.787   -12925953.6852        444.053          38.750  
C 2  37363175.879   -14222198.8342        450.947          37.750  
C 4  38843076.076   -12979943.6582        421.182          36.500  
C13  36456308.375   -26560588.7292       1087.490          46.750  
C 5  39394612.579   -13885064.0672        446.748          35.750  
G15  21160547.392   -20242771.050        2890.781          42.500  
C16  36738841.012   -18801084.2592       1224.131          43.000  
C 6  36327568.591   -18548227.5322       1038.164          43.250  
C27  22596983.215   -26164599.1312       2049.580          50.500  
G29  21548091.983   -26107482.744        1557.266          46.750  
G30  24508024.615    -9417366.783         850.820          36.250  
G25  25719867.725    -3816727.576       -1565.283          28.750  
G18  24870892.400    -5046085.250        3423.379          38.000  
> 2020  5 30 12 31 25.0000000  0 25                     
G 5  21420662.536   -22247203.488        -942.656          47.750  
C28  22133927.832   -32376217.4442      -1040.830          47.000  
G 2  21766062.583   -27334607.337        -566.953          42.750  
C14  25670261.851     -592698.4822      -2087.900          39.250  
G12  25698517.802    -6260196.830       -1707.578          27.750  
G 6  24414249.553   -10622401.870       -2087.324          36.250  
G 7  26000372.995       80685.603        -361.855          31.750  
C 3  36442333.159   -13554589.5582        412.324          41.500  
C10  40667812.574       23974.7372       -858.730          26.250  
G13  20407097.770   -22200868.526        1246.133          45.750  
C 9  37804145.429    -7605781.3632       1530.342          35.500  
C 8  36513639.041   -19900467.9222        939.072          44.750  
C 1  37882453.456   -12926398.0762        444.619          38.750  
C 2  37363089.152   -14222649.9832        451.348          38.000  
C 4  38842995.317   -12980365.0782        421.641          36.500  
C13  36456099.391   -26561676.4922       1087.979          46.750  
C 5  39394526.619   -13885511.0762        447.197          35.750  
G15  21159997.605   -20245661.745        2890.742          42.500  
C16  36738605.783   -18802308.5632       1224.414          43.000  
C 6  36327369.030   -18549265.8512       1038.467          43.250  
C27  22596589.433   -26166648.6552       2049.590          50.500  
G29  21547795.539   -26109039.832        1557.119          46.750  
G30  24507862.852    -9418217.652         851.016          36.250  
G25  25720172.755    -3815162.494       -1564.941          28.750  
G18  24870240.739    -5049508.955        3424.033          38.000  
> 2020  5 30 12 31 26.0000000  0 25                     
G 5  21420842.064   -22246260.815        -942.559          47.750  
C28  22134127.637   -32375176.3482      -1041.084          47.000  
G 2  21766170.321   -27334040.174        -567.148          42.750  
C14  25670662.962     -590610.6612      -2087.676          39.250  
G12  25698840.945    -6258489.183       -1707.559          27.500  
G 6  24414646.685   -10620314.436       -2087.354          36.250  
G 7  26000442.203       81047.671        -362.002          31.500  
C 3  36442253.865   -13555001.9402        412.529          41.250  
C10  40667977.723       24833.2082       -858.447          26.250  
G13  20406860.656   -22202114.302        1245.703          45.750  
C 9  37803851.602    -7607311.6592       1530.420          35.750  
C 8  36513458.885   -19901407.0422        939.248          44.750  
C 1  37882368.054   -12926842.7132        444.814          38.750  
C 2  37363002.389   -14223101.4112        451.572          38.000  
C 4  38842914.243   -12980786.7562        421.865          36.500  
C13  36455890.477   -26562764.5592       1088.203          46.500  
C 5  39394440.729   -13885958.4042        447.529          35.750  
G15  21159447.365   -20248552.234        2890.518          42.500  
C16  36738370.589   -18803532.9982       1224.521          43.000  
C 6  36327169.505   -18550304.3082       1038.545          43.250  
C27  22596195.896   -26168698.0292       2049.385          50.250  
G29  21547499.200   -26110596.553        1556.689          46.750  
G30  24507700.949    -9419068.282         850.615          36.250  
G25  25720468.571    -3813597.743       -1564.697          28.750  
G18  24869589.183    -5052932.983        3424.189          37.750  
> 2020  5 30 12 31 27.0000000  0 25                     
G 5  21421021.383   -22245318.514        -942.412          47.750  
C28  22134327.407   -32374135.2542      -1041.299          47.000  
G 2  21766278.303   -27333473.126        -567.227          42.750  
C14  25671063.654     -588523.3872      -2087.295          39.250  
G12  25699167.858    -6256782.287       -1706.875          27.500  
G 6  24415043.957   -10618227.231       -2087.324          36.250  
G 7  26000509.491       81409.688        -362.236          31.500  
C 3  36442174.571   -13555414.7862        412.754          41.250  
C10  40668141.685       25691.1772       -858.018          26.250  
G13  20406623.578   -22203359.891        1245.303          45.750  
C 9  37803557.601    -7608842.3452       1530.674          35.500  
C 8  36513278.555   -19902346.6162        939.561          44.750  
C 1  37882282.583   -12927287.8602        445.127          38.750  
C 2  37362915.627   -14223553.2952        451.816          37.750  
C 4  38842833.099   -12981208.9382        422.197          36.500  
C13  36455681.563   -26563853.0992       1088.525          46.500  
C 5  39394354.735   -13886406.1122        447.686          36.000  
G15  21158897.509   -20251442.692        2890.273          42.500  
C16  36738135.499   -18804757.7682       1224.688          43.000  
C 6  36326970.293   -18551343.0762       1038.701          43.250  
C27  22595802.463   -26170747.4392       2049.219          50.250  
G29  21547202.790   -26112153.111        1556.318          46.750  
G30  24507539.150    -9419918.957         850.547          36.250  
G25  25720761.106    -3812033.536       -1564.180          28.500  
G18  24868937.522    -5056357.639        3424.668          38.000  
> 2020  5 30 12 31 28.0000000  0 25                     
G 5  21421200.771   -22244376.003        -942.520          47.750  
C28  22134527.456   -32373093.5642      -1041.777          47.000  
G 2  21766386.111   -27332905.585        -567.676          42.750  
C14  25671464.241     -586436.1042      -2087.207          39.250  
G12  25699492.153    -6255075.568       -1706.719          27.750  
G 6  24415441.229   -10616139.716       -2087.500          36.250  
G 7  26000578.524       81772.284        -362.744          31.000  
C 3  36442095.243   -13555827.5592        412.832          41.500  
C10  40668308.928       26549.1242       -857.852          26.250  
G13  20406386.848   -22204604.726        1244.658          45.750  
C 9  37803263.670    -7610372.8402       1530.508          35.500  
C 8  36513098.050   -19903286.0612        939.473          44.750  
C 1  37882196.903   -12927732.8922        445.127          38.750  
C 2  37362829.143   -14224005.0732        451.816          37.750  
C 4  38842752.200   -12981631.0112        422.061          36.500  
C13  36455472.370   -26564941.5742       1088.506          46.500  
C 5  39394268.775   -13886853.7692        447.656          35.750  
G15  21158347.548   -20254332.557        2889.766          42.500  
C16  36737900.305   -18805982.2752       1224.473          43.000  
C 6  36326770.977   -18552381.6062       1038.535          43.250  
C27  22595409.031   -26172796.3212       2048.770          50.250  
G29  21546906.974   -26113708.923        1555.664          46.750  
G30  24507377.038    -9420769.115         850.020          36.000  
G25  25721063.100    -3810469.347       -1564.180          28.500  
G18  24868285.861    -5059782.256        3424.658          38.000  
> 2020  5 30 12 31 29.0000000  0 25                     
G 5  21421380.089   -22243433.169        -943.057          47.750  
C28  22134727.645   -32372051.1862      -1042.695          47.000  
G 2  21766494.302   -27332337.459        -568.457          42.750  
C14  25671865.038     -584348.6822      -2087.627          39.250  
G12  25699819.623    -6253368.919       -1706.680          28.500  
G 6  24415838.605   -10614051.705       -2088.281          36.500  
G 7  26000647.243       82135.556        -363.467          30.750  
C 3  36442015.809   -13556240.1062        412.393          41.250  
C10  40668476.380       27407.1442       -858.193          26.500  
G13  20406150.153   -22205848.682        1243.584          45.750  
C 9  37802969.738    -7611902.9662       1529.961          35.500  
C 8  36512917.824   -19904225.2742        939.004          44.750  
C 1  37882111.397   -12928177.6962        444.551          38.750  
C 2  37362742.451   -14224456.6392        451.338          37.750  
C 4  38842671.301   -12982052.8862        421.758          36.500  
C13  36455263.561   -26566029.8272       1088.096          46.500  
C 5  39394182.990   -13887301.2192        447.148          35.750  
G15  21157797.552   -20257221.731        2888.838          42.500  
C16  36737665.181   -18807206.4282       1223.936          43.000  
C 6  36326571.660   -18553419.7842       1037.920          43.250  
C27  22595015.668   -26174844.5552       2047.900          50.250  
G29  21546610.879   -26115263.893        1554.580          46.500  
G30  24507215.414    -9421618.599         849.209          36.250  
G25  25721359.160    -3808905.029       -1564.570          28.000  
G18  24867634.549    -5063206.765        3424.355          38.000  
> 2020  5 30 12 31 30.0000000  0 25                     
G 5  21421559.443   -22242489.901        -943.271          47.750  
C28  22134928.043   -32371008.0312      -1043.271          47.000  
G 2  21766602.528   -27331768.621        -568.926          42.750  
C14  25672265.904     -582261.0292      -2087.646          39.250  
G12  25700144.896    -6251662.217       -1706.582          28.500  
G 6  24416235.981   -10611963.150       -2088.643          36.250  
G 7  26000716.311       82499.529        -364.033          30.500  
C 3  36441936.865   -13556652.3272        412.266          41.250  
C10  40668642.332       28265.3122       -858.135          26.750  
G13  20405913.738   -22207091.668        1242.803          45.500  
C 9  37802675.911    -7613432.7092       1529.824          35.750  
C 8  36512737.493   -19905164.1432        938.877          44.750  
C 1  37882026.065   -12928622.2462        444.570          38.750  
C 2  37362655.723   -14224907.8962        451.230          37.750  
C 4  38842590.227   -12982474.4392        421.543          36.500  
C13  36455054.577   -26567117.8242       1088.047          46.500  
C 5  39394097.065   -13887748.3722        447.148          35.750  
G15  21157247.870   -20260110.082        2888.223          42.500  
C16  36737430.371   -18808430.1252       1223.721          43.000  
C 6  36326372.379   -18554457.5102       1037.705          43.500  
C27  22594622.514   -26176892.0462       2047.383          50.250  
G29  21546315.167   -26116817.912        1553.877          46.500  
G30  24507053.860    -9422467.323         848.691          36.250  
G25  25721655.290    -3807340.433       -1564.395          28.000  
G18  24866982.993    -5066631.054        3424.375          38.000  
> 2020  5 30 12 31 31.0000000  0 24                     
G 5  21421739.075   -22241546.425        -943.496          47.750  
C28  22135128.581   -32369964.2802      -1043.857          47.000  
G 2  21766710.650   -27331199.299        -569.482          42.750  
C14  25672667.050     -580173.3432      -2087.715          39.000  
G12  25700469.923    -6249955.589       -1706.494          28.500  
G 6  24416633.393   -10609874.283       -2088.955          36.250  
G 7  26000785.413       82864.103        -364.639          30.250  
C 3  36441857.780   -13557064.4422        412.119          41.250  
C10  40668808.527       29123.4682       -857.881          26.500  
G13  20405677.392   -22208333.914        1242.080          45.500  
C 9  37802382.050    -7614962.2042       1529.453          35.750  
C 8  36512557.163   -19906102.8452        938.711          44.750  
C 1  37881940.733   -12929066.6532        444.424          38.750  
C 2  37362569.065   -14225359.0782        451.162          38.000  
C 4  38842509.293   -12982895.8872        421.465          36.500  
C13  36454845.593   -26568205.7262       1087.910          46.500  
C 5  39394011.245   -13888195.4422        447.061          35.500  
G15  21156698.362   -20262997.831        2887.607          42.500  
C16  36737195.456   -18809653.5462       1223.389          43.000  
C 6  36326173.202   -18555494.9832       1037.412          43.250  
C27  22594229.256   -26178939.0022       2046.836          50.250  
G29  21546019.700   -26118371.178        1553.096          46.500  
G30  24506892.655    -9423315.476         848.018          36.500  
G18  24866331.193    -5070055.340        3424.346          38.000  
> 2020  5 30 12 31 32.0000000  0 25                     
G 5  21421918.638   -22240602.911        -943.545          48.000  
C28  22135328.979   -32368920.1352      -1044.307          47.000  
G 2  21766818.841   -27330629.664        -569.756          42.750  
C14  25673067.672     -578085.8262      -2087.520          39.000  
G12  25700795.021    -6248249.353       -1706.162          28.000  
G 6  24417030.699   -10607785.228       -2089.102          36.250  
G 7  26000853.295       83229.010        -365.010          30.000  
C 3  36441778.556   -13557476.6662        412.217          41.250  
C10  40668971.861       29981.4722       -858.066          26.500  
G13  20405440.907   -22209575.556        1241.436          45.500  
C 9  37802088.328    -7616491.6902       1529.355          35.500  
C 8  36512376.937   -19907041.6212        938.721          44.750  
C 1  37881855.542   -12929511.1642        444.541          38.750  
C 2  37362482.442   -14225810.3152        451.201          37.750  
C 4  38842428.254   -12983317.4472        421.533          36.250  
C13  36454636.644   -26569293.7042       1087.969          46.500  
C 5  39393925.355   -13888642.5172        447.109          35.750  
G15  21156149.065   -20265885.192        2887.217          42.500  
C16  36736960.437   -18810876.8902       1223.311          43.000  
C 6  36325974.025   -18556532.3852       1037.363          43.250  
C27  22593836.243   -26180985.6032       2046.455          50.250  
G29  21545724.198   -26119923.872        1552.451          46.500  
G30  24506731.380    -9424163.244         847.529          36.500  
G25  25722248.004    -3804211.5213      -1564.170          27.500  
G18  24865679.671    -5073479.765        3424.404          38.000  
> 2020  5 30 12 31 33.0000000  0 25                     
G 5  21422098.270   -22239659.001        -944.004          48.000  
C28  22135529.482   -32367875.2282      -1045.127          47.000  
G 2  21766927.346   -27330059.364        -570.488          42.750  
C14  25673468.608     -575998.1032      -2087.764          39.000  
G12  25701122.701    -6246543.112       -1706.211          28.250  
G 6  24417428.145   -10605695.653       -2089.824          36.000  
G 7  26000921.141       83594.650        -365.908          30.750  
C 3  36441699.542   -13557888.5912        411.855          41.250  
C10  40669135.928       30839.5382       -858.223          26.500  
G13  20405204.666   -22210816.264        1240.420          45.500  
C 9  37801794.536    -7618020.8232       1528.975          35.500  
C 8  36512196.676   -19907980.0802        938.359          44.750  
C 1  37881770.140   -12929955.3712        444.189          38.750  
C 2  37362395.785   -14226261.2862        450.889          37.750  
C 4  38842347.495   -12983738.7052        421.211          36.500  
C13  36454427.765   -26570381.4322       1087.656          46.500  
C 5  39393839.674   -13889089.3422        446.787          35.750  
G15  21155599.592   -20268771.754        2886.367          42.500  
C16  36736725.766   -18812099.8242       1222.793          43.000  
C 6  36325774.883   -18557569.3642       1036.875          43.250  
C27  22593443.264   -26183031.4822       2045.693          50.250  
G29  21545428.941   -26121475.664        1551.533          46.500  
G30  24506570.419    -9425010.319         846.836          36.250  
G25  25722541.098    -3802646.8992      -1564.609          27.500  
G18  24865028.080    -5076904.020        3424.209          38.250  
> 2020  5 30 12 31 34.0000000  0 25                     
G 5  21422278.147   -22238714.741        -944.316          48.000  
C28  22135730.265   -32366829.6192      -1045.742          47.000  
G 2  21767035.782   -27329488.450        -571.045          42.750  
C14  25673869.370     -573910.2382      -2087.832          39.000  
G12  25701446.821    -6244836.797       -1706.270          28.000  
G 6  24417825.592   -10603605.623       -2090.186          36.000  
G 7  26000995.549       83961.017        -366.699          31.000  
C 3  36441620.352   -13558300.2952        411.660          41.500  
C10  40669301.112       31697.8222       -858.047          26.250  
G13  20404968.669   -22212056.089        1239.600          45.500  
C 9  37801500.744    -7619549.5362       1528.711          35.500  
C 8  36512016.485   -19908918.2802        938.145          44.750  
C 1  37881684.739   -12930399.3662        444.004          38.750  
C 2  37362309.266   -14226712.0202        450.615          37.750  
C 4  38842266.595   -12984159.7422        421.016          36.500  
C13  36454218.747   -26571468.9592       1087.500          46.500  
C 5  39393753.854   -13889535.9592        446.602          35.500  
G15  21155050.364   -20271657.588        2885.654          42.500  
C16  36736491.130   -18813322.3732       1222.441          43.000  
C 6  36325575.637   -18558605.9612       1036.533          43.500  
C27  22593050.564   -26185076.6992       2045.059          50.250  
G29  21545133.613   -26123026.576        1550.693          46.500  
G30  24506409.284    -9425856.718         846.250          36.500  
G25  25722838.136    -3801082.0732      -1565.039          27.500  
G18  24864376.559    -5080328.142        3424.062          38.000  
> 2020  5 30 12 31 35.0000000  0 25                     
G 5  21422457.640   -22237770.294        -944.590          48.000  
C28  22135931.117   -32365783.4562      -1046.406          47.000  
G 2  21767144.462   -27328917.067        -571.602          42.750  
C14  25674270.306     -571822.3432      -2087.949          39.000  
G12  25701770.244    -6243130.817       -1705.928          27.500  
G 6  24418223.282   -10601515.272       -2090.469          36.000  
G 7  26001063.605       84327.809        -366.934          31.250  
C 3  36441541.163   -13558711.9282        411.514          41.250  
C10  40669466.087       32555.9462       -858.076          26.500  
G13  20404732.707   -22213295.180        1238.799          45.500  
C 9  37801207.127    -7621078.0922       1528.389          35.500  
C 8  36511836.608   -19909856.3642        938.018          44.750  
C 1  37881599.372   -12930843.2962        443.867          38.750  
C 2  37362222.364   -14227162.7072        450.654          37.750  
C 4  38842185.871   -12984580.7002        420.791          36.250  
C13  36454009.902   -26572556.3892       1087.334          46.500  
C 5  39393668.034   -13889982.4902        446.426          35.750  
G15  21154501.345   -20274542.873        2885.029          42.500  
C16  36736256.390   -18814544.6942       1222.158          42.750  
C 6  36325376.669   -18559642.3542       1036.270          43.250  
C27  22592658.004   -26187121.4192       2044.512          50.250  
G29  21544838.460   -26124576.759        1549.912          46.500  
G30  24506248.288    -9426702.595         845.625          36.250  
G25  25723137.233    -3799517.3802      -1564.785          27.500  
G18  24863724.898    -5083752.271        3424.062          38.250  
> 2020  5 30 12 31 36.0000000  0 25                     
G 5  21422637.726   -22236825.454        -944.912          48.000  
C28  22136132.143   -32364736.5312      -1047.090          47.000  
G 2  21767253.177   -27328345.020        -572.197          42.750  
C14  25674671.312     -569734.2942      -2088.096          39.000  
G12  25702094.678    -6241424.603       -1706.260          27.250  
G 6  24418620.972   -10599424.393       -2090.918          36.000  
G 7  26001133.266       84695.383        -367.510          31.500  
C 3  36441462.219   -13559123.2702        411.309          41.250  
C10  40669631.166       33414.3042       -858.418          26.250  
G13  20404497.234   -22214533.332        1237.930          45.250  
C 9  37800913.579    -7622606.2952       1528.145          35.500  
C 8  36511656.487   -19910794.1572        937.754          44.750  
C 1  37881514.215   -12931286.9482        443.633          38.750  
C 2  37362135.846   -14227613.0742        450.400          37.750  
C 4  38842104.727   -12985001.3862        420.654          36.500  
C13  36453801.337   -26573643.5662       1087.139          46.500  
C 5  39393582.318   -13890428.7462        446.162          35.750  
G15  21153952.606   -20277427.372        2884.346          42.500  
C16  36736021.545   -18815766.6012       1221.836          43.000  
C 6  36325177.807   -18560678.3252       1035.898          43.500  
C27  22592265.409   -26189165.4222       2043.857          50.250  
G29  21544543.761   -26126126.031        1549.053          46.500  
G30  24506087.327    -9427547.713         844.951          36.500  
G25  25723440.866    -3797952.4342      -1565.039          27.750  
G18  24863073.411    -5087176.229        3423.906          38.250  
> 2020  5 30 12 31 37.0000000  0 25                     
G 5  21422817.638   -22235880.529        -944.980          48.000  
C28  22136333.135   -32363689.1562      -1047.520          47.000  
G 2  21767362.276   -27327772.613        -572.539          42.750  
C14  25675072.597     -567646.3302      -2087.939          39.000  
G12  25702417.751    -6239718.810       -1705.508          27.250  
