% program   : RTKPOST ver.2.4.3 b33
% inp file  : D:\Documents\Visual Studio 2019\rtklib_portToVS\rtklib_2.4.3\data\3.obs
% inp file  : D:\Documents\Visual Studio 2019\rtklib_portToVS\rtklib_2.4.3\data\4.obs
% inp file  : D:\Documents\Visual Studio 2019\rtklib_portToVS\rtklib_2.4.3\data\3.nav
% obs start : 2020/05/30 12:31:04.0 GPST (week2107 563464.0s)
% obs end   : 2020/05/30 12:44:05.0 GPST (week2107 564245.0s)
% pos mode  : static
% freqs     : L1
% solution  : forward
% elev mask : 15.0 deg
% dynamics  : off
% tidecorr  : off
% ionos opt : broadcast
% tropo opt : saastamoinen
% ephemeris : broadcast
% navi sys  : gps beidou
% amb res   : fix and hold
% val thres : 3.0
% antenna1  :                       ( 0.0000  0.0000  0.0000)
% antenna2  :                       ( 0.0000  0.0000  0.0000)
% ref pos   : -2191128.6082   5198843.8105   2965371.9561
%
% (x/y/z-ecef=WGS84,Q=1:fix,2:float,3:sbas,4:dgps,5:single,6:ppp,ns=# of satellites)
%  GPST                      x-ecef(m)      y-ecef(m)      z-ecef(m)   Q  ns   sdx(m)   sdy(m)   sdz(m)  sdxy(m)  sdyz(m)  sdzx(m) age(s)  ratio
2020/05/30 12:31:04.000  -2191124.4032   5198843.9087   2965371.9550   2  17   0.5931   1.1841   0.7170  -0.6742   0.7906  -0.4845  -1.00    1.1
2020/05/30 12:31:05.000  -2191124.3443   5198843.8910   2965371.9901   2  17   0.4216   0.8418   0.5096  -0.4794   0.5623  -0.3447   0.00    1.2
2020/05/30 12:31:06.000  -2191124.3110   5198843.9603   2965371.9117   2  17   0.3448   0.6884   0.4167  -0.3921   0.4599  -0.2819   0.00    1.1
2020/05/30 12:31:07.000  -2191124.2983   5198844.0033   2965371.8764   2  17   0.2989   0.5966   0.3611  -0.3398   0.3986  -0.2444   0.00    1.0
2020/05/30 12:31:08.000  -2191124.2972   5198844.0924   2965371.8601   2  17   0.2674   0.5337   0.3230  -0.3040   0.3565  -0.2186   0.00    1.2
2020/05/30 12:31:09.000  -2191124.3380   5198844.2102   2965371.8668   2  17   0.2442   0.4872   0.2948  -0.2776   0.3254  -0.1996   0.00    1.3
2020/05/30 12:31:10.000  -2191124.3867   5198844.3167   2965371.8769   2  17   0.2261   0.4509   0.2729  -0.2569   0.3012  -0.1847   0.00    1.3
2020/05/30 12:31:11.000  -2191124.4320   5198844.4441   2965371.8934   2  17   0.2115   0.4217   0.2551  -0.2403   0.2816  -0.1727   0.00    1.2
2020/05/30 12:31:12.000  -2191124.4228   5198844.4659   2965371.8652   2  17   0.1994   0.3974   0.2404  -0.2264   0.2653  -0.1628   0.00    1.1
2020/05/30 12:31:13.000  -2191124.4160   5198844.4868   2965371.8362   2  17   0.1891   0.3768   0.2279  -0.2147   0.2515  -0.1543   0.00    1.1
2020/05/30 12:31:14.000  -2191124.4087   5198844.4728   2965371.8006   2  17   0.1803   0.3590   0.2171  -0.2046   0.2396  -0.1470   0.00    1.2
2020/05/30 12:31:15.000  -2191124.4193   5198844.4983   2965371.7985   2  17   0.1726   0.3435   0.2077  -0.1958   0.2291  -0.1407   0.00    1.2
2020/05/30 12:31:16.000  -2191124.4252   5198844.4987   2965371.7750   2  17   0.1658   0.3297   0.1993  -0.1879   0.2199  -0.1350   0.00    1.3
2020/05/30 12:31:17.000  -2191124.4317   5198844.5145   2965371.7585   2  17   0.1597   0.3174   0.1919  -0.1809   0.2116  -0.1300   0.00    1.3
2020/05/30 12:31:18.000  -2191124.4396   5198844.5182   2965371.7340   2  17   0.1542   0.3064   0.1852  -0.1747   0.2042  -0.1254   0.00    1.4
2020/05/30 12:31:19.000  -2191124.4553   5198844.5357   2965371.7143   2  17   0.1493   0.2963   0.1791  -0.1689   0.1974  -0.1213   0.00    1.4
2020/05/30 12:31:20.000  -2191124.4654   5198844.5573   2965371.6970   2  17   0.1447   0.2872   0.1735  -0.1637   0.1912  -0.1175   0.00    1.5
2020/05/30 12:31:21.000  -2191124.4694   5198844.5765   2965371.6863   2  17   0.1406   0.2788   0.1683  -0.1589   0.1856  -0.1141   0.00    1.5
2020/05/30 12:31:22.000  -2191124.4698   5198844.5841   2965371.6783   2  17   0.1368   0.2710   0.1636  -0.1545   0.1803  -0.1109   0.00    1.6
2020/05/30 12:31:23.000  -2191124.4665   5198844.5699   2965371.6586   2  17   0.1332   0.2638   0.1592  -0.1504   0.1754  -0.1079   0.00    1.6
2020/05/30 12:31:24.000  -2191124.4660   5198844.5782   2965371.6488   2  17   0.1300   0.2571   0.1551  -0.1466   0.1709  -0.1052   0.00    1.7
2020/05/30 12:31:25.000  -2191124.4664   5198844.5922   2965371.6560   2  17   0.1269   0.2508   0.1513  -0.1430   0.1666  -0.1026   0.00    1.7
2020/05/30 12:31:26.000  -2191124.4665   5198844.6089   2965371.6619   2  17   0.1240   0.2449   0.1477  -0.1397   0.1626  -0.1002   0.00    1.7
2020/05/30 12:31:27.000  -2191124.4703   5198844.6206   2965371.6671   2  17   0.1214   0.2394   0.1443  -0.1365   0.1589  -0.0979   0.00    1.7
2020/05/30 12:31:28.000  -2191124.4800   5198844.6403   2965371.6785   2  17   0.1188   0.2342   0.1411  -0.1336   0.1553  -0.0957   0.00    1.7
2020/05/30 12:31:29.000  -2191124.4872   5198844.6671   2965371.6852   2  17   0.1164   0.2292   0.1380  -0.1308   0.1519  -0.0937   0.00    1.6
2020/05/30 12:31:30.000  -2191124.4928   5198844.6766   2965371.6902   2  17   0.1142   0.2245   0.1352  -0.1281   0.1487  -0.0918   0.00    1.5
2020/05/30 12:31:31.000  -2191124.4944   5198844.6677   2965371.6886   2  17   0.1120   0.2201   0.1324  -0.1256   0.1457  -0.0899   0.00    1.5
2020/05/30 12:31:32.000  -2191124.4990   5198844.6680   2965371.6904   2  17   0.1100   0.2159   0.1298  -0.1232   0.1428  -0.0882   0.00    1.5
2020/05/30 12:31:33.000  -2191124.5075   5198844.6817   2965371.6964   2  17   0.1081   0.2118   0.1274  -0.1209   0.1400  -0.0865   0.00    1.5
2020/05/30 12:31:34.000  -2191124.5101   5198844.6873   2965371.6934   2  17   0.1062   0.2080   0.1250  -0.1187   0.1374  -0.0849   0.00    1.5
2020/05/30 12:31:35.000  -2191124.5074   5198844.7006   2965371.6903   2  17   0.1045   0.2043   0.1227  -0.1166   0.1348  -0.0834   0.00    1.5
2020/05/30 12:31:36.000  -2191124.5067   5198844.7025   2965371.6811   2  17   0.1028   0.2007   0.1205  -0.1146   0.1324  -0.0819   0.00    1.4
2020/05/30 12:31:37.000  -2191124.4999   5198844.6941   2965371.6701   2  17   0.1012   0.1973   0.1184  -0.1126   0.1301  -0.0805   0.00    1.4
2020/05/30 12:31:38.000  -2191124.5053   5198844.6975   2965371.6630   2  17   0.0996   0.1941   0.1164  -0.1108   0.1278  -0.0792   0.00    1.4
2020/05/30 12:31:39.000  -2191124.5095   5198844.6934   2965371.6531   2  17   0.0981   0.1909   0.1145  -0.1090   0.1256  -0.0779   0.00    1.4
2020/05/30 12:31:40.000  -2191124.5286   5198844.7064   2965371.6460   2  17   0.0967   0.1879   0.1126  -0.1073   0.1235  -0.0766   0.00    1.3
2020/05/30 12:31:41.000  -2191124.5448   5198844.7115   2965371.6370   2  17   0.0954   0.1850   0.1108  -0.1056   0.1215  -0.0754   0.00    1.2
2020/05/30 12:31:42.000  -2191124.5645   5198844.7350   2965371.6389   2  17   0.0940   0.1822   0.1090  -0.1040   0.1196  -0.0742   0.00    1.1
2020/05/30 12:31:43.000  -2191124.5810   5198844.7543   2965371.6366   2  17   0.0928   0.1794   0.1073  -0.1025   0.1177  -0.0731   0.00    1.1
2020/05/30 12:31:44.000  -2191124.5954   5198844.7730   2965371.6384   2  17   0.0915   0.1768   0.1057  -0.1010   0.1158  -0.0720   0.00    1.0
2020/05/30 12:31:45.000  -2191124.6168   5198844.8061   2965371.6442   2  17   0.0903   0.1742   0.1041  -0.0995   0.1141  -0.0709   0.00    1.1
2020/05/30 12:31:46.000  -2191124.6353   5198844.8376   2965371.6501   2  17   0.0892   0.1718   0.1025  -0.0981   0.1123  -0.0699   0.00    1.1
2020/05/30 12:31:47.000  -2191124.6530   5198844.8622   2965371.6558   2  17   0.0881   0.1693   0.1010  -0.0967   0.1107  -0.0689   0.00    1.2
2020/05/30 12:31:48.000  -2191124.6664   5198844.8869   2965371.6591   2  17   0.0870   0.1670   0.0996  -0.0954   0.1090  -0.0679   0.00    1.2
2020/05/30 12:31:49.000  -2191124.6819   5198844.9100   2965371.6658   2  17   0.0860   0.1647   0.0982  -0.0941   0.1074  -0.0670   0.00    1.3
2020/05/30 12:31:50.000  -2191124.7011   5198844.9363   2965371.6684   2  17   0.0849   0.1625   0.0968  -0.0929   0.1059  -0.0661   0.00    1.4
2020/05/30 12:31:51.000  -2191124.7177   5198844.9596   2965371.6716   2  17   0.0840   0.1604   0.0955  -0.0916   0.1044  -0.0652   0.00    1.5
2020/05/30 12:31:52.000  -2191124.7340   5198844.9833   2965371.6741   2  17   0.0830   0.1583   0.0942  -0.0904   0.1029  -0.0643   0.00    1.7
2020/05/30 12:31:53.000  -2191124.7447   5198844.9972   2965371.6741   2  17   0.0821   0.1563   0.0929  -0.0893   0.1015  -0.0635   0.00    1.8
2020/05/30 12:31:54.000  -2191124.7572   5198845.0114   2965371.6775   2  17   0.0812   0.1543   0.0916  -0.0882   0.1001  -0.0626   0.00    1.9
2020/05/30 12:31:55.000  -2191124.7689   5198845.0227   2965371.6788   2  17   0.0803   0.1523   0.0904  -0.0871   0.0987  -0.0618   0.00    2.1
2020/05/30 12:31:56.000  -2191124.7797   5198845.0346   2965371.6795   2  17   0.0794   0.1505   0.0892  -0.0860   0.0974  -0.0611   0.00    2.2
2020/05/30 12:31:57.000  -2191124.7903   5198845.0440   2965371.6770   2  17   0.0786   0.1486   0.0881  -0.0849   0.0961  -0.0603   0.00    2.4
2020/05/30 12:31:58.000  -2191124.7966   5198845.0560   2965371.6741   2  17   0.0778   0.1468   0.0870  -0.0839   0.0948  -0.0595   0.00    2.5
2020/05/30 12:31:59.000  -2191124.8014   5198845.0624   2965371.6708   2  17   0.0770   0.1451   0.0859  -0.0829   0.0936  -0.0588   0.00    2.5
2020/05/30 12:32:00.000  -2191124.8063   5198845.0702   2965371.6678   2  17   0.0762   0.1433   0.0848  -0.0819   0.0924  -0.0581   0.00    2.6
2020/05/30 12:32:01.000  -2191124.8124   5198845.0740   2965371.6619   2  17   0.0755   0.1417   0.0837  -0.0810   0.0912  -0.0574   0.00    2.6
2020/05/30 12:32:02.000  -2191124.8147   5198845.0781   2965371.6549   2  17   0.0747   0.1400   0.0827  -0.0801   0.0900  -0.0567   0.00    2.6
2020/05/30 12:32:03.000  -2191124.8189   5198845.0863   2965371.6535   2  17   0.0740   0.1384   0.0817  -0.0791   0.0889  -0.0561   0.00    2.6
2020/05/30 12:32:04.000  -2191124.8243   5198845.0954   2965371.6537   2  17   0.0733   0.1368   0.0807  -0.0782   0.0878  -0.0554   0.00    2.7
2020/05/30 12:32:05.000  -2191124.8227   5198845.0943   2965371.6496   2  17   0.0726   0.1353   0.0797  -0.0774   0.0867  -0.0548   0.00    2.6
2020/05/30 12:32:06.000  -2191124.8239   5198845.0968   2965371.6513   2  17   0.0720   0.1338   0.0788  -0.0765   0.0856  -0.0541   0.00    2.6
2020/05/30 12:32:07.000  -2191124.8279   5198845.1004   2965371.6540   2  16   0.0715   0.1324   0.0779  -0.0758   0.0847  -0.0537   0.00    2.7
2020/05/30 12:32:08.000  -2191124.8311   5198845.1037   2965371.6554   2  17   0.0708   0.1310   0.0770  -0.0750   0.0837  -0.0531   0.00    2.8
2020/05/30 12:32:09.000  -2191124.8337   5198845.0988   2965371.6554   2  17   0.0702   0.1295   0.0761  -0.0742   0.0827  -0.0525   0.00    2.8
2020/05/30 12:32:10.000  -2191124.8373   5198845.1013   2965371.6556   2  17   0.0696   0.1281   0.0752  -0.0734   0.0817  -0.0519   0.00    2.8
2020/05/30 12:32:11.000  -2191124.8390   5198845.1021   2965371.6532   2  17   0.0690   0.1268   0.0744  -0.0726   0.0807  -0.0513   0.00    2.8
2020/05/30 12:32:12.000  -2191124.8418   5198845.1000   2965371.6496   2  17   0.0684   0.1254   0.0735  -0.0719   0.0797  -0.0508   0.00    2.8
2020/05/30 12:32:13.000  -2191124.8446   5198845.0969   2965371.6492   2  17   0.0678   0.1241   0.0727  -0.0711   0.0788  -0.0502   0.00    2.8
2020/05/30 12:32:14.000  -2191124.8475   5198845.0913   2965371.6503   2  17   0.0672   0.1228   0.0719  -0.0704   0.0779  -0.0497   0.00    2.8
2020/05/30 12:32:15.000  -2191124.8499   5198845.0858   2965371.6488   2  17   0.0667   0.1215   0.0711  -0.0696   0.0770  -0.0491   0.00    2.8
2020/05/30 12:32:16.000  -2191124.8548   5198845.0755   2965371.6463   2  17   0.0661   0.1203   0.0703  -0.0689   0.0761  -0.0486   0.00    2.7
2020/05/30 12:32:17.000  -2191124.8582   5198845.0633   2965371.6471   2  17   0.0656   0.1191   0.0695  -0.0682   0.0752  -0.0481   0.00    2.7
2020/05/30 12:32:18.000  -2191124.8623   5198845.0565   2965371.6499   2  17   0.0651   0.1178   0.0687  -0.0675   0.0743  -0.0476   0.00    2.8
2020/05/30 12:32:19.000  -2191124.8673   5198845.0489   2965371.6526   2  17   0.0645   0.1167   0.0680  -0.0669   0.0735  -0.0471   0.00    2.8
2020/05/30 12:32:20.000  -2191124.8708   5198845.0378   2965371.6532   2  17   0.0640   0.1155   0.0673  -0.0662   0.0727  -0.0466   0.00    2.7
2020/05/30 12:32:21.000  -2191124.8743   5198845.0284   2965371.6521   2  17   0.0635   0.1144   0.0665  -0.0655   0.0719  -0.0462   0.00    2.7
2020/05/30 12:32:22.000  -2191124.8738   5198845.0134   2965371.6506   2  17   0.0630   0.1132   0.0658  -0.0649   0.0711  -0.0457   0.00    2.6
2020/05/30 12:32:23.000  -2191124.8732   5198844.9995   2965371.6474   2  17   0.0626   0.1121   0.0651  -0.0643   0.0703  -0.0452   0.00    2.5
2020/05/30 12:32:24.000  -2191124.8741   5198844.9942   2965371.6449   2  17   0.0621   0.1110   0.0644  -0.0636   0.0695  -0.0448   0.00    2.4
2020/05/30 12:32:25.000  -2191124.8757   5198844.9896   2965371.6443   2  17   0.0616   0.1100   0.0638  -0.0630   0.0687  -0.0444   0.00    2.4
2020/05/30 12:32:26.000  -2191124.8792   5198844.9894   2965371.6471   2  16   0.0613   0.1090   0.0631  -0.0625   0.0681  -0.0440   0.00    2.4
2020/05/30 12:32:27.000  -2191124.8802   5198844.9860   2965371.6476   2  17   0.0608   0.1079   0.0625  -0.0619   0.0673  -0.0436   0.00    2.4
2020/05/30 12:32:28.000  -2191124.8812   5198844.9854   2965371.6509   2  17   0.0604   0.1069   0.0618  -0.0614   0.0666  -0.0432   0.00    2.4
2020/05/30 12:32:29.000  -2191124.8828   5198844.9851   2965371.6536   2  17   0.0599   0.1059   0.0612  -0.0608   0.0659  -0.0427   0.00    2.4
2020/05/30 12:32:30.000  -2191124.8865   5198844.9886   2965371.6563   2  17   0.0595   0.1049   0.0606  -0.0602   0.0652  -0.0423   0.00    2.5
2020/05/30 12:32:31.000  -2191124.8890   5198844.9902   2965371.6582   2  17   0.0591   0.1039   0.0600  -0.0597   0.0645  -0.0419   0.00    2.5
2020/05/30 12:32:32.000  -2191124.8906   5198844.9918   2965371.6610   2  17   0.0587   0.1030   0.0594  -0.0591   0.0638  -0.0415   0.00    2.5
2020/05/30 12:32:33.000  -2191124.8914   5198844.9919   2965371.6626   2  17   0.0583   0.1020   0.0588  -0.0586   0.0631  -0.0411   0.00    2.5
2020/05/30 12:32:34.000  -2191124.8909   5198844.9901   2965371.6648   2  17   0.0579   0.1011   0.0582  -0.0580   0.0625  -0.0408   0.00    2.5
2020/05/30 12:32:35.000  -2191124.8871   5198844.9825   2965371.6640   2  17   0.0575   0.1002   0.0576  -0.0575   0.0618  -0.0404   0.00    2.4
2020/05/30 12:32:36.000  -2191124.8858   5198844.9777   2965371.6629   2  17   0.0571   0.0993   0.0570  -0.0570   0.0612  -0.0400   0.00    2.4
2020/05/30 12:32:37.000  -2191124.8871   5198844.9756   2965371.6624   2  17   0.0567   0.0984   0.0565  -0.0565   0.0606  -0.0397   0.00    2.4
2020/05/30 12:32:38.000  -2191124.8864   5198844.9725   2965371.6648   2  17   0.0563   0.0975   0.0559  -0.0560   0.0599  -0.0393   0.00    2.3
2020/05/30 12:32:39.000  -2191124.8835   5198844.9686   2965371.6652   2  17   0.0559   0.0966   0.0554  -0.0555   0.0593  -0.0389   0.00    2.3
2020/05/30 12:32:40.000  -2191124.8807   5198844.9632   2965371.6652   2  17   0.0556   0.0958   0.0549  -0.0550   0.0587  -0.0386   0.00    2.3
2020/05/30 12:32:41.000  -2191124.8759   5198844.9565   2965371.6655   2  17   0.0552   0.0949   0.0543  -0.0545   0.0581  -0.0383   0.00    2.2
2020/05/30 12:32:42.000  -2191124.8700   5198844.9491   2965371.6666   2  17   0.0549   0.0941   0.0538  -0.0540   0.0576  -0.0379   0.00    2.2
2020/05/30 12:32:43.000  -2191124.8634   5198844.9392   2965371.6651   2  17   0.0545   0.0933   0.0533  -0.0536   0.0570  -0.0376   0.00    2.1
2020/05/30 12:32:44.000  -2191124.8589   5198844.9347   2965371.6655   2  17   0.0542   0.0925   0.0528  -0.0531   0.0564  -0.0373   0.00    2.1
2020/05/30 12:32:45.000  -2191124.8538   5198844.9267   2965371.6640   2  17   0.0538   0.0917   0.0523  -0.0527   0.0559  -0.0369   0.00    2.0
2020/05/30 12:32:46.000  -2191124.8473   5198844.9178   2965371.6629   2  17   0.0535   0.0909   0.0518  -0.0522   0.0553  -0.0366   0.00    2.0
2020/05/30 12:32:47.000  -2191124.8408   5198844.9124   2965371.6625   2  17   0.0532   0.0901   0.0513  -0.0518   0.0548  -0.0363   0.00    1.9
2020/05/30 12:32:48.000  -2191124.8348   5198844.9051   2965371.6617   2  17   0.0528   0.0894   0.0509  -0.0513   0.0542  -0.0360   0.00    1.9
2020/05/30 12:32:49.000  -2191124.8299   5198844.8994   2965371.6621   2  17   0.0525   0.0886   0.0504  -0.0509   0.0537  -0.0357   0.00    1.8
2020/05/30 12:32:50.000  -2191124.8248   5198844.8953   2965371.6631   2  17   0.0522   0.0879   0.0499  -0.0505   0.0532  -0.0354   0.00    1.8
2020/05/30 12:32:51.000  -2191124.8198   5198844.8887   2965371.6641   2  17   0.0519   0.0872   0.0495  -0.0501   0.0527  -0.0351   0.00    1.8
2020/05/30 12:32:52.000  -2191124.8126   5198844.8804   2965371.6635   2  17   0.0516   0.0864   0.0490  -0.0496   0.0522  -0.0348   0.00    1.7
2020/05/30 12:32:53.000  -2191124.8073   5198844.8730   2965371.6627   2  17   0.0513   0.0857   0.0486  -0.0492   0.0517  -0.0345   0.00    1.7
2020/05/30 12:32:54.000  -2191124.8024   5198844.8701   2965371.6641   2  17   0.0510   0.0850   0.0482  -0.0488   0.0512  -0.0343   0.00    1.7
2020/05/30 12:32:55.000  -2191124.7985   5198844.8685   2965371.6672   2  17   0.0507   0.0843   0.0477  -0.0484   0.0507  -0.0340   0.00    1.7
2020/05/30 12:32:56.000  -2191124.7936   5198844.8640   2965371.6659   2  17   0.0504   0.0836   0.0473  -0.0480   0.0502  -0.0337   0.00    1.6
2020/05/30 12:32:57.000  -2191124.7909   5198844.8605   2965371.6648   2  17   0.0501   0.0830   0.0469  -0.0477   0.0498  -0.0334   0.00    1.6
2020/05/30 12:32:58.000  -2191124.7876   5198844.8565   2965371.6647   2  17   0.0498   0.0823   0.0465  -0.0473   0.0493  -0.0332   0.00    1.6
2020/05/30 12:32:59.000  -2191124.7844   5198844.8526   2965371.6646   2  17   0.0495   0.0816   0.0461  -0.0469   0.0488  -0.0329   0.00    1.6
2020/05/30 12:33:00.000  -2191124.7826   5198844.8488   2965371.6650   2  17   0.0492   0.0810   0.0457  -0.0465   0.0484  -0.0326   0.00    1.6
2020/05/30 12:33:01.000  -2191124.7812   5198844.8454   2965371.6666   2  17   0.0490   0.0804   0.0453  -0.0462   0.0479  -0.0324   0.00    1.6
2020/05/30 12:33:02.000  -2191124.7781   5198844.8418   2965371.6674   2  17   0.0487   0.0797   0.0449  -0.0458   0.0475  -0.0321   0.00    1.5
2020/05/30 12:33:03.000  -2191124.7773   5198844.8417   2965371.6704   2  17   0.0484   0.0791   0.0445  -0.0454   0.0471  -0.0319   0.00    1.5
2020/05/30 12:33:04.000  -2191124.7758   5198844.8411   2965371.6731   2  17   0.0482   0.0785   0.0441  -0.0451   0.0466  -0.0316   0.00    1.5
2020/05/30 12:33:05.000  -2191124.7730   5198844.8377   2965371.6725   2  17   0.0479   0.0779   0.0437  -0.0447   0.0462  -0.0314   0.00    1.5
2020/05/30 12:33:06.000  -2191124.7699   5198844.8330   2965371.6717   2  17   0.0476   0.0773   0.0434  -0.0444   0.0458  -0.0312   0.00    1.5
2020/05/30 12:33:07.000  -2191124.7682   5198844.8324   2965371.6722   2  17   0.0474   0.0767   0.0430  -0.0440   0.0454  -0.0309   0.00    1.5
2020/05/30 12:33:08.000  -2191124.7664   5198844.8289   2965371.6718   2  17   0.0471   0.0761   0.0426  -0.0437   0.0450  -0.0307   0.00    1.5
2020/05/30 12:33:09.000  -2191124.7652   5198844.8258   2965371.6730   2  17   0.0469   0.0755   0.0423  -0.0434   0.0446  -0.0305   0.00    1.5
2020/05/30 12:33:10.000  -2191124.7650   5198844.8257   2965371.6742   2  17   0.0466   0.0749   0.0419  -0.0430   0.0442  -0.0303   0.00    1.5
2020/05/30 12:33:11.000  -2191124.7630   5198844.8241   2965371.6759   2  17   0.0464   0.0744   0.0416  -0.0427   0.0438  -0.0300   0.00    1.4
2020/05/30 12:33:12.000  -2191124.7608   5198844.8214   2965371.6778   2  17   0.0462   0.0738   0.0412  -0.0424   0.0434  -0.0298   0.00    1.4
2020/05/30 12:33:13.000  -2191124.7598   5198844.8204   2965371.6802   2  17   0.0459   0.0733   0.0409  -0.0421   0.0431  -0.0296   0.00    1.4
2020/05/30 12:33:14.000  -2191124.7602   5198844.8224   2965371.6849   2  17   0.0457   0.0727   0.0406  -0.0418   0.0427  -0.0294   0.00    1.4
2020/05/30 12:33:15.000  -2191124.7604   5198844.8222   2965371.6882   2  17   0.0455   0.0722   0.0402  -0.0415   0.0423  -0.0292   0.00    1.3
2020/05/30 12:33:16.000  -2191124.7607   5198844.8227   2965371.6899   2  17   0.0452   0.0716   0.0399  -0.0412   0.0420  -0.0290   0.00    1.3
2020/05/30 12:33:17.000  -2191124.7621   5198844.8258   2965371.6933   2  17   0.0450   0.0711   0.0396  -0.0409   0.0416  -0.0288   0.00    1.3
2020/05/30 12:33:18.000  -2191124.7618   5198844.8271   2965371.6956   2  17   0.0448   0.0706   0.0393  -0.0406   0.0412  -0.0286   0.00    1.3
2020/05/30 12:33:19.000  -2191124.7615   5198844.8281   2965371.6972   2  17   0.0446   0.0701   0.0390  -0.0403   0.0409  -0.0284   0.00    1.3
2020/05/30 12:33:20.000  -2191124.7620   5198844.8295   2965371.6989   2  17   0.0443   0.0696   0.0387  -0.0400   0.0405  -0.0282   0.00    1.3
2020/05/30 12:33:21.000  -2191124.7634   5198844.8322   2965371.7007   2  17   0.0441   0.0691   0.0384  -0.0397   0.0402  -0.0280   0.00    1.3
2020/05/30 12:33:22.000  -2191124.7643   5198844.8356   2965371.7038   2  17   0.0439   0.0686   0.0381  -0.0394   0.0399  -0.0278   0.00    1.2
2020/05/30 12:33:23.000  -2191124.7657   5198844.8406   2965371.7058   2  17   0.0437   0.0681   0.0378  -0.0391   0.0395  -0.0276   0.00    1.2
2020/05/30 12:33:24.000  -2191124.7656   5198844.8468   2965371.7077   2  17   0.0435   0.0676   0.0375  -0.0388   0.0392  -0.0274   0.00    1.2
2020/05/30 12:33:25.000  -2191124.7664   5198844.8503   2965371.7094   2  17   0.0433   0.0671   0.0372  -0.0386   0.0389  -0.0272   0.00    1.2
2020/05/30 12:33:26.000  -2191124.7678   5198844.8564   2965371.7115   2  17   0.0431   0.0666   0.0369  -0.0383   0.0386  -0.0270   0.00    1.2
2020/05/30 12:33:27.000  -2191124.7693   5198844.8598   2965371.7129   2  17   0.0429   0.0662   0.0366  -0.0380   0.0383  -0.0268   0.00    1.2
2020/05/30 12:33:28.000  -2191124.7708   5198844.8650   2965371.7143   2  17   0.0427   0.0657   0.0363  -0.0377   0.0379  -0.0267   0.00    1.2
2020/05/30 12:33:29.000  -2191124.7727   5198844.8697   2965371.7157   2  17   0.0425   0.0652   0.0360  -0.0375   0.0376  -0.0265   0.00    1.2
2020/05/30 12:33:30.000  -2191124.7744   5198844.8746   2965371.7166   2  17   0.0423   0.0648   0.0358  -0.0372   0.0373  -0.0263   0.00    1.2
2020/05/30 12:33:31.000  -2191124.7758   5198844.8812   2965371.7180   2  17   0.0421   0.0643   0.0355  -0.0370   0.0370  -0.0261   0.00    1.2
2020/05/30 12:33:32.000  -2191124.7777   5198844.8878   2965371.7198   2  17   0.0419   0.0639   0.0352  -0.0367   0.0367  -0.0260   0.00    1.3
2020/05/30 12:33:33.000  -2191124.7784   5198844.8921   2965371.7209   2  17   0.0417   0.0635   0.0350  -0.0365   0.0364  -0.0258   0.00    1.3
2020/05/30 12:33:34.000  -2191124.7792   5198844.8975   2965371.7217   2  17   0.0415   0.0630   0.0347  -0.0362   0.0362  -0.0256   0.00    1.3
2020/05/30 12:33:35.000  -2191124.7800   5198844.9023   2965371.7218   2  17   0.0413   0.0626   0.0345  -0.0360   0.0359  -0.0255   0.00    1.3
2020/05/30 12:33:36.000  -2191124.7807   5198844.9058   2965371.7217   2  17   0.0411   0.0622   0.0342  -0.0357   0.0356  -0.0253   0.00    1.3
2020/05/30 12:33:37.000  -2191124.7802   5198844.9094   2965371.7217   2  17   0.0409   0.0617   0.0340  -0.0355   0.0353  -0.0252   0.00    1.3
2020/05/30 12:33:38.000  -2191124.7794   5198844.9130   2965371.7222   2  17   0.0408   0.0613   0.0337  -0.0352   0.0350  -0.0250   0.00    1.3
2020/05/30 12:33:39.000  -2191124.7799   5198844.9185   2965371.7233   2  17   0.0406   0.0609   0.0335  -0.0350   0.0348  -0.0248   0.00    1.3
2020/05/30 12:33:40.000  -2191124.7810   5198844.9251   2965371.7253   2  17   0.0404   0.0605   0.0332  -0.0348   0.0345  -0.0247   0.00    1.3
2020/05/30 12:33:41.000  -2191124.7807   5198844.9290   2965371.7249   2  17   0.0402   0.0601   0.0330  -0.0345   0.0342  -0.0245   0.00    1.3
2020/05/30 12:33:42.000  -2191124.7811   5198844.9341   2965371.7248   2  17   0.0401   0.0597   0.0327  -0.0343   0.0340  -0.0244   0.00    1.3
2020/05/30 12:33:43.000  -2191124.7812   5198844.9389   2965371.7252   2  17   0.0399   0.0593   0.0325  -0.0341   0.0337  -0.0242   0.00    1.3
2020/05/30 12:33:44.000  -2191124.7812   5198844.9427   2965371.7256   2  17   0.0397   0.0589   0.0323  -0.0339   0.0334  -0.0241   0.00    1.3
2020/05/30 12:33:45.000  -2191124.7817   5198844.9463   2965371.7261   2  17   0.0395   0.0585   0.0320  -0.0336   0.0332  -0.0240   0.00    1.3
2020/05/30 12:33:46.000  -2191124.7821   5198844.9492   2965371.7269   2  17   0.0394   0.0582   0.0318  -0.0334   0.0329  -0.0238   0.00    1.3
2020/05/30 12:33:47.000  -2191124.7827   5198844.9521   2965371.7272   2  17   0.0392   0.0578   0.0316  -0.0332   0.0327  -0.0237   0.00    1.3
2020/05/30 12:33:48.000  -2191124.7830   5198844.9556   2965371.7269   2  17   0.0390   0.0574   0.0314  -0.0330   0.0325  -0.0235   0.00    1.3
2020/05/30 12:33:49.000  -2191124.7821   5198844.9586   2965371.7267   2  17   0.0389   0.0570   0.0312  -0.0328   0.0322  -0.0234   0.00    1.3
2020/05/30 12:33:50.000  -2191124.7813   5198844.9625   2965371.7276   2  17   0.0387   0.0567   0.0309  -0.0326   0.0320  -0.0233   0.00    1.3
2020/05/30 12:33:51.000  -2191124.7804   5198844.9676   2965371.7284   2  17   0.0386   0.0563   0.0307  -0.0323   0.0317  -0.0231   0.00    1.3
2020/05/30 12:33:52.000  -2191124.7807   5198844.9744   2965371.7292   2  17   0.0384   0.0560   0.0305  -0.0321   0.0315  -0.0230   0.00    1.3
2020/05/30 12:33:53.000  -2191124.7800   5198844.9787   2965371.7299   2  17   0.0382   0.0556   0.0303  -0.0319   0.0313  -0.0229   0.00    1.3
2020/05/30 12:33:54.000  -2191124.7799   5198844.9820   2965371.7306   2  17   0.0381   0.0552   0.0301  -0.0317   0.0310  -0.0227   0.00    1.3
2020/05/30 12:33:55.000  -2191124.7794   5198844.9849   2965371.7311   2  17   0.0379   0.0549   0.0299  -0.0315   0.0308  -0.0226   0.00    1.3
2020/05/30 12:33:56.000  -2191124.7800   5198844.9881   2965371.7321   2  17   0.0378   0.0546   0.0297  -0.0313   0.0306  -0.0225   0.00    1.3
2020/05/30 12:33:57.000  -2191124.7802   5198844.9922   2965371.7331   2  17   0.0376   0.0542   0.0295  -0.0311   0.0304  -0.0223   0.00    1.3
2020/05/30 12:33:58.000  -2191124.7801   5198844.9961   2965371.7339   2  17   0.0375   0.0539   0.0293  -0.0309   0.0302  -0.0222   0.00    1.3
2020/05/30 12:33:59.000  -2191124.7798   5198844.9993   2965371.7345   2  17   0.0373   0.0535   0.0291  -0.0308   0.0299  -0.0221   0.00    1.3
2020/05/30 12:34:00.000  -2191124.7789   5198845.0043   2965371.7355   2  17   0.0372   0.0532   0.0289  -0.0306   0.0297  -0.0220   0.00    1.3
2020/05/30 12:34:01.000  -2191124.7780   5198845.0086   2965371.7355   2  17   0.0370   0.0529   0.0287  -0.0304   0.0295  -0.0218   0.00    1.4
2020/05/30 12:34:02.000  -2191124.7768   5198845.0112   2965371.7352   2  17   0.0369   0.0526   0.0285  -0.0302   0.0293  -0.0217   0.00    1.4
2020/05/30 12:34:03.000  -2191124.7760   5198845.0150   2965371.7362   2  17   0.0367   0.0522   0.0283  -0.0300   0.0291  -0.0216   0.00    1.3
2020/05/30 12:34:04.000  -2191124.7760   5198845.0197   2965371.7368   2  17   0.0366   0.0519   0.0282  -0.0298   0.0289  -0.0215   0.00    1.4
2020/05/30 12:34:05.000  -2191124.7753   5198845.0244   2965371.7381   2  17   0.0364   0.0516   0.0280  -0.0296   0.0287  -0.0214   0.00    1.4
2020/05/30 12:34:06.000  -2191124.7760   5198845.0323   2965371.7395   2  17   0.0363   0.0513   0.0278  -0.0295   0.0285  -0.0213   0.00    1.4
2020/05/30 12:34:07.000  -2191124.7760   5198845.0381   2965371.7398   2  17   0.0362   0.0510   0.0276  -0.0293   0.0283  -0.0211   0.00    1.4
2020/05/30 12:34:08.000  -2191124.7765   5198845.0445   2965371.7405   2  17   0.0360   0.0507   0.0274  -0.0291   0.0281  -0.0210   0.00    1.4
2020/05/30 12:34:09.000  -2191124.7764   5198845.0500   2965371.7411   2  17   0.0359   0.0504   0.0273  -0.0289   0.0279  -0.0209   0.00    1.4
2020/05/30 12:34:10.000  -2191124.7768   5198845.0545   2965371.7421   2  17   0.0358   0.0501   0.0271  -0.0288   0.0277  -0.0208   0.00    1.4
2020/05/30 12:34:11.000  -2191124.7780   5198845.0608   2965371.7427   2  17   0.0356   0.0498   0.0269  -0.0286   0.0275  -0.0207   0.00    1.4
2020/05/30 12:34:12.000  -2191124.7784   5198845.0659   2965371.7429   2  17   0.0355   0.0495   0.0267  -0.0284   0.0274  -0.0206   0.00    1.5
2020/05/30 12:34:13.000  -2191124.7797   5198845.0710   2965371.7446   2  17   0.0354   0.0492   0.0266  -0.0282   0.0272  -0.0205   0.00    1.5
2020/05/30 12:34:14.000  -2191124.7812   5198845.0756   2965371.7458   2  17   0.0352   0.0489   0.0264  -0.0281   0.0270  -0.0204   0.00    1.5
2020/05/30 12:34:15.000  -2191124.7821   5198845.0803   2965371.7468   2  17   0.0351   0.0486   0.0262  -0.0279   0.0268  -0.0203   0.00    1.5
2020/05/30 12:34:16.000  -2191124.7833   5198845.0838   2965371.7473   2  17   0.0350   0.0483   0.0261  -0.0278   0.0266  -0.0202   0.00    1.5
2020/05/30 12:34:17.000  -2191124.7844   5198845.0863   2965371.7483   2  17   0.0348   0.0481   0.0259  -0.0276   0.0265  -0.0201   0.00    1.5
2020/05/30 12:34:18.000  -2191124.7858   5198845.0898   2965371.7489   2  17   0.0347   0.0478   0.0258  -0.0274   0.0263  -0.0200   0.00    1.6
2020/05/30 12:34:19.000  -2191124.7889   5198845.0934   2965371.7500   2  17   0.0346   0.0475   0.0256  -0.0273   0.0261  -0.0199   0.00    1.6
2020/05/30 12:34:20.000  -2191124.7909   5198845.0955   2965371.7504   2  17   0.0345   0.0472   0.0254  -0.0271   0.0259  -0.0198   0.00    1.6
2020/05/30 12:34:21.000  -2191124.7927   5198845.0984   2965371.7518   2  17   0.0343   0.0470   0.0253  -0.0270   0.0258  -0.0197   0.00    1.6
2020/05/30 12:34:22.000  -2191124.7947   5198845.1004   2965371.7521   2  17   0.0342   0.0467   0.0251  -0.0268   0.0256  -0.0196   0.00    1.6
2020/05/30 12:34:23.000  -2191124.7964   5198845.1033   2965371.7527   2  17   0.0341   0.0464   0.0250  -0.0267   0.0254  -0.0195   0.00    1.6
2020/05/30 12:34:24.000  -2191124.7986   5198845.1065   2965371.7527   2  17   0.0340   0.0462   0.0248  -0.0265   0.0253  -0.0194   0.00    1.7
2020/05/30 12:34:25.000  -2191124.7999   5198845.1086   2965371.7525   2  17   0.0338   0.0459   0.0247  -0.0264   0.0251  -0.0193   0.00    1.7
2020/05/30 12:34:26.000  -2191124.8021   5198845.1113   2965371.7534   2  17   0.0337   0.0457   0.0245  -0.0262   0.0250  -0.0192   0.00    1.7
2020/05/30 12:34:27.000  -2191124.8036   5198845.1139   2965371.7534   2  17   0.0336   0.0454   0.0244  -0.0261   0.0248  -0.0191   0.00    1.8
2020/05/30 12:34:28.000  -2191124.8046   5198845.1166   2965371.7543   2  17   0.0335   0.0452   0.0242  -0.0259   0.0246  -0.0190   0.00    1.8
2020/05/30 12:34:29.000  -2191124.8060   5198845.1182   2965371.7539   2  17   0.0334   0.0449   0.0241  -0.0258   0.0245  -0.0189   0.00    1.8
2020/05/30 12:34:30.000  -2191124.8077   5198845.1212   2965371.7549   2  17   0.0332   0.0447   0.0240  -0.0256   0.0243  -0.0188   0.00    1.8
2020/05/30 12:34:31.000  -2191124.8088   5198845.1234   2965371.7548   2  17   0.0331   0.0444   0.0238  -0.0255   0.0242  -0.0187   0.00    1.8
2020/05/30 12:34:32.000  -2191124.8111   5198845.1279   2965371.7553   2  17   0.0330   0.0442   0.0237  -0.0253   0.0240  -0.0187   0.00    1.9
2020/05/30 12:34:33.000  -2191124.8116   5198845.1304   2965371.7547   2  17   0.0329   0.0439   0.0235  -0.0252   0.0239  -0.0186   0.00    2.0
2020/05/30 12:34:34.000  -2191124.8122   5198845.1334   2965371.7547   2  17   0.0328   0.0437   0.0234  -0.0251   0.0237  -0.0185   0.00    2.0
2020/05/30 12:34:35.000  -2191124.8126   5198845.1357   2965371.7548   2  17   0.0327   0.0435   0.0233  -0.0249   0.0236  -0.0184   0.00    2.0
2020/05/30 12:34:36.000  -2191124.8132   5198845.1377   2965371.7545   2  17   0.0326   0.0432   0.0231  -0.0248   0.0234  -0.0183   0.00    2.1
2020/05/30 12:34:37.000  -2191124.8134   5198845.1409   2965371.7543   2  17   0.0325   0.0430   0.0230  -0.0247   0.0233  -0.0182   0.00    2.1
2020/05/30 12:34:38.000  -2191124.8133   5198845.1417   2965371.7526   2  18   0.0323   0.0428   0.0229  -0.0245   0.0232  -0.0181   0.00    2.4
2020/05/30 12:34:39.000  -2191124.8144   5198845.1442   2965371.7520   2  18   0.0322   0.0425   0.0227  -0.0244   0.0230  -0.0181   0.00    2.7
2020/05/30 12:34:40.000  -2191124.8141   5198845.1453   2965371.7515   2  18   0.0321   0.0423   0.0226  -0.0243   0.0229  -0.0180   0.00    2.9
2020/05/30 12:34:41.000  -2191124.9598   5198845.4447   2965371.8150   1  18   0.0010   0.0022   0.0017  -0.0014   0.0018  -0.0011   0.00    3.2
2020/05/30 12:34:42.000  -2191124.9598   5198845.4445   2965371.8149   1  18   0.0010   0.0022   0.0017  -0.0013   0.0018  -0.0011   0.00    3.4
2020/05/30 12:34:43.000  -2191124.9597   5198845.4444   2965371.8149   1  18   0.0010   0.0022   0.0016  -0.0013   0.0018  -0.0011   0.00    3.6
2020/05/30 12:34:44.000  -2191124.9597   5198845.4442   2965371.8147   1  18   0.0010   0.0022   0.0016  -0.0013   0.0018  -0.0011   0.00    3.8
2020/05/30 12:34:45.000  -2191124.9596   5198845.4440   2965371.8146   1  18   0.0010   0.0022   0.0016  -0.0013   0.0018  -0.0011   0.00    4.1
2020/05/30 12:34:46.000  -2191124.9595   5198845.4438   2965371.8145   1  18   0.0010   0.0022   0.0016  -0.0013   0.0018  -0.0011   0.00    4.3
2020/05/30 12:34:47.000  -2191124.9595   5198845.4437   2965371.8144   1  18   0.0010   0.0022   0.0016  -0.0013   0.0018  -0.0011   0.00    4.5
2020/05/30 12:34:48.000  -2191124.9594   5198845.4436   2965371.8143   1  18   0.0010   0.0022   0.0016  -0.0013   0.0018  -0.0011   0.00    4.7
2020/05/30 12:34:49.000  -2191124.9594   5198845.4433   2965371.8142   1  18   0.0009   0.0021   0.0016  -0.0013   0.0018  -0.0011   0.00    5.0
2020/05/30 12:34:50.000  -2191124.9593   5198845.4433   2965371.8142   1  18   0.0009   0.0021   0.0016  -0.0013   0.0017  -0.0011   0.00    5.1
2020/05/30 12:34:51.000  -2191124.9593   5198845.4432   2965371.8141   1  18   0.0009   0.0021   0.0016  -0.0013   0.0017  -0.0011   0.00  206.7
2020/05/30 12:34:52.000  -2191124.9593   5198845.4431   2965371.8141   1  18   0.0009   0.0021   0.0016  -0.0013   0.0017  -0.0011   0.00  341.9
2020/05/30 12:34:53.000  -2191124.9592   5198845.4430   2965371.8140   1  18   0.0009   0.0021   0.0016  -0.0013   0.0017  -0.0011   0.00  486.6
2020/05/30 12:34:54.000  -2191124.9592   5198845.4429   2965371.8140   1  18   0.0009   0.0021   0.0016  -0.0013   0.0017  -0.0011   0.00  632.7
2020/05/30 12:34:55.000  -2191124.9592   5198845.4428   2965371.8139   1  18   0.0009   0.0021   0.0016  -0.0013   0.0017  -0.0011   0.00  781.1
2020/05/30 12:34:56.000  -2191124.9592   5198845.4427   2965371.8139   1  18   0.0009   0.0021   0.0015  -0.0013   0.0017  -0.0011   0.00  925.4
2020/05/30 12:34:57.000  -2191124.9592   5198845.4426   2965371.8138   1  18   0.0009   0.0021   0.0015  -0.0013   0.0017  -0.0010   0.00  999.9
2020/05/30 12:34:58.000  -2191124.9591   5198845.4425   2965371.8137   1  18   0.0009   0.0020   0.0015  -0.0012   0.0017  -0.0010   0.00  999.9
2020/05/30 12:34:59.000  -2191124.9591   5198845.4424   2965371.8136   1  18   0.0009   0.0020   0.0015  -0.0012   0.0017  -0.0010   0.00  999.9
2020/05/30 12:35:00.000  -2191124.9590   5198845.4422   2965371.8136   1  18   0.0009   0.0020   0.0015  -0.0012   0.0017  -0.0010   0.00  999.9
2020/05/30 12:35:01.000  -2191124.9590   5198845.4422   2965371.8136   1  18   0.0009   0.0020   0.0015  -0.0012   0.0017  -0.0010   0.00  999.9
2020/05/30 12:35:02.000  -2191124.9590   5198845.4421   2965371.8135   1  18   0.0009   0.0020   0.0015  -0.0012   0.0016  -0.0010   0.00  999.9
2020/05/30 12:35:03.000  -2191124.9590   5198845.4420   2965371.8134   1  18   0.0009   0.0020   0.0015  -0.0012   0.0016  -0.0010   0.00  999.9
2020/05/30 12:35:04.000  -2191124.9589   5198845.4419   2965371.8134   1  18   0.0009   0.0020   0.0015  -0.0012   0.0016  -0.0010   0.00  999.9
2020/05/30 12:35:05.000  -2191124.9589   5198845.4418   2965371.8133   1  18   0.0009   0.0020   0.0015  -0.0012   0.0016  -0.0010   0.00  999.9
2020/05/30 12:35:06.000  -2191124.9589   5198845.4418   2965371.8133   1  18   0.0009   0.0020   0.0015  -0.0012   0.0016  -0.0010   0.00  999.9
2020/05/30 12:35:07.000  -2191124.9588   5198845.4416   2965371.8132   1  18   0.0009   0.0020   0.0015  -0.0012   0.0016  -0.0010   0.00  999.9
2020/05/30 12:35:08.000  -2191124.9588   5198845.4415   2965371.8132   1  18   0.0009   0.0019   0.0015  -0.0012   0.0016  -0.0010   0.00  999.9
2020/05/30 12:35:09.000  -2191124.9588   5198845.4414   2965371.8131   1  18   0.0009   0.0019   0.0015  -0.0012   0.0016  -0.0010   0.00  999.9
2020/05/30 12:35:10.000  -2191124.9588   5198845.4414   2965371.8131   1  18   0.0009   0.0019   0.0015  -0.0012   0.0016  -0.0010   0.00  999.9
2020/05/30 12:35:11.000  -2191124.9587   5198845.4413   2965371.8131   1  18   0.0009   0.0019   0.0015  -0.0012   0.0016  -0.0010   0.00  999.9
2020/05/30 12:35:12.000  -2191124.9587   5198845.4412   2965371.8130   1  18   0.0009   0.0019   0.0014  -0.0012   0.0016  -0.0010   0.00  999.9
2020/05/30 12:35:13.000  -2191124.9587   5198845.4412   2965371.8130   1  18   0.0009   0.0019   0.0014  -0.0012   0.0016  -0.0010   0.00  999.9
2020/05/30 12:35:14.000  -2191124.9587   5198845.4411   2965371.8129   1  18   0.0009   0.0019   0.0014  -0.0012   0.0016  -0.0010   0.00  999.9
2020/05/30 12:35:15.000  -2191124.9587   5198845.4411   2965371.8129   1  18   0.0009   0.0019   0.0014  -0.0012   0.0015  -0.0010   0.00  999.9
2020/05/30 12:35:16.000  -2191124.9586   5198845.4410   2965371.8128   1  18   0.0009   0.0019   0.0014  -0.0012   0.0015  -0.0010   0.00  999.9
2020/05/30 12:35:17.000  -2191124.9586   5198845.4409   2965371.8128   1  18   0.0009   0.0019   0.0014  -0.0012   0.0015  -0.0010   0.00  999.9
2020/05/30 12:35:18.000  -2191124.9586   5198845.4408   2965371.8127   1  18   0.0009   0.0019   0.0014  -0.0011   0.0015  -0.0010   0.00  999.9
2020/05/30 12:35:19.000  -2191124.9585   5198845.4407   2965371.8127   1  18   0.0009   0.0019   0.0014  -0.0011   0.0015  -0.0010   0.00  999.9
2020/05/30 12:35:20.000  -2191124.9585   5198845.4407   2965371.8127   1  18   0.0009   0.0018   0.0014  -0.0011   0.0015  -0.0010   0.00  999.9
2020/05/30 12:35:21.000  -2191124.9585   5198845.4406   2965371.8126   1  18   0.0009   0.0018   0.0014  -0.0011   0.0015  -0.0010   0.00  999.9
2020/05/30 12:35:22.000  -2191124.9584   5198845.4405   2965371.8126   1  18   0.0009   0.0018   0.0014  -0.0011   0.0015  -0.0010   0.00  999.9
2020/05/30 12:35:23.000  -2191124.9584   5198845.4404   2965371.8125   1  18   0.0009   0.0018   0.0014  -0.0011   0.0015  -0.0009   0.00  999.9
2020/05/30 12:35:24.000  -2191124.9584   5198845.4404   2965371.8125   1  18   0.0009   0.0018   0.0014  -0.0011   0.0015  -0.0009   0.00  999.9
2020/05/30 12:35:25.000  -2191124.9584   5198845.4404   2965371.8125   1  18   0.0009   0.0018   0.0014  -0.0011   0.0015  -0.0009   0.00  999.9
2020/05/30 12:35:26.000  -2191124.9584   5198845.4403   2965371.8125   1  18   0.0009   0.0018   0.0014  -0.0011   0.0015  -0.0009   0.00  999.9
2020/05/30 12:35:27.000  -2191124.9584   5198845.4403   2965371.8125   1  18   0.0008   0.0018   0.0014  -0.0011   0.0015  -0.0009   0.00  999.9
2020/05/30 12:35:28.000  -2191124.9584   5198845.4403   2965371.8124   1  18   0.0008   0.0018   0.0014  -0.0011   0.0015  -0.0009   0.00  999.9
2020/05/30 12:35:29.000  -2191124.9584   5198845.4402   2965371.8124   1  18   0.0008   0.0018   0.0014  -0.0011   0.0015  -0.0009   0.00  999.9
2020/05/30 12:35:30.000  -2191124.9584   5198845.4402   2965371.8124   1  18   0.0008   0.0018   0.0014  -0.0011   0.0015  -0.0009   0.00  999.9
2020/05/30 12:35:31.000  -2191124.9583   5198845.4401   2965371.8124   1  18   0.0008   0.0018   0.0014  -0.0011   0.0015  -0.0009   0.00  999.9
2020/05/30 12:35:32.000  -2191124.9583   5198845.4401   2965371.8123   1  18   0.0008   0.0018   0.0014  -0.0011   0.0015  -0.0009   0.00  999.9
2020/05/30 12:35:33.000  -2191124.9583   5198845.4400   2965371.8123   1  18   0.0008   0.0018   0.0014  -0.0011   0.0014  -0.0009   0.00  999.9
2020/05/30 12:35:34.000  -2191124.9583   5198845.4400   2965371.8123   1  18   0.0008   0.0018   0.0013  -0.0011   0.0014  -0.0009   0.00  999.9
2020/05/30 12:35:35.000  -2191124.9583   5198845.4399   2965371.8122   1  18   0.0008   0.0017   0.0013  -0.0011   0.0014  -0.0009   0.00  999.9
2020/05/30 12:35:36.000  -2191124.9583   5198845.4399   2965371.8122   1  18   0.0008   0.0017   0.0013  -0.0011   0.0014  -0.0009   0.00  999.9
2020/05/30 12:35:37.000  -2191124.9583   5198845.4398   2965371.8122   1  18   0.0008   0.0017   0.0013  -0.0011   0.0014  -0.0009   0.00  999.9
2020/05/30 12:35:38.000  -2191124.9583   5198845.4397   2965371.8121   1  18   0.0008   0.0017   0.0013  -0.0011   0.0014  -0.0009   0.00  999.9
2020/05/30 12:35:39.000  -2191124.9583   5198845.4397   2965371.8121   1  18   0.0008   0.0017   0.0013  -0.0011   0.0014  -0.0009   0.00  999.9
2020/05/30 12:35:40.000  -2191124.9582   5198845.4396   2965371.8121   1  18   0.0008   0.0017   0.0013  -0.0011   0.0014  -0.0009   0.00  999.9
2020/05/30 12:35:41.000  -2191124.9582   5198845.4396   2965371.8121   1  18   0.0008   0.0017   0.0013  -0.0011   0.0014  -0.0009   0.00  999.9
2020/05/30 12:35:42.000  -2191124.9582   5198845.4395   2965371.8120   1  18   0.0008   0.0017   0.0013  -0.0011   0.0014  -0.0009   0.00  999.9
2020/05/30 12:35:43.000  -2191124.9582   5198845.4394   2965371.8120   1  18   0.0008   0.0017   0.0013  -0.0011   0.0014  -0.0009   0.00  999.9
2020/05/30 12:35:44.000  -2191124.9582   5198845.4394   2965371.8120   1  18   0.0008   0.0017   0.0013  -0.0011   0.0014  -0.0009   0.00  999.9
2020/05/30 12:35:45.000  -2191124.9582   5198845.4393   2965371.8119   1  18   0.0008   0.0017   0.0013  -0.0011   0.0014  -0.0009   0.00  999.9
2020/05/30 12:35:46.000  -2191124.9582   5198845.4392   2965371.8119   1  18   0.0008   0.0017   0.0013  -0.0011   0.0014  -0.0009   0.00  999.9
2020/05/30 12:35:47.000  -2191124.9581   5198845.4391   2965371.8118   1  18   0.0008   0.0017   0.0013  -0.0010   0.0014  -0.0009   0.00  999.9
2020/05/30 12:35:48.000  -2191124.9581   5198845.4390   2965371.8118   1  18   0.0008   0.0017   0.0013  -0.0010   0.0014  -0.0009   0.00  999.9
2020/05/30 12:35:49.000  -2191124.9581   5198845.4390   2965371.8117   1  18   0.0008   0.0017   0.0013  -0.0010   0.0014  -0.0009   0.00  999.9
2020/05/30 12:35:50.000  -2191124.9581   5198845.4389   2965371.8117   1  18   0.0008   0.0017   0.0013  -0.0010   0.0014  -0.0009   0.00  999.9
2020/05/30 12:35:51.000  -2191124.9581   5198845.4389   2965371.8117   1  18   0.0008   0.0017   0.0013  -0.0010   0.0014  -0.0009   0.00  999.9
2020/05/30 12:35:52.000  -2191124.9581   5198845.4389   2965371.8117   1  18   0.0008   0.0016   0.0013  -0.0010   0.0014  -0.0009   0.00  999.9
2020/05/30 12:35:53.000  -2191124.9581   5198845.4388   2965371.8117   1  18   0.0008   0.0016   0.0013  -0.0010   0.0014  -0.0009   0.00  999.9
2020/05/30 12:35:54.000  -2191124.9581   5198845.4388   2965371.8117   1  18   0.0008   0.0016   0.0013  -0.0010   0.0013  -0.0009   0.00  999.9
2020/05/30 12:35:55.000  -2191124.9581   5198845.4387   2965371.8117   1  18   0.0008   0.0016   0.0013  -0.0010   0.0013  -0.0009   0.00  999.9
2020/05/30 12:35:56.000  -2191124.9581   5198845.4387   2965371.8117   1  18   0.0008   0.0016   0.0013  -0.0010   0.0013  -0.0009   0.00  999.9
2020/05/30 12:35:57.000  -2191124.9581   5198845.4387   2965371.8117   1  18   0.0008   0.0016   0.0013  -0.0010   0.0013  -0.0009   0.00  999.9
2020/05/30 12:35:58.000  -2191124.9581   5198845.4386   2965371.8117   1  18   0.0008   0.0016   0.0013  -0.0010   0.0013  -0.0009   0.00  999.9
2020/05/30 12:35:59.000  -2191124.9580   5198845.4385   2965371.8117   1  18   0.0008   0.0016   0.0013  -0.0010   0.0013  -0.0009   0.00  999.9
2020/05/30 12:36:00.000  -2191124.9580   5198845.4385   2965371.8117   1  18   0.0008   0.0016   0.0013  -0.0010   0.0013  -0.0009   0.00  999.9
2020/05/30 12:36:01.000  -2191124.9580   5198845.4384   2965371.8116   1  18   0.0008   0.0016   0.0013  -0.0010   0.0013  -0.0009   0.00  999.9
2020/05/30 12:36:02.000  -2191124.9580   5198845.4384   2965371.8116   1  18   0.0008   0.0016   0.0012  -0.0010   0.0013  -0.0008   0.00  999.9
2020/05/30 12:36:03.000  -2191124.9580   5198845.4383   2965371.8116   1  18   0.0008   0.0016   0.0012  -0.0010   0.0013  -0.0008   0.00  999.9
2020/05/30 12:36:04.000  -2191124.9580   5198845.4383   2965371.8116   1  18   0.0008   0.0016   0.0012  -0.0010   0.0013  -0.0008   0.00  999.9
2020/05/30 12:36:05.000  -2191124.9580   5198845.4382   2965371.8116   1  18   0.0008   0.0016   0.0012  -0.0010   0.0013  -0.0008   0.00  999.9
2020/05/30 12:36:06.000  -2191124.9580   5198845.4382   2965371.8116   1  18   0.0008   0.0016   0.0012  -0.0010   0.0013  -0.0008   0.00  999.9
2020/05/30 12:36:07.000  -2191124.9580   5198845.4382   2965371.8116   1  18   0.0008   0.0016   0.0012  -0.0010   0.0013  -0.0008   0.00  999.9
2020/05/30 12:36:08.000  -2191124.9579   5198845.4381   2965371.8116   1  18   0.0008   0.0016   0.0012  -0.0010   0.0013  -0.0008   0.00  999.9
2020/05/30 12:36:09.000  -2191124.9579   5198845.4381   2965371.8116   1  18   0.0008   0.0016   0.0012  -0.0010   0.0013  -0.0008   0.00  999.9
2020/05/30 12:36:10.000  -2191124.9579   5198845.4381   2965371.8116   1  18   0.0008   0.0016   0.0012  -0.0010   0.0013  -0.0008   0.00  999.9
2020/05/30 12:36:11.000  -2191124.9579   5198845.4381   2965371.8116   1  18   0.0008   0.0016   0.0012  -0.0010   0.0013  -0.0008   0.00  999.9
2020/05/30 12:36:12.000  -2191124.9579   5198845.4380   2965371.8116   1  18   0.0008   0.0016   0.0012  -0.0010   0.0013  -0.0008   0.00  999.9
2020/05/30 12:36:13.000  -2191124.9579   5198845.4380   2965371.8115   1  18   0.0008   0.0016   0.0012  -0.0010   0.0013  -0.0008   0.00  999.9
2020/05/30 12:36:14.000  -2191124.9579   5198845.4379   2965371.8115   1  18   0.0008   0.0015   0.0012  -0.0010   0.0013  -0.0008   0.00  999.9
2020/05/30 12:36:15.000  -2191124.9579   5198845.4378   2965371.8115   1  18   0.0008   0.0015   0.0012  -0.0010   0.0013  -0.0008   0.00  999.9
2020/05/30 12:36:16.000  -2191124.9578   5198845.4378   2965371.8114   1  18   0.0008   0.0015   0.0012  -0.0010   0.0013  -0.0008   0.00  999.9
2020/05/30 12:36:17.000  -2191124.9578   5198845.4377   2965371.8114   1  17   0.0008   0.0015   0.0012  -0.0010   0.0013  -0.0008   0.00  999.9
2020/05/30 12:36:18.000  -2191124.9578   5198845.4377   2965371.8114   1  18   0.0008   0.0015   0.0012  -0.0010   0.0013  -0.0008   0.00  999.9
2020/05/30 12:36:19.000  -2191124.9578   5198845.4376   2965371.8114   1  18   0.0008   0.0015   0.0012  -0.0010   0.0013  -0.0008   0.00  999.9
2020/05/30 12:36:20.000  -2191124.9578   5198845.4376   2965371.8113   1  18   0.0008   0.0015   0.0012  -0.0010   0.0013  -0.0008   0.00  999.9
2020/05/30 12:36:21.000  -2191124.9577   5198845.4375   2965371.8113   1  18   0.0008   0.0015   0.0012  -0.0010   0.0013  -0.0008   0.00  999.9
2020/05/30 12:36:22.000  -2191124.9577   5198845.4375   2965371.8113   1  18   0.0008   0.0015   0.0012  -0.0010   0.0012  -0.0008   0.00  999.9
2020/05/30 12:36:23.000  -2191124.9577   5198845.4374   2965371.8113   1  18   0.0008   0.0015   0.0012  -0.0010   0.0012  -0.0008   0.00  999.9
2020/05/30 12:36:24.000  -2191124.9577   5198845.4374   2965371.8113   1  18   0.0008   0.0015   0.0012  -0.0010   0.0012  -0.0008   0.00  999.9
2020/05/30 12:36:25.000  -2191124.9577   5198845.4373   2965371.8112   1  18   0.0008   0.0015   0.0012  -0.0010   0.0012  -0.0008   0.00  999.9
2020/05/30 12:36:26.000  -2191124.9577   5198845.4373   2965371.8112   1  18   0.0008   0.0015   0.0012  -0.0010   0.0012  -0.0008   0.00  999.9
2020/05/30 12:36:27.000  -2191124.9576   5198845.4372   2965371.8112   1  18   0.0008   0.0015   0.0012  -0.0010   0.0012  -0.0008   0.00  999.9
2020/05/30 12:36:28.000  -2191124.9576   5198845.4371   2965371.8111   1  18   0.0008   0.0015   0.0012  -0.0009   0.0012  -0.0008   0.00  999.9
2020/05/30 12:36:29.000  -2191124.9576   5198845.4371   2965371.8111   1  18   0.0008   0.0015   0.0012  -0.0009   0.0012  -0.0008   0.00  999.9
2020/05/30 12:36:30.000  -2191124.9576   5198845.4371   2965371.8111   1  18   0.0008   0.0015   0.0012  -0.0009   0.0012  -0.0008   0.00  999.9
2020/05/30 12:36:31.000  -2191124.9576   5198845.4370   2965371.8111   1  18   0.0008   0.0015   0.0012  -0.0009   0.0012  -0.0008   0.00  999.9
2020/05/30 12:36:32.000  -2191124.9576   5198845.4369   2965371.8110   1  18   0.0008   0.0015   0.0012  -0.0009   0.0012  -0.0008   0.00  999.9
2020/05/30 12:36:33.000  -2191124.9575   5198845.4369   2965371.8110   1  18   0.0008   0.0015   0.0012  -0.0009   0.0012  -0.0008   0.00  999.9
2020/05/30 12:36:34.000  -2191124.9575   5198845.4368   2965371.8110   1  18   0.0007   0.0015   0.0012  -0.0009   0.0012  -0.0008   0.00  999.9
2020/05/30 12:36:35.000  -2191124.9575   5198845.4368   2965371.8110   1  18   0.0007   0.0015   0.0012  -0.0009   0.0012  -0.0008   0.00  999.9
2020/05/30 12:36:36.000  -2191124.9575   5198845.4367   2965371.8109   1  18   0.0007   0.0015   0.0012  -0.0009   0.0012  -0.0008   0.00  999.9
2020/05/30 12:36:37.000  -2191124.9575   5198845.4367   2965371.8109   1  18   0.0007   0.0015   0.0012  -0.0009   0.0012  -0.0008   0.00  999.9
2020/05/30 12:36:38.000  -2191124.9575   5198845.4367   2965371.8109   1  18   0.0007   0.0015   0.0012  -0.0009   0.0012  -0.0008   0.00  999.9
2020/05/30 12:36:39.000  -2191124.9574   5198845.4366   2965371.8108   1  17   0.0007   0.0015   0.0012  -0.0009   0.0012  -0.0008   0.00  999.9
2020/05/30 12:36:40.000  -2191124.9574   5198845.4366   2965371.8108   1  18   0.0007   0.0014   0.0012  -0.0009   0.0012  -0.0008   0.00  999.9
2020/05/30 12:36:41.000  -2191124.9574   5198845.4366   2965371.8108   1  18   0.0007   0.0014   0.0012  -0.0009   0.0012  -0.0008   0.00  999.9
2020/05/30 12:36:42.000  -2191124.9574   5198845.4366   2965371.8108   1  18   0.0007   0.0014   0.0011  -0.0009   0.0012  -0.0008   0.00  999.9
2020/05/30 12:36:43.000  -2191124.9573   5198845.4365   2965371.8108   1  18   0.0007   0.0014   0.0011  -0.0009   0.0012  -0.0008   0.00  999.9
2020/05/30 12:36:44.000  -2191124.9573   5198845.4365   2965371.8107   1  18   0.0007   0.0014   0.0011  -0.0009   0.0012  -0.0008   0.00  999.9
2020/05/30 12:36:45.000  -2191124.9573   5198845.4364   2965371.8107   1  18   0.0007   0.0014   0.0011  -0.0009   0.0012  -0.0008   0.00  999.9
2020/05/30 12:36:46.000  -2191124.9573   5198845.4364   2965371.8107   1  18   0.0007   0.0014   0.0011  -0.0009   0.0012  -0.0008   0.00  999.9
2020/05/30 12:36:47.000  -2191124.9572   5198845.4364   2965371.8106   1  18   0.0007   0.0014   0.0011  -0.0009   0.0012  -0.0008   0.00  999.9
2020/05/30 12:36:48.000  -2191124.9572   5198845.4363   2965371.8106   1  18   0.0007   0.0014   0.0011  -0.0009   0.0012  -0.0008   0.00  999.9
2020/05/30 12:36:49.000  -2191124.9572   5198845.4363   2965371.8106   1  18   0.0007   0.0014   0.0011  -0.0009   0.0012  -0.0008   0.00  999.9
2020/05/30 12:36:50.000  -2191124.9572   5198845.4363   2965371.8106   1  18   0.0007   0.0014   0.0011  -0.0009   0.0012  -0.0008   0.00  999.9
2020/05/30 12:36:51.000  -2191124.9572   5198845.4362   2965371.8105   1  18   0.0007   0.0014   0.0011  -0.0009   0.0012  -0.0008   0.00  999.9
2020/05/30 12:36:52.000  -2191124.9572   5198845.4362   2965371.8105   1  18   0.0007   0.0014   0.0011  -0.0009   0.0012  -0.0008   0.00  999.9
2020/05/30 12:36:53.000  -2191124.9571   5198845.4362   2965371.8104   1  18   0.0007   0.0014   0.0011  -0.0009   0.0012  -0.0008   0.00  999.9
2020/05/30 12:36:54.000  -2191124.9571   5198845.4361   2965371.8104   1  18   0.0007   0.0014   0.0011  -0.0009   0.0012  -0.0008   0.00  999.9
2020/05/30 12:36:55.000  -2191124.9571   5198845.4361   2965371.8104   1  18   0.0007   0.0014   0.0011  -0.0009   0.0012  -0.0008   0.00  999.9
2020/05/30 12:36:56.000  -2191124.9571   5198845.4361   2965371.8104   1  18   0.0007   0.0014   0.0011  -0.0009   0.0012  -0.0008   0.00  999.9
2020/05/30 12:36:57.000  -2191124.9570   5198845.4360   2965371.8103   1  18   0.0007   0.0014   0.0011  -0.0009   0.0012  -0.0008   0.00  999.9
2020/05/30 12:36:58.000  -2191124.9570   5198845.4360   2965371.8103   1  18   0.0007   0.0014   0.0011  -0.0009   0.0011  -0.0008   0.00  999.9
2020/05/30 12:36:59.000  -2191124.9570   5198845.4359   2965371.8102   1  18   0.0007   0.0014   0.0011  -0.0009   0.0011  -0.0008   0.00  999.9
2020/05/30 12:37:00.000  -2191124.9570   5198845.4359   2965371.8102   1  18   0.0007   0.0014   0.0011  -0.0009   0.0011  -0.0008   0.00  999.9
2020/05/30 12:37:01.000  -2191124.9569   5198845.4359   2965371.8102   1  18   0.0007   0.0014   0.0011  -0.0009   0.0011  -0.0008   0.00  999.9
2020/05/30 12:37:02.000  -2191124.9569   5198845.4359   2965371.8102   1  18   0.0007   0.0014   0.0011  -0.0009   0.0011  -0.0008   0.00  999.9
2020/05/30 12:37:03.000  -2191124.9569   5198845.4358   2965371.8101   1  18   0.0007   0.0014   0.0011  -0.0009   0.0011  -0.0008   0.00  999.9
2020/05/30 12:37:04.000  -2191124.9569   5198845.4358   2965371.8101   1  18   0.0007   0.0014   0.0011  -0.0009   0.0011  -0.0008   0.00  999.9
2020/05/30 12:37:05.000  -2191124.9568   5198845.4358   2965371.8101   1  18   0.0007   0.0014   0.0011  -0.0009   0.0011  -0.0007   0.00  999.9
2020/05/30 12:37:06.000  -2191124.9568   5198845.4358   2965371.8101   1  18   0.0007   0.0014   0.0011  -0.0009   0.0011  -0.0007   0.00  999.9
2020/05/30 12:37:07.000  -2191124.9568   5198845.4357   2965371.8100   1  18   0.0007   0.0014   0.0011  -0.0009   0.0011  -0.0007   0.00  999.9
2020/05/30 12:37:08.000  -2191124.9568   5198845.4357   2965371.8100   1  18   0.0007   0.0014   0.0011  -0.0009   0.0011  -0.0007   0.00  999.9
2020/05/30 12:37:09.000  -2191124.9567   5198845.4357   2965371.8100   1  18   0.0007   0.0014   0.0011  -0.0009   0.0011  -0.0007   0.00  999.9
2020/05/30 12:37:10.000  -2191124.9567   5198845.4356   2965371.8100   1  18   0.0007   0.0014   0.0011  -0.0009   0.0011  -0.0007   0.00  999.9
2020/05/30 12:37:11.000  -2191124.9567   5198845.4356   2965371.8099   1  18   0.0007   0.0014   0.0011  -0.0009   0.0011  -0.0007   0.00  999.9
2020/05/30 12:37:12.000  -2191124.9567   5198845.4356   2965371.8099   1  18   0.0007   0.0014   0.0011  -0.0009   0.0011  -0.0007   0.00  999.9
2020/05/30 12:37:13.000  -2191124.9567   5198845.4356   2965371.8099   1  18   0.0007   0.0014   0.0011  -0.0009   0.0011  -0.0007   0.00  999.9
2020/05/30 12:37:14.000  -2191124.9567   5198845.4356   2965371.8099   1  18   0.0007   0.0013   0.0011  -0.0009   0.0011  -0.0007   0.00  999.9
2020/05/30 12:37:15.000  -2191124.9566   5198845.4355   2965371.8099   1  18   0.0007   0.0013   0.0011  -0.0009   0.0011  -0.0007   0.00  999.9
2020/05/30 12:37:16.000  -2191124.9566   5198845.4355   2965371.8098   1  18   0.0007   0.0013   0.0011  -0.0009   0.0011  -0.0007   0.00  999.9
2020/05/30 12:37:17.000  -2191124.9566   5198845.4355   2965371.8098   1  18   0.0007   0.0013   0.0011  -0.0009   0.0011  -0.0007   0.00  999.9
2020/05/30 12:37:18.000  -2191124.9566   5198845.4355   2965371.8098   1  18   0.0007   0.0013   0.0011  -0.0009   0.0011  -0.0007   0.00  999.9
2020/05/30 12:37:19.000  -2191124.9566   5198845.4355   2965371.8098   1  18   0.0007   0.0013   0.0011  -0.0009   0.0011  -0.0007   0.00  999.9
2020/05/30 12:37:20.000  -2191124.9566   5198845.4355   2965371.8098   1  18   0.0007   0.0013   0.0011  -0.0009   0.0011  -0.0007   0.00  999.9
2020/05/30 12:37:21.000  -2191124.9565   5198845.4355   2965371.8098   1  18   0.0007   0.0013   0.0011  -0.0009   0.0011  -0.0007   0.00  999.9
2020/05/30 12:37:22.000  -2191124.9565   5198845.4355   2965371.8098   1  18   0.0007   0.0013   0.0011  -0.0009   0.0011  -0.0007   0.00  999.9
2020/05/30 12:37:23.000  -2191124.9565   5198845.4354   2965371.8097   1  18   0.0007   0.0013   0.0011  -0.0009   0.0011  -0.0007   0.00  999.9
2020/05/30 12:37:24.000  -2191124.9565   5198845.4354   2965371.8097   1  18   0.0007   0.0013   0.0011  -0.0009   0.0011  -0.0007   0.00  999.9
2020/05/30 12:37:25.000  -2191124.9565   5198845.4354   2965371.8097   1  18   0.0007   0.0013   0.0011  -0.0009   0.0011  -0.0007   0.00  999.9
2020/05/30 12:37:26.000  -2191124.9565   5198845.4354   2965371.8097   1  18   0.0007   0.0013   0.0011  -0.0009   0.0011  -0.0007   0.00  999.9
2020/05/30 12:37:27.000  -2191124.9565   5198845.4354   2965371.8097   1  18   0.0007   0.0013   0.0011  -0.0009   0.0011  -0.0007   0.00  999.9
2020/05/30 12:37:28.000  -2191124.9564   5198845.4354   2965371.8096   1  18   0.0007   0.0013   0.0011  -0.0009   0.0011  -0.0007   0.00  999.9
2020/05/30 12:37:29.000  -2191124.9564   5198845.4354   2965371.8096   1  18   0.0007   0.0013   0.0011  -0.0009   0.0011  -0.0007   0.00  999.9
2020/05/30 12:37:30.000  -2191124.9564   5198845.4354   2965371.8096   1  18   0.0007   0.0013   0.0011  -0.0008   0.0011  -0.0007   0.00  999.9
2020/05/30 12:37:31.000  -2191124.9564   5198845.4354   2965371.8096   1  18   0.0007   0.0013   0.0011  -0.0008   0.0011  -0.0007   0.00  999.9
2020/05/30 12:37:32.000  -2191124.9564   5198845.4354   2965371.8096   1  18   0.0007   0.0013   0.0011  -0.0008   0.0011  -0.0007   0.00  999.9
2020/05/30 12:37:33.000  -2191124.9564   5198845.4354   2965371.8096   1  18   0.0007   0.0013   0.0011  -0.0008   0.0011  -0.0007   0.00  999.9
2020/05/30 12:37:34.000  -2191124.9564   5198845.4354   2965371.8095   1  18   0.0007   0.0013   0.0011  -0.0008   0.0011  -0.0007   0.00  999.9
2020/05/30 12:37:35.000  -2191124.9564   5198845.4354   2965371.8095   1  18   0.0007   0.0013   0.0011  -0.0008   0.0011  -0.0007   0.00  999.9
2020/05/30 12:37:36.000  -2191124.9564   5198845.4354   2965371.8095   1  18   0.0007   0.0013   0.0011  -0.0008   0.0011  -0.0007   0.00  999.9
2020/05/30 12:37:37.000  -2191124.9564   5198845.4354   2965371.8095   1  18   0.0007   0.0013   0.0011  -0.0008   0.0011  -0.0007   0.00  999.9
2020/05/30 12:37:38.000  -2191124.9564   5198845.4354   2965371.8095   1  18   0.0007   0.0013   0.0010  -0.0008   0.0011  -0.0007   0.00  999.9
2020/05/30 12:37:39.000  -2191124.9564   5198845.4354   2965371.8095   1  18   0.0007   0.0013   0.0010  -0.0008   0.0011  -0.0007   0.00  999.9
2020/05/30 12:37:40.000  -2191124.9564   5198845.4354   2965371.8095   1  18   0.0007   0.0013   0.0010  -0.0008   0.0011  -0.0007   0.00  999.9
2020/05/30 12:37:41.000  -2191124.9564   5198845.4354   2965371.8095   1  18   0.0007   0.0013   0.0010  -0.0008   0.0011  -0.0007   0.00  999.9
2020/05/30 12:37:42.000  -2191124.9564   5198845.4355   2965371.8095   1  18   0.0007   0.0013   0.0010  -0.0008   0.0011  -0.0007   0.00  999.9
2020/05/30 12:37:43.000  -2191124.9564   5198845.4355   2965371.8095   1  18   0.0007   0.0013   0.0010  -0.0008   0.0011  -0.0007   0.00  999.9
2020/05/30 12:37:44.000  -2191124.9564   5198845.4355   2965371.8094   1  18   0.0007   0.0013   0.0010  -0.0008   0.0011  -0.0007   0.00  999.9
2020/05/30 12:37:45.000  -2191124.9563   5198845.4355   2965371.8094   1  18   0.0007   0.0013   0.0010  -0.0008   0.0011  -0.0007   0.00  999.9
2020/05/30 12:37:46.000  -2191124.9563   5198845.4355   2965371.8094   1  18   0.0007   0.0013   0.0010  -0.0008   0.0010  -0.0007   0.00  999.9
2020/05/30 12:37:47.000  -2191124.9563   5198845.4355   2965371.8094   1  18   0.0007   0.0013   0.0010  -0.0008   0.0010  -0.0007   0.00  999.9
2020/05/30 12:37:48.000  -2191124.9563   5198845.4355   2965371.8094   1  18   0.0007   0.0013   0.0010  -0.0008   0.0010  -0.0007   0.00  999.9
2020/05/30 12:37:49.000  -2191124.9563   5198845.4355   2965371.8094   1  18   0.0007   0.0013   0.0010  -0.0008   0.0010  -0.0007   0.00  999.9
