     3.02           OBSERVATION DATA    M: Mixed            RINEX VERSION / TYPE
RTKCONV 2.4.3 b33                       20200602 075904 UTC PGM / RUN BY / DATE 
log: D:\Documents\Visual Studio 2019\rtklib_portToVS\rtkli  COMMENT             
format: u-blox                                              COMMENT             
                                                            MARKER NAME         
                                                            MARKER NUMBER       
                                                            MARKER TYPE         
                                                            OBSERVER / AGENCY   
                                                            REC # / TYPE / VERS 
                                                            ANT # / TYPE        
 -2191134.8614  5198844.7848  2965373.6828                  APPROX POSITION XYZ 
        0.0000        0.0000        0.0000                  ANTENNA: DELTA H/E/N
G    4 C1C L1C D1C S1C                                      SYS / # / OBS TYPES 
C    4 C1I L1I D1I S1I                                      SYS / # / OBS TYPES 
  2020     5    30    12    31    5.0000000     GPS         TIME OF FIRST OBS   
  2020     5    30    12    44    5.9990000     GPS         TIME OF LAST OBS    
G                                                           SYS / PHASE SHIFT   
C                                                           SYS / PHASE SHIFT   
  0                                                         GLONASS SLOT / FRQ #
 C1C    0.000 C1P    0.000 C2C    0.000 C2P    0.000        GLONASS COD/PHS/BIS 
                                                            END OF HEADER       
> 2020  5 30 12 31  5.0000000  0 24                     
G 2  21641615.762   113727459.159         176.875          45.000  
G 5  21294777.189   111904807.679        -204.069          48.000  
G13  20289561.759   106622372.900        1995.415          46.000  
G29  21431446.492   112623010.027        2306.006          46.000  
G 6  24284007.445   127613315.078       -1346.589          37.000  
G15  21048716.834   110611753.871        3636.854          43.000  
G30  24388812.999   128164077.449        1595.525          38.000  
C 6  36209062.173   188550088.603        1770.811          44.000  
C 8  36394944.789   189518029.967        1669.268          46.000  
C13  36337977.367   189221383.897        1817.164          47.000  
C14  25539935.005   132993134.957       -1360.044          41.000  
C16  36621014.070   190695237.817        1957.005          44.000  
C27  22482178.791   117070606.716        2787.679          50.000  
C28  22007646.818   114599590.762        -301.783          47.000  
C 4  38722311.111   201637232.372        1150.934          38.000  
C 1  37761856.711   196635900.452        1174.130          41.000  
C 3  36321615.415   189136185.701        1141.943          42.000  
C 2  37242524.236   193931594.053        1181.032          38.000  
C25  26553466.755   138270866.139        3155.418          37.000  
G18  24760972.048   130119784.024        4158.288          40.000  
G12  25569722.143   134369807.240        -976.312          31.000  
G25  25591914.038   134486365.540        -829.886          33.000  
C 5  39273948.093   204509752.7851       1176.660          36.000  
C 9  37687727.872   196249903.923        2261.963          37.000  
> 2020  5 30 12 31  6.0000000  0 24                     
G 2  21641582.118   113727282.540         176.240          45.000  
G 5  21294815.894   111905011.951        -204.478          48.000  
G13  20289181.937   106620377.911        1994.457          46.000  
G29  21431007.723   112620704.436        2305.197          46.000  
G 6  24284263.928   127614661.649       -1347.094          37.000  
G15  21048025.177   110608117.471        3635.982          43.000  
G30  24388509.365   128162481.759        1595.420          38.000  
C 6  36208722.278   188548317.863        1770.422          44.000  
C 8  36394624.159   189516360.885        1668.915          46.000  
C13  36337628.188   189219566.783        1817.019          47.000  
C14  25540196.165   132994494.964       -1360.299          41.000  
C16  36620638.402   190693280.986        1956.687          44.000  
C27  22481643.383   117067819.313        2786.989          50.000  
C28  22007704.962   114599892.891        -302.566          47.000  
C 4  38722090.192   201636081.348        1150.745          38.000  
C 1  37761631.184   196634726.484        1173.918          41.000  
C 3  36321396.275   189135043.939        1141.746          42.000  
C 2  37242297.662   193930413.238        1180.868          38.000  
C25  26552860.849   138267710.521        3155.072          37.000  
G18  24760180.611   130115625.740        4158.330          40.000  
G12  25569907.848   134370783.845        -977.114          32.000  
G25  25592071.928   134487195.862        -829.342          33.000  
C 5  39273722.077   204508576.131        1176.628          36.000  
C 9  37687293.641   196247642.049        2261.407          37.000  
> 2020  5 30 12 31  7.0000000  0 24                     
G 2  21641548.509   113727106.336         176.478          45.000  
G 5  21294854.773   111905216.389        -204.331          49.000  
G13  20288802.395   106618383.628        1994.016          46.000  
G29  21430569.409   112618399.539        2304.772          46.000  
G 6  24284520.237   127616008.512       -1347.240          37.000  
G15  21047333.346   110604481.615        3635.902          43.000  
G30  24388205.662   128160886.582        1595.627          38.000  
C 6  36208381.999   188546547.328        1770.626          44.000  
C 8  36394303.773   189514691.879        1669.169          46.000  
C13  36337279.219   189217749.710        1817.317          47.000  
C14  25540457.080   132995854.937       -1359.617          41.000  
C16  36620262.629   190691324.364        1956.758          44.000  
C27  22481108.325   117065032.400        2786.948          50.000  
C28  22007763.176   114600195.548        -302.661          48.000  
C 4  38721869.167   201634930.362        1150.977          38.000  
C 1  37761405.832   196633552.586        1173.829          41.000  
C 3  36321176.960   189133902.254        1141.943          42.000  
C 2  37242070.810   193929232.490        1181.116          38.000  
C25  26552254.803   138264554.838        3155.965          37.000  
G18  24759389.348   130111467.417        4158.740          40.000  
G12  25570093.832   134371760.232        -975.697          32.000  
G25  25592229.992   134488026.232        -830.452          33.000  
C 5  39273495.748   204507399.522        1177.010          36.000  
C 9  37686859.235   196245380.308        2262.006          37.000  
> 2020  5 30 12 31  8.0000000  0 24                     
G 2  21641514.726   113726930.155         176.511          45.000  
G 5  21294893.896   111905420.545        -203.716          49.000  
G13  20288423.097   106616389.607        1994.283          46.000  
G29  21430130.850   112616094.888        2304.833          46.000  
G 6  24284776.371   127617355.210       -1346.390          37.000  
G15  21046641.584   110600845.843        3636.075          43.000  
G30  24387902.028   128159291.486        1595.470          38.000  
C 6  36208041.859   188544776.550        1771.277          44.000  
C 8  36393982.968   189513022.510        1669.844          46.000  
C13  36336930.249   189215932.223        1818.019          47.000  
C14  25540718.275   132997214.464       -1359.109          41.000  
C16  36619886.961   190689367.501        1957.468          44.000  
C27  22480572.987   117062245.530        2787.199          50.000  
C28  22007821.355   114600498.307        -302.532          48.000  
C 4  38721647.898   201633778.978        1151.813          38.000  
C 1  37761180.410   196632378.268        1174.884          41.000  
C 3  36320957.716   189132760.175        1142.509          42.000  
C 2  37241843.817   193928051.360        1181.635          38.000  
C25  26551648.652   138261398.724        3156.302          37.000  
G18  24758597.806   130107308.615        4159.385          40.000  
G12  25570279.188   134372735.990        -975.631          31.000  
G25  25592387.916   134488856.034        -828.933          33.000  
C 5  39273269.872   204506222.540        1177.595          36.000  
C 9  37686424.794   196243118.310        2262.421          38.000  
> 2020  5 30 12 31  9.0000000  0 24                     
G 2  21641481.326   113726754.185         175.819          45.000  
G 5  21294932.775   111905624.658        -204.202          49.000  
G13  20288044.009   106614396.089        1993.241          46.000  
G29  21429692.256   112613790.708        2303.845          46.000  
G 6  24285032.576   127618701.992       -1346.911          37.000  
G15  21045949.927   110597210.425        3634.992          43.000  
G30  24387598.499   128157696.648        1594.628          38.000  
C 6  36207701.824   188543005.753        1770.764          44.000  
C 8  36393662.094   189511352.997        1669.500          46.000  
C13  36336581.210   189214114.574        1817.648          47.000  
C14  25540979.331   132998573.743       -1359.387          41.000  
C16  36619511.327   190687410.633        1956.871          44.000  
C27  22480037.858   117059458.930        2786.394          50.000  
C28  22007879.534   114600801.373        -303.278          48.000  
C 4  38721426.769   201632627.456        1151.154          38.000  
C 1  37760954.744   196631203.812        1174.050          41.000  
C 3  36320738.297   189131617.931        1142.234          42.000  
C 2  37241616.790   193926870.085        1181.121          38.000  
C25  26551042.606   138258242.321        3156.463          37.000  
G18  24757806.613   130103149.540        4159.159          40.000  
G12  25570464.719   134373711.301        -975.101          31.000  
G25  25592545.946   134489685.656        -829.682          33.000  
C 5  39273043.683   204505045.382        1177.109          36.000  
C 9  37685990.284   196240856.236        2262.329          37.000  
> 2020  5 30 12 31 10.0000000  0 24                     
G 2  21641448.101   113726578.275         176.091          45.000  
G 5  21294971.410   111905828.570        -203.832          49.000  
G13  20287664.815   106612402.915        1993.063          46.000  
G29  21429253.837   112611486.857        2303.840          46.000  
G 6  24285288.780   127620048.704       -1346.829          37.000  
G15  21045258.271   110593575.172        3635.076          43.000  
G30  24387295.354   128156101.922        1595.020          38.000  
C 6  36207361.545   188541234.805        1771.059          44.000  
C 8  36393341.742   189509683.230        1670.126          46.000  
C13  36336232.066   189212296.578        1818.219          47.000  
C14  25541240.176   132999932.613       -1358.539          41.000  
C16  36619135.380   190685453.596        1957.217          44.000  
C27  22479502.695   117056672.445        2786.532          50.000  
C28  22007937.888   114601104.606        -303.156          48.000  
C 4  38721205.361   201631475.613        1151.813          38.000  
C 1  37760729.043   196630029.002        1175.219          41.000  
C 3  36320519.087   189130475.365        1142.849          42.000  
C 2  37241389.693   193925688.476        1181.597          38.000  
C25  26550436.281   138255085.527        3157.196          37.000  
G18  24757015.002   130098990.073        4159.858          40.000  
G12  25570650.110   134374686.066        -974.882          31.000  
G25  25592703.661   134490514.889        -829.775          33.000  
C 5  39272817.737   204503867.923        1177.661          36.000  
C 9  37685555.843   196238593.982        2262.659          37.000  
> 2020  5 30 12 31 11.0000000  0 24                     
G 2  21641414.526   113726402.712         175.457          45.000  
G 5  21295010.254   111906032.563        -204.041          48.000  
G13  20287285.727   106610410.363        1992.122          46.000  
G29  21428815.662   112609183.611        2302.822          46.000  
G 6  24285545.158   127621395.584       -1346.899          37.000  
G15  21044566.544   110589940.356        3634.594          43.000  
G30  24386991.860   128154507.674        1593.653          38.000  
C 6  36207021.615   188539463.966        1770.666          44.000  
C 8  36393021.217   189508013.426        1669.802          46.000  
C13  36335882.957   189210478.545        1818.148          47.000  
C14  25541501.057   133001291.387       -1358.924          41.000  
C16  36618759.712   190683496.669        1956.699          44.000  
C27  22478967.741   117053886.353        2785.855          50.000  
C28  22007996.276   114601408.285        -303.971          48.000  
C 4  38720983.987   201630323.721        1152.008          38.000  
C 1  37760503.447   196628854.171        1174.831          41.000  
C 3  36320299.633   189129332.755        1142.621          42.000  
C 2  37241162.945   193924506.812        1181.953          38.000  
C25  26549829.955   138251928.615        3157.167          37.000  
G18  24756223.460   130094830.469        4159.528          40.000  
G12  25570835.536   134375660.500        -974.296          32.000  
G25  25592861.411   134491343.953        -829.087          33.000  
C 5  39272591.652   204502690.385        1177.992          36.000  
C 9  37685121.438   196236331.790        2262.486          37.000  
> 2020  5 30 12 31 12.0000000  0 24                     
G 2  21641381.162   113726227.357         175.427          45.000  
G 5  21295048.959   111906236.480        -203.638          48.000  
G13  20286906.848   106608418.274        1991.960          46.000  
G29  21428377.592   112606880.809        2302.715          46.000  
G 6  24285801.572   127622742.536       -1346.547          37.000  
G15  21043875.062   110586305.866        3634.681          43.000  
G30  24386688.749   128152913.633        1593.921          38.000  
C 6  36206681.580   188537693.067        1771.036          44.000  
C 8  36392700.447   189506343.477        1670.319          46.000  
C13  36335533.708   189208660.298        1818.489          47.000  
C14  25541761.798   133002649.866       -1358.085          41.000  
C16  36618383.729   190681539.713        1957.106          44.000  
C27  22478432.857   117051100.503        2785.998          50.000  
C28  22008054.420   114601712.251        -303.918          48.000  
C 4  38720762.754   201629171.632        1152.466          38.000  
C 1  37760277.955   196627679.155        1175.247          41.000  
C 3  36320080.075   189128189.978        1143.221          42.000  
C 2  37240936.092   193923324.981        1182.178          38.000  
C25  26549223.595   138248771.453        3157.181          37.000  
G18  24755431.953   130090670.564        4160.373          40.000  
G12  25571020.823   134376634.540        -973.433          31.000  
G25  25593019.021   134492172.721        -827.894          33.000  
C 5  39272365.567   204501512.706        1178.018          36.000  
C 9  37684687.102   196234069.557        2262.206          37.000  
> 2020  5 30 12 31 13.0000000  0 24                     
G 2  21641347.657   113726051.771         175.533          45.000  
G 5  21295087.524   111906439.904        -203.241          48.000  
G13  20286527.619   106606426.220        1991.898          46.000  
G29  21427939.452   112604578.042        2302.585          46.000  
G 6  24286057.881   127624089.150       -1346.866          37.000  
G15  21043183.579   110582671.262        3634.436          43.000  
G30  24386385.639   128151319.426        1594.191          38.000  
C 6  36206341.335   188535921.708        1771.528          44.000  
C 8  36392379.642   189504672.953        1670.699          46.000  
C13  36335184.460   189206841.420        1819.138          47.000  
C14  25542022.644   133004007.695       -1357.688          41.000  
C16  36618007.817   190679582.298        1957.357          44.000  
C27  22477897.868   117048314.492        2785.944          50.000  
C28  22008112.948   114602016.103        -303.974          48.000  
C 4  38720541.659   201628018.976        1152.734          38.000  
C 1  37760052.114   196626503.526        1175.781          41.000  
C 3  36319860.446   189127046.590        1143.575          42.000  
C 2  37240709.030   193922142.551        1182.506          38.000  
C25  26548617.375   138245613.556        3158.234          37.000  
G18  24754640.236   130086509.980        4160.720          40.000  
G12  25571206.004   134377607.720        -972.947          31.000  
G25  25593176.596   134493000.852        -828.289          33.000  
C 5  39272138.959   204500334.413        1178.538          36.000  
C 9  37684252.696   196231806.788        2262.548          37.000  
> 2020  5 30 12 31 14.0000000  0 24                     
G 2  21641314.327   113725876.222         175.853          45.000  
G 5  21295126.228   111906643.115        -202.905          48.000  
G13  20286148.426   106604434.505        1991.707          46.000  
G29  21427500.962   112602275.566        2302.595          46.000  
G 6  24286314.015   127625435.598       -1345.276          37.000  
G15  21042491.888   110579036.801        3634.415          43.000  
G30  24386082.529   128149725.317        1594.513          38.000  
C 6  36206001.091   188534150.172        1771.936          44.000  
C 8  36392058.698   189503002.131        1671.143          46.000  
C13  36334835.071   189205022.219        1819.563          47.000  
C14  25542283.385   133005365.103       -1356.980          41.000  
C16  36617631.695   190677624.690        1957.936          44.000  
C27  22477362.775   117045528.575        2786.088          50.000  
C28  22008170.883   114602320.089        -303.904          48.000  
C 4  38720320.425   201626865.952        1153.436          38.000  
C 1  37759826.448   196625327.560        1176.282          41.000  
C 3  36319640.713   189125902.873        1144.124          42.000  
C 2  37240481.828   193920959.767        1183.186          38.000  
C25  26548010.910   138242455.262        3158.499          37.000  
G18  24753848.485   130082348.972        4161.321          40.000  
G12  25571390.942   134378580.260        -972.091          31.000  
G25  25593334.277   134493828.520        -827.439          33.000  
C 5  39271912.525   204499155.779        1179.085          36.000  
C 9  37683818.081   196229543.780        2264.147          37.000  
> 2020  5 30 12 31 15.0000000  0 24                     
G 2  21641281.032   113725700.766         174.908          45.000  
G 5  21295164.933   111906846.121        -203.298          48.000  
G13  20285769.617   106602443.134        1990.740          46.000  
G29  21427062.962   112599973.431        2301.589          46.000  
G 6  24286570.010   127626782.056       -1346.486          37.000  
G15  21041800.196   110575402.519        3633.820          43.000  
G30  24385779.383   128148131.379        1593.699          39.000  
C 6  36205660.916   188532378.460        1771.365          44.000  
C 8  36391737.858   189501331.019        1670.725          46.000  
C13  36334485.718   189203202.672        1819.252          47.000  
C14  25542543.847   133006722.125       -1357.064          41.000  
C16  36617255.956   190675666.946        1957.351          44.000  
C27  22476827.856   117042742.777        2785.384          50.000  
C28  22008229.690   114602624.254        -304.539          48.000  
C 4  38720098.878   201625712.627        1153.003          38.000  
C 1  37759600.642   196624151.293        1175.997          41.000  
C 3  36319421.015   189124758.837        1143.947          42.000  
C 2  37240254.731   193919776.713        1182.695          38.000  
C25  26547404.340   138239296.562        3158.460          37.000  
G18  24753056.455   130078187.547        4161.179          40.000  
G12  25571575.600   134379552.307        -972.866          31.000  
G25  25593491.643   134494655.822        -826.922          33.000  
C 5  39271686.056   204497976.834        1178.918          36.000  
C 9  37683383.431   196227280.584        2263.256          37.000  
> 2020  5 30 12 31 16.0000000  0 24                     
G 2  21641247.493   113725525.666         174.744          45.000  
G 5  21295203.742   111907049.233        -203.243          48.000  
G13  20285390.947   106600452.406        1990.213          46.000  
G29  21426625.171   112597671.915        2301.158          46.000  
G 6  24286826.353   127628128.719       -1347.240          37.000  
G15  21041108.644   110571768.730        3633.339          43.000  
G30  24385476.238   128146537.870        1593.387          39.000  
C 6  36205320.847   188530606.884        1771.331          44.000  
C 8  36391417.158   189499659.922        1671.105          46.000  
C13  36334136.050   189201383.111        1819.459          47.000  
C14  25542804.519   133008079.066       -1357.211          41.000  
C16  36616880.044   190673709.323        1957.469          44.000  
C27  22476292.937   117039957.409        2785.123          50.000  
C28  22008288.288   114602928.891        -305.004          48.000  
C 4  38719877.469   201624559.253        1153.192          38.000  
C 1  37759374.767   196622975.010        1176.012          41.000  
C 3  36319201.386   189123614.797        1143.910          42.000  
C 2  37240027.599   193918593.626        1183.272          38.000  
C25  26546797.840   138236137.746        3158.954          37.000  
G18  24752264.424   130074026.024        4161.400          40.000  
G12  25571760.503   134380524.028        -971.896          31.000  
G25  25593649.323   134495482.988        -826.747          33.000  
C 5  39271459.831   204496797.893        1178.547          36.000  
C 9  37682948.990   196225017.528        2263.064          37.000  
> 2020  5 30 12 31 17.0000000  0 24                     
G 2  21641214.093   113725350.868         174.398          44.000  
G 5  21295242.272   111907252.380        -203.403          48.000  
G13  20285012.243   106598462.245        1989.602          46.000  
G29  21426187.101   112595370.962        2300.432          46.000  
G 6  24287082.592   127629475.510       -1346.881          37.000  
G15  21040417.301   110568135.347        3633.043          43.000  
G30  24385172.988   128144944.714        1592.947          39.000  
C 6  36204980.602   188528835.372        1771.269          44.000  
C 8  36391096.214   189497988.782        1670.973          46.000  
C13  36333786.767   189199563.445        1819.426          47.000  
C14  25543065.260   133009435.846       -1357.158          41.000  
C16  36616504.096   190671751.787        1957.186          44.000  
C27  22475758.088   117037172.387        2784.599          50.000  
C28  22008346.991   114603233.920        -305.562          48.000  
C 4  38719656.026   201623405.838        1153.418          38.000  
C 1  37759148.856   196621798.617        1176.166          41.000  
C 3  36318981.793   189122470.670        1143.792          42.000  
C 2  37239800.466   193917410.469        1182.815          38.000  
C25  26546191.341   138232978.790        3158.775          37.000  
G18  24751472.708   130069864.310        4161.605          40.000  
G12  25571945.405   134381495.436        -971.055          31.000  
G25  25593806.863   134496310.074        -827.192          33.000  
C 5  39271233.362   204495618.860        1178.903          36.000  
C 9  37682514.340   196222754.474        2262.704          38.000  
> 2020  5 30 12 31 18.0000000  0 24                     
G 2  21641180.763   113725176.655         174.030          45.000  
G 5  21295281.116   111907455.841        -203.660          48.000  
G13  20284633.782   106596472.953        1988.818          46.000  
G29  21425749.414   112593070.839        2299.822          46.000  
G 6  24287339.006   127630822.747       -1347.286          37.000  
G15  21039726.168   110564502.665        3632.244          43.000  
G30  24384869.843   128143352.224        1592.250          38.000  
C 6  36204640.463   188527064.219        1770.850          44.000  
C 8  36390775.199   189496317.888        1670.742          46.000  
C13  36333437.274   189197743.959        1819.355          47.000  
C14  25543325.722   133010792.722       -1356.840          41.000  
C16  36616128.149   190669794.585        1957.061          44.000  
C27  22475223.657   117034388.001        2784.042          50.000  
C28  22008405.868   114603539.627        -306.049          48.000  
C 4  38719434.722   201622252.593        1153.229          38.000  
C 1  37758923.364   196620622.438        1176.119          41.000  
C 3  36318762.025   189121326.742        1143.763          42.000  
C 2  37239572.951   193916227.506        1182.808          38.000  
C25  26545584.562   138229819.942        3158.656          38.000  
G18  24750680.887   130065702.699        4161.693          40.000  
G12  25572129.854   134382466.797        -971.136          31.000  
G25  25593964.160   134497137.224        -828.153          33.000  
C 5  39271006.963   204494440.024        1179.139          36.000  
C 9  37682079.795   196220491.733        2262.624          37.000  
> 2020  5 30 12 31 19.0000000  0 24                     
G 2  21641147.608   113725003.122         173.110          45.000  
G 5  21295319.751   111907659.701        -204.137          48.000  
G13  20284255.287   106594484.590        1987.798          46.000  
G29  21425311.658   112590771.648        2298.757          46.000  
G 6  24287595.908   127632170.530       -1348.092          37.000  
G15  21039035.139   110560870.737        3631.700          43.000  
G30  24384567.152   128141760.446        1591.296          38.000  
C 6  36204300.602   188525293.468        1770.603          44.000  
C 8  36390454.325   189494647.290        1670.365          46.000  
C13  36333087.816   189195924.744        1818.958          47.000  
C14  25543586.463   133012149.816       -1357.026          41.000  
C16  36615752.271   190667837.818        1956.514          44.000  
C27  22474688.948   117031604.314        2783.372          50.000  
C28  22008464.570   114603846.097        -306.933          48.000  
C 4  38719213.174   201621099.641        1152.710          38.000  
C 1  37758697.419   196619446.543        1175.447          41.000  
C 3  36318542.606   189120183.084        1143.735          42.000  
C 2  37239345.714   193915044.803        1182.235          38.000  
C25  26544977.783   138226661.273        3158.490          38.000  
G18  24749888.996   130061541.315        4160.962          40.000  
G12  25572314.512   134383438.223        -971.593          31.000  
G25  25594121.491   134497964.546        -827.727          33.000  
C 5  39270780.529   204493261.464        1178.378          36.000  
C 9  37681645.215   196218229.376        2262.396          37.000  
> 2020  5 30 12 31 20.0000000  0 24                     
G 2  21641114.592   113724830.175         172.280          45.000  
G 5  21295358.491   111907863.897        -204.839          48.000  
G13  20283877.211   106592497.093        1986.705          46.000  
G29  21424874.251   112588473.315        2297.407          46.000  
G 6  24287852.182   127633518.765       -1349.032          37.000  
G15  21038344.215   110557239.539        3630.356          43.000  
G30  24384264.251   128140169.349        1590.172          39.000  
C 6  36203960.462   188523523.090        1769.823          44.000  
C 8  36390133.520   189492976.924        1669.709          46.000  
C13  36332738.672   189194105.718        1818.513          47.000  
C14  25543846.995   133013507.038       -1357.617          41.000  
C16  36615376.533   190665881.419        1955.655          44.000  
C27  22474154.483   117028821.284        2782.284          50.000  
C28  22008523.587   114604153.250        -307.916          48.000  
C 4  38718991.766   201619946.891        1152.118          38.000  
C 1  37758471.508   196618270.836        1175.103          41.000  
C 3  36318323.082   189119039.653        1142.893          42.000  
C 2  37239118.617   193913862.327        1181.651          38.000  
C25  26544371.562   138223502.744        3157.864          38.000  
G18  24749097.175   130057380.022        4161.158          40.000  
G12  25572499.345   134384409.494        -970.665          31.000  
G25  25594278.857   134498792.012        -828.385          33.000  
C 5  39270554.339   204492083.142        1177.846          36.000  
C 9  37681210.949   196215967.368        2261.110          37.000  
> 2020  5 30 12 31 21.0000000  0 24                     
G 2  21641081.855   113724658.193         171.354          44.000  
G 5  21295397.614   111908068.790        -205.271          48.000  
G13  20283499.239   106590510.830        1985.781          46.000  
G29  21424437.298   112586176.180        2296.576          46.000  
G 6  24288108.840   127634867.792       -1349.404          37.000  
G15  21037653.396   110553609.384        3629.763          43.000  
G30  24383962.083   128138579.238        1589.342          39.000  
C 6  36203620.567   188521753.413        1769.380          44.000  
C 8  36389812.785   189491307.148        1669.611          46.000  
C13  36332389.493   189192287.233        1818.276          47.000  
C14  25544107.701   133014864.743       -1357.834          41.000  
C16  36615000.969   190663925.714        1955.510          44.000  
C27  22473620.227   117026039.240        2781.586          50.000  
C28  22008582.743   114604461.438        -308.495          48.000  
C 4  38718770.427   201618794.693        1152.075          38.000  
C 1  37758245.772   196617095.689        1174.958          41.000  
C 3  36318103.523   189117896.771        1142.676          42.000  
C 2  37238891.659   193912680.390        1181.409          38.000  
C25  26543765.062   138220344.657        3157.938          38.000  
G18  24748305.354   130053219.189        4160.824          40.000  
G12  25572684.108   134385381.196        -971.530          31.000  
G25  25594436.642   134499619.958        -828.187          32.000  
C 5  39270328.115   204490905.316        1177.719          36.000  
C 9  37680776.682   196213705.976        2260.996          38.000  
> 2020  5 30 12 31 22.0000000  0 24                     
G 2  21641049.258   113724486.479         171.254          45.000  
G 5  21295436.703   111908273.683        -205.101          48.000  
G13  20283121.581   106588525.110        1985.223          46.000  
G29  21424000.204   112583879.586        2296.045          46.000  
G 6  24288365.707   127636216.945       -1349.587          37.000  
G15  21036962.821   110549979.627        3629.273          43.000  
G30  24383659.496   128136989.467        1589.528          39.000  
C 6  36203280.567   188519983.775        1769.450          44.000  
C 8  36389492.120   189489637.290        1669.531          46.000  
C13  36332040.244   189190468.651        1818.374          47.000  
C14  25544368.512   133016222.279       -1357.806          41.000  
C16  36614625.336   190661970.067        1955.326          44.000  
C27  22473085.971   117023257.522        2781.328          50.000  
C28  22008642.109   114604770.014        -309.019          48.000  
C 4  38718549.089   201617642.417        1151.538          38.000  
C 1  37758019.932   196615920.436        1175.148          41.000  
C 3  36317883.895   189116753.787        1142.894          42.000  
C 2  37238664.841   193911498.368        1181.888          38.000  
C25  26543158.598   138217186.398        3158.412          38.000  
G18  24747513.533   130049058.184        4160.988          40.000  
G12  25572868.871   134386352.510        -971.062          31.000  
G25  25594594.322   134500447.719        -828.044          33.000  
C 5  39270101.960   204489727.442        1177.685          36.000  
C 9  37680342.416   196211444.600        2261.104          38.000  
> 2020  5 30 12 31 23.0000000  0 24                     
G 2  21641016.836   113724315.218         171.131          45.000  
G 5  21295475.756   111908478.764        -205.062          48.000  
G13  20282743.749   106586540.121        1984.754          46.000  
G29  21423563.321   112581583.696        2295.575          46.000  
G 6  24288622.295   127637566.411       -1349.326          37.000  
G15  21036272.106   110546350.418        3628.945          43.000  
G30  24383357.084   128135400.220        1589.182          39.000  
C 6  36202940.776   188518214.358        1769.333          44.000  
C 8  36389171.629   189487967.549        1669.797          46.000  
C13  36331690.682   189188650.090        1818.698          47.000  
C14  25544629.323   133017579.788       -1357.468          41.000  
C16  36614249.807   190660014.624        1955.514          44.000  
C27  22472551.715   117020476.310        2781.199          50.000  
C28  22008701.265   114605079.128        -309.243          48.000  
C 4  38718327.995   201616490.162        1152.515          38.000  
C 1  37757794.231   196614745.248        1175.362          41.000  
C 3  36317664.615   189115610.872        1142.990          42.000  
C 2  37238437.814   193910316.398        1182.101          38.000  
C25  26542552.237   138214028.133        3158.345          38.000  
G18  24746721.886   130044897.158        4160.868          40.000  
G12  25573053.494   134387323.639        -971.137          30.000  
G25  25594751.862   134501275.469        -827.732          33.000  
C 5  39269875.665   204488549.583        1178.424          36.000  
C 9  37679908.255   196209183.430        2261.076          37.000  
> 2020  5 30 12 31 24.0000000  0 24                     
G 2  21640984.379   113724144.472         170.745          44.000  
G 5  21295514.565   111908684.076        -205.074          48.000  
G13  20282366.510   106584555.906        1984.213          46.000  
G29  21423126.716   112579288.575        2295.037          46.000  
G 6  24288879.232   127638916.235       -1349.329          37.000  
G15  21035581.776   110542721.820        3628.639          43.000  
G30  24383054.672   128133811.538        1588.756          39.000  
C 6  36202600.881   188516445.180        1769.390          44.000  
C 8  36388851.173   189486297.945        1669.778          46.000  
C13  36331341.677   189186831.626        1818.706          47.000  
C14  25544890.204   133018937.332       -1357.081          41.000  
C16  36613874.279   190658059.477        1955.174          44.000  
C27  22472017.808   117017695.645        2780.791          50.000  
C28  22008760.875   114605388.846        -309.707          48.000  
C 4  38718106.796   201615338.052        1152.557          38.000  
C 1  37757568.564   196613570.180        1175.571          41.000  
C 3  36317445.057   189114468.069        1143.059          42.000  
C 2  37238210.891   193909134.554        1182.272          38.000  
C25  26541945.947   138210869.869        3158.850          38.000  
G18  24745929.925   130040736.137        4161.477          40.000  
G12  25573237.524   134388294.610        -970.787          30.000  
G25  25594909.543   134502103.246        -827.996          33.000  
C 5  39269649.511   204487371.908        1177.747          36.000  
C 9  37679474.094   196206922.446        2261.337          37.000  
> 2020  5 30 12 31 25.0000000  0 24                     
G 2  21640951.816   113723973.879         170.693          44.000  
G 5  21295553.549   111908889.283        -204.952          48.000  
G13  20281988.853   106582572.131        1983.694          46.000  
G29  21422689.903   112576993.856        2294.783          46.000  
G 6  24289136.239   127640266.083       -1349.549          37.000  
G15  21034891.061   110539093.500        3628.483          43.000  
G30  24382752.120   128132223.099        1588.381          39.000  
C 6  36202261.265   188514675.932        1769.503          44.000  
C 8  36388530.613   189484628.166        1670.065          46.000  
C13  36330992.464   189185012.943        1818.918          47.000  
C14  25545150.945   133020294.584       -1356.580          41.000  
C16  36613499.064   190656104.258        1955.271          44.000  
C27  22471483.936   117014915.205        2780.417          50.000  
C28  22008820.450   114605698.830        -310.148          48.000  
C 4  38717885.457   201614185.716        1152.631          38.000  
C 1  37757342.968   196612394.900        1175.385          41.000  
C 3  36317225.359   189113325.049        1143.502          42.000  
C 2  37237983.864   193907952.498        1182.178          38.000  
C25  26541339.273   138207711.322        3158.948          38.000  
G18  24745138.034   130036574.827        4161.358          40.000  
G12  25573415.028   134389265.106        -969.679          30.000  
G25  25595067.083   134502930.716        -827.222          33.000  
C 5  39269423.495   204486193.975        1177.976          36.000  
C 9  37679039.723   196204661.404        2261.299          37.000  
> 2020  5 30 12 31 26.0000000  0 24                     
G 2  21640919.324   113723803.506         169.575          45.000  
G 5  21295592.638   111909094.426        -205.767          48.000  
G13  20281611.509   106580588.832        1982.480          46.000  
G29  21422253.368   112574699.614        2293.453          46.000  
G 6  24289393.001   127641615.997       -1350.642          37.000  
G15  21034200.451   110535465.494        3627.302          43.000  
G30  24382450.091   128130634.913        1587.512          39.000  
C 6  36201921.544   188512906.666        1768.735          44.000  
C 8  36388209.982   189482958.228        1669.391          46.000  
C13  36330643.215   189183194.054        1818.440          47.000  
C14  25545411.791   133021651.604       -1357.649          41.000  
C16  36613123.396   190654148.986        1954.749          44.000  
C27  22470950.029   117012135.003        2779.598          50.000  
C28  22008879.781   114606009.094        -310.927          48.000  
C 4  38717664.084   201613033.219        1151.837          38.000  
C 1  37757117.302   196611219.422        1175.090          41.000  
C 3  36317005.939   189112181.854        1142.681          42.000  
C 2  37237756.906   193906770.254        1181.641          38.000  
C25  26540732.773   138204552.508        3158.375          38.000  
G18  24744346.143   130032413.221        4161.208          40.000  
G12  25573603.874   134390235.196        -970.383          30.000  
G25  25595224.449   134503757.937        -827.605          33.000  
C 5  39269197.341   204485015.854        1177.743          36.000  
C 9  37678605.492   196202400.269        2260.512          37.000  
> 2020  5 30 12 31 27.0000000  0 24                     
G 2  21640886.971   113723633.604         170.001          45.000  
G 5  21295631.691   111909299.784        -205.203          48.000  
G13  20281234.096   106578606.304        1982.364          46.000  
G29  21421816.519   112572406.119        2293.318          46.000  
G 6  24289650.043   127642966.248       -1350.051          37.000  
G15  21033510.121   110531838.082        3627.359          43.000  
G30  24382147.923   128129047.284        1587.462          39.000  
C 6  36201581.963   188511137.658        1768.996          44.000  
C 8  36387889.317   189481288.406        1670.001          46.000  
C13  36330294.106   189181375.269        1818.956          47.000  
C14  25545672.253   133023008.624       -1356.948          41.000  
C16  36612748.181   190652193.991        1954.856          44.000  
C27  22470416.297   117009355.348        2779.688          50.000  
C28  22008939.460   114606319.956        -310.881          48.000  
C 4  38717442.919   201611880.779        1152.563          38.000  
C 1  37756891.531   196610044.054        1175.497          41.000  
C 3  36316786.520   189111038.769        1142.939          42.000  
C 2  37237529.705   193905588.119        1182.307          38.000  
C25  26540125.994   138201393.711        3159.107          38.000  
G18  24743554.043   130028251.655        4161.574          40.000  
G12  25573787.066   134391205.139        -969.620          30.000  
G25  25595381.746   134504585.170        -826.894          33.000  
C 5  39268971.081   204483837.886        1177.631          36.000  
C 9  37678171.121   196200139.317        2261.578          37.000  
> 2020  5 30 12 31 28.0000000  0 24                     
G 2  21640854.619   113723464.140         169.282          45.000  
G 5  21295670.954   111909505.287        -205.494          48.000  
G13  20280856.962   106576624.464        1981.517          46.000  
G29  21421380.334   112570113.288        2292.480          46.000  
G 6  24289906.980   127644316.787       -1350.573          37.000  
G15  21032819.965   110528211.204        3626.740          43.000  
G30  24381845.651   128127460.132        1586.996          39.000  
C 6  36201242.451   188509368.806        1768.871          44.000  
C 8  36387568.652   189479618.642        1669.863          46.000  
C13  36329944.613   189179556.480        1818.887          47.000  
C14  25545932.924   133024365.592       -1356.976          41.000  
C16  36612372.897   190650239.174        1954.610          44.000  
C27  22469882.495   117006576.156        2779.054          50.000  
C28  22008999.105   114606631.326        -311.517          48.000  
C 4  38717221.406   201610728.403        1152.319          38.000  
C 1  37756665.620   196608868.700        1175.520          41.000  
C 3  36316566.962   189109895.686        1143.201          42.000  
C 2  37237302.817   193904406.041        1181.914          38.000  
C25  26539519.145   138198234.861        3159.095          38.000  
G18  24742761.908   130024089.997        4161.930          40.000  
G12  25573972.771   134392174.848        -969.702          30.000  
G25  25595539.391   134505412.329        -826.895          33.000  
C 5  39268744.717   204482659.892        1178.019          36.000  
C 9  37677736.924   196197878.540        2260.972          37.000  
> 2020  5 30 12 31 29.0000000  0 24                     
G 2  21640822.406   113723294.929         168.997          45.000  
G 5  21295709.764   111909710.786        -205.742          48.000  
G13  20280479.898   106574643.162        1980.782          46.000  
G29  21420944.183   112567820.984        2291.761          46.000  
G 6  24290163.847   127645667.423       -1350.533          37.000  
G15  21032129.844   110524584.704        3626.115          43.000  
G30  24381543.727   128125873.304        1586.509          39.000  
C 6  36200902.661   188507600.000        1768.666          44.000  
C 8  36387248.022   189477948.795        1669.703          46.000  
C13  36329595.434   189177737.588        1818.688          47.000  
C14  25546193.491   133025722.391       -1357.185          41.000  
C16  36611997.682   190648284.377        1954.495          44.000  
C27  22469348.658   117003797.286        2778.495          50.000  
C28  22009058.960   114606943.072        -312.197          48.000  
C 4  38717000.033   201609575.871        1152.454          38.000  
C 1  37756439.919   196607693.243        1175.092          41.000  
C 3  36316347.298   189108752.510        1143.107          42.000  
C 2  37237075.929   193903223.827        1182.033          38.000  
C25  26538912.715   138195075.803        3158.815          38.000  
G18  24741969.843   130019928.139        4161.688          40.000  
G12  25574159.593   134393144.166        -969.958          30.000  
G25  25595696.862   134506239.350        -827.440          33.000  
C 5  39268518.492   204481481.810        1177.764          36.000  
C 9  37677302.588   196195617.748        2260.707          37.000  
> 2020  5 30 12 31 30.0000000  0 24                     
G 2  21640790.367   113723126.016         168.587          45.000  
G 5  21295748.922   111909916.307        -205.801          48.000  
G13  20280103.112   106572662.430        1980.193          46.000  
G29  21420507.892   112565529.218        2291.368          46.000  
G 6  24290420.889   127647018.247       -1351.251          37.000  
G15  21031439.827   110520958.619        3625.279          43.000  
G30  24381242.013   128124286.838        1586.292          39.000  
C 6  36200562.765   188505831.242        1768.538          44.000  
C 8  36386927.147   189476278.899        1669.633          46.000  
C13  36329246.116   189175918.568        1818.809          47.000  
C14  25546453.987   133027078.996       -1356.844          41.000  
C16  36611622.154   190646329.657        1954.441          44.000  
C27  22468815.135   117001018.768        2777.986          50.000  
C28  22009118.988   114607255.204        -312.677          48.000  
C 4  38716778.904   201608423.296        1152.563          38.000  
C 1  37756214.183   196606517.691        1175.100          41.000  
C 3  36316127.670   189107609.250        1143.003          42.000  
C 2  37236848.797   193902041.540        1181.709          38.000  
C25  26538305.971   138191916.563        3158.964          38.000  
G18  24741177.428   130015766.122        4161.727          40.000  
G12  25574339.575   134394113.117        -968.680          30.000  
G25  25595854.228   134507066.146        -827.715          33.000  
C 5  39268292.093   204480303.640        1178.029          36.000  
C 9  37676868.218   196193357.023        2259.959          37.000  
> 2020  5 30 12 31 31.0000000  0 24                     
G 2  21640758.503   113722957.864         167.396          45.000  
G 5  21295788.185   111910122.283        -206.306          48.000  
G13  20279726.502   106570682.702        1979.050          46.000  
G29  21420072.021   112563238.461        2290.186          46.000  
G 6  24290677.930   127648369.640       -1351.875          37.000  
G15  21030749.915   110517333.357        3624.611          43.000  
G30  24380940.124   128122701.175        1585.421          39.000  
C 6  36200222.940   188504062.980        1767.897          44.000  
C 8  36386606.656   189474609.396        1669.222          46.000  
C13  36328896.727   189174099.867        1818.341          47.000  
C14  25546714.729   133028435.885       -1357.214          41.000  
C16  36611246.799   190644375.435        1953.876          44.000  
C27  22468281.751   116998241.014        2777.335          50.000  
C28  22009179.122   114607568.156        -313.474          48.000  
C 4  38716557.565   201607271.048        1151.672          38.000  
C 1  37755988.517   196605342.483        1174.756          41.000  
C 3  36315908.076   189106466.322        1142.833          42.000  
C 2  37236621.805   193900859.568        1181.579          38.000  
C25  26537699.262   138188757.587        3158.706          38.000  
G18  24740385.328   130011604.323        4161.582          40.000  
G12  25574528.282   134395082.246        -969.133          30.000  
G25  25596011.524   134507893.214        -827.321          33.000  
C 5  39268065.938   204479125.785        1177.838          36.000  
C 9  37676434.056   196191096.691        2260.063          37.000  
> 2020  5 30 12 31 32.0000000  0 24                     
G 2  21640726.499   113722790.345         167.385          45.000  
G 5  21295827.587   111910328.649        -206.273          48.000  
G13  20279349.717   106568703.910        1978.414          46.000  
G29  21419636.149   112560948.612        2289.530          46.000  
G 6  24290935.216   127649721.551       -1352.056          37.000  
G15  21030060.178   110513708.849        3624.221          43.000  
G30  24380638.654   128121116.241        1584.947          39.000  
C 6  36199883.708   188502295.136        1767.779          44.000  
C 8  36386286.096   189472940.182        1669.114          46.000  
C13  36328547.479   189172281.449        1818.396          47.000  
C14  25546975.609   133029792.961       -1356.945          41.000  
C16  36610871.550   190642421.646        1953.719          44.000  
C27  22467748.403   116995463.975        2776.845          50.000  
C28  22009239.534   114607881.855        -313.851          48.000  
C 4  38716336.262   201606119.057        1152.167          38.000  
C 1  37755762.816   196604167.541        1175.009          41.000  
C 3  36315688.623   189105323.666        1142.869          42.000  
C 2  37236395.126   193899677.878        1181.699          38.000  
C25  26537092.937   138185598.808        3158.707          38.000  
G18  24739593.612   130007442.752        4161.631          40.000  
G12  25574711.125   134396051.363        -969.270          30.000  
G25  25596168.855   134508720.440        -826.367          33.000  
C 5  39267839.958   204477948.217        1177.923          36.000  
C 9  37676000.034   196188836.754        2260.080          37.000  
> 2020  5 30 12 31 33.0000000  0 24                     
G 2  21640694.670   113722623.124         166.949          45.000  
G 5  21295866.885   111910535.038        -206.423          48.000  
G13  20278973.281   106566725.676        1977.881          46.000  
G29  21419200.522   112558659.306        2289.008          46.000  
G 6  24291192.677   127651073.591       -1352.179          37.000  
G15  21029370.301   110510084.772        3623.688          43.000  
G30  24380336.975   128119531.669        1584.055          39.000  
C 6  36199544.406   188500527.337        1767.709          44.000  
C 8  36385965.361   189471270.900        1669.211          46.000  
C13  36328198.265   189170462.897        1818.605          47.000  
C14  25547236.246   133031149.864       -1356.613          41.000  
C16  36610496.649   190640467.897        1953.626          44.000  
C27  22467215.194   116992687.276        2776.415          50.000  
C28  22009299.773   114608195.950        -314.376          48.000  
C 4  38716115.028   201604966.975        1152.075          38.000  
C 1  37755537.185   196602992.500        1175.008          41.000  
C 3  36315469.343   189104180.932        1142.581          42.000  
C 2  37236168.204   193898496.096        1181.663          38.000  
C25  26536486.507   138182439.826        3159.216          38.000  
G18  24738801.895   130003280.972        4161.847          40.000  
G12  25574895.434   134397020.132        -968.668          30.000  
G25  25596326.151   134509547.567        -827.049          33.000  
C 5  39267613.768   204476770.577        1177.915          36.000  
C 9  37675566.013   196186576.837        2259.895          37.000  
> 2020  5 30 12 31 34.0000000  0 24                     
G 2  21640662.806   113722456.100         167.200          45.000  
G 5  21295906.218   111910741.347        -206.093          48.000  
G13  20278596.914   106564747.902        1977.898          46.000  
G29  21418765.209   112556370.458        2288.763          46.000  
G 6  24291449.928   127652425.689       -1351.913          37.000  
G15  21028680.843   110506460.978        3623.933          43.000  
G30  24380035.679   128117947.350        1584.144          39.000  
C 6  36199204.894   188498759.505        1768.101          44.000  
C 8  36385644.835   189469601.464        1669.636          46.000  
C13  36327849.086   189168644.128        1819.202          47.000  
C14  25547496.603   133032506.512       -1356.372          41.000  
C16  36610121.505   190638514.108        1953.968          44.000  
C27  22466682.055   116989910.817        2776.513          50.000  
C28  22009360.255   114608510.324        -314.283          48.000  
C 4  38715893.829   201603814.712        1152.655          38.000  
C 1  37755311.658   196601817.267        1175.497          41.000  
C 3  36315249.889   189103037.984        1143.330          42.000  
C 2  37235941.456   193897314.113        1182.045          38.000  
C25  26535879.484   138179280.587        3159.677          38.000  
G18  24738010.144   129999118.885        4162.667          40.000  
G12  25575079.674   134397988.415        -967.881          30.000  
G25  25596483.901   134510374.344        -825.751          33.000  
C 5  39267387.579   204475592.748        1178.068          36.000  
C 9  37675132.095   196184316.866        2259.947          37.000  
> 2020  5 30 12 31 35.0000000  0 24                     
G 2  21640631.012   113722289.229         167.130          45.000  
G 5  21295945.411   111910947.549        -206.122          48.000  
G13  20278220.548   106562770.581        1977.053          46.000  
G29  21418329.512   112554082.023        2288.312          46.000  
G 6  24291707.144   127653777.784       -1351.945          37.000  
G15  21027991.350   110502837.469        3623.274          43.000  
G30  24379734.070   128116363.221        1584.308          39.000  
C 6  36198865.313   188496991.579        1768.055          44.000  
C 8  36385324.031   189467931.855        1669.819          46.000  
C13  36327499.802   189166825.171        1819.236          47.000  
C14  25547757.030   133033862.850       -1356.123          41.000  
C16  36609746.430   190636560.254        1953.919          44.000  
C27  22466148.916   116987134.568        2776.198          50.000  
C28  22009420.563   114608824.962        -314.682          48.000  
C 4  38715672.071   201602662.225        1152.710          38.000  
C 1  37755085.713   196600641.809        1175.601          41.000  
C 3  36315030.435   189101894.815        1143.594          42.000  
C 2  37235714.393   193896131.927        1182.105          38.000  
C25  26535272.705   138176121.039        3159.840          38.000  
G18  24737217.799   129994956.543        4162.078          40.000  
G12  25575269.672   134398956.250        -967.778          30.000  
G25  25596641.372   134511200.885        -826.726          33.000  
C 5  39267161.563   204474414.716        1177.609          36.000  
C 9  37674698.213   196182056.770        2260.000          37.000  
> 2020  5 30 12 31 36.0000000  0 24                     
G 2  21640599.497   113722122.491         166.316          45.000  
G 5  21295984.639   111911153.589        -206.213          48.000  
G13  20277844.426   106560793.617        1976.632          46.000  
G29  21417894.024   112551793.961        2287.710          46.000  
G 6  24291964.360   127655129.883       -1352.363          37.000  
G15  21027301.787   110499214.177        3622.820          43.000  
G30  24379432.216   128114779.300        1583.688          39.000  
C 6  36198525.871   188495223.542        1767.807          44.000  
C 8  36385003.470   189466261.983        1669.668          46.000  
C13  36327150.484   189165005.924        1819.142          47.000  
C14  25548017.667   133035218.838       -1356.147          41.000  
C16  36609371.006   190634606.278        1953.753          44.000  
C27  22465615.812   116984358.486        2775.730          50.000  
C28  22009480.836   114609139.801        -315.155          48.000  
C 4  38715450.803   201601509.466        1152.509          38.000  
C 1  37754859.942   196599466.071        1175.643          41.000  
C 3  36314810.877   189100751.399        1143.204          42.000  
C 2  37235487.191   193894949.480        1182.120          38.000  
C25  26534665.786   138172961.139        3159.682          38.000  
G18  24736425.769   129990793.772        4162.877          40.000  
G12  25575447.036   134399923.619        -967.727          29.000  
G25  25596798.738   134512026.948        -825.776          33.000  
C 5  39266935.513   204473236.336        1178.364          36.000  
C 9  37674264.122   196179796.498        2260.073          37.000  
> 2020  5 30 12 31 37.0000000  0 24                     
G 2  21640567.912   113721956.084         166.469          45.000  
G 5  21296023.867   111911359.697        -205.837          48.000  
G13  20277468.513   106558817.275        1976.285          46.000  
G29  21417458.816   112549506.482        2287.599          46.000  
G 6  24292221.751   127656482.158       -1352.119          36.000  
G15  21026612.294   110495591.322        3623.034          43.000  
G30  24379130.536   128113195.744        1583.785          39.000  
C 6  36198186.220   188493455.604        1768.082          44.000  
C 8  36384682.840   189464592.094        1670.377          46.000  
C13  36326800.956   189163186.601        1819.767          47.000  
C14  25548278.024   133036574.708       -1355.554          41.000  
C16  36608995.686   190632652.399        1954.164          44.000  
C27  22465082.847   116981582.785        2775.816          50.000  
C28  22009541.249   114609455.079        -315.223          48.000  
C 4  38715229.359   201600356.645        1153.082          38.000  
C 1  37754634.171   196598290.282        1176.109          41.000  
C 3  36314591.213   189099607.915        1143.737          42.000  
C 2  37235260.129   193893766.972        1182.988          38.000  
C25  26534059.077   138169801.091        3160.202          38.000  
G18  24735633.145   129986630.880        4163.377          40.000  
G12  25575632.845   134400890.567        -966.148          30.000  
G25  25596956.104   134512852.976        -825.427          34.000  
C 5  39266709.254   204472057.973        1178.369          36.000  
C 9  37673829.925   196177536.273        2260.765          37.000  
> 2020  5 30 12 31 38.0000000  0 24                     
G 2  21640536.397   113721789.811         166.113          45.000  
G 5  21296062.956   111911565.669        -206.014          48.000  
G13  20277092.531   106556841.341        1975.679          46.000  
G29  21417023.607   112547219.418        2286.682          46.000  
G 6  24292478.898   127657834.413       -1352.373          37.000  
G15  21025922.801   110491968.709        3622.493          43.000  
G30  24378829.346   128111612.425        1583.165          38.000  
C 6  36197846.709   188491687.561        1767.906          44.000  
C 8  36384362.105   189462921.988        1670.126          46.000  
C13  36326451.638   189161367.019        1819.757          47.000  
C14  25548538.416   133037930.233       -1355.419          41.000  
C16  36608620.367   190630698.413        1954.229          44.000  
C27  22464549.638   116978807.272        2775.365          50.000  
C28  22009601.836   114609770.583        -315.615          48.000  
C 4  38715007.846   201599203.564        1152.722          38.000  
C 1  37754408.365   196597114.258        1176.064          41.000  
C 3  36314371.655   189098464.190        1143.744          42.000  
C 2  37235032.823   193892584.215        1182.881          38.000  
C25  26533452.123   138166640.714        3160.506          38.000  
G18  24734840.731   129982467.675        4163.022          40.000  
G12  25575822.215   134401857.112        -967.041          30.000  
G25  25597113.226   134513678.661        -825.897          34.000  
C 5  39266482.750   204470879.328        1178.888          36.000  
C 9  37673395.624   196175275.955        2260.469          37.000  
> 2020  5 30 12 31 39.0000000  0 24                     
G 2  21640504.812   113721624.084         165.155          45.000  
G 5  21296102.114   111911771.924        -206.730          48.000  
G13  20276716.584   106554866.233        1974.348          46.000  
G29  21416588.539   112544933.146        2285.505          46.000  
G 6  24292736.323   127659187.094       -1353.298          37.000  
G15  21025233.552   110488346.768        3621.220          43.000  
G30  24378528.120   128110029.699        1582.025          38.000  
C 6  36197507.232   188489919.818        1767.286          44.000  
C 8  36384041.440   189461252.074        1669.381          46.000  
C13  36326102.214   189159547.576        1819.054          47.000  
C14  25548798.983   133039285.862       -1356.041          41.000  
C16  36608245.292   190628744.779        1953.106          44.000  
