     3.02           OBSERVATION DATA    M: Mixed            RINEX VERSION / TYPE
RTKCONV 2.4.3 b33                       20200629 092307 UTC PGM / RUN BY / DATE 
log: D:\Documents\²âÊÔÊý¾Ý\¾²Ö¹\rov_202006290902.log        COMMENT             
format: u-blox                                              COMMENT             
                                                            MARKER NAME         
                                                            MARKER NUMBER       
                                                            MARKER TYPE         
                                                            OBSERVER / AGENCY   
                                                            REC # / TYPE / VERS 
                                                            ANT # / TYPE        
 -2191131.6350  5198852.2886  2965376.7724                  APPROX POSITION XYZ 
        0.0000        0.0000        0.0000                  ANTENNA: DELTA H/E/N
G    4 C1C L1C D1C S1C                                      SYS / # / OBS TYPES 
C    4 C1I L1I D1I S1I                                      SYS / # / OBS TYPES 
  2020     6    29     9     2   22.5000000     GPS         TIME OF FIRST OBS   
  2020     6    29     9     4    0.0000000     GPS         TIME OF LAST OBS    
G                                                           SYS / PHASE SHIFT   
C                                                           SYS / PHASE SHIFT   
  0                                                         GLONASS SLOT / FRQ #
 C1C    0.000 C1P    0.000 C2C    0.000 C2P    0.000        GLONASS COD/PHS/BIS 
                                                            END OF HEADER       
> 2020  6 29  9  2 22.5000000  0 27                     
G25  24021422.737      603768.278        -974.785          36.500  
G17  24793882.164     7130274.831       -4173.428          34.750  
C11  24506022.081    -5191009.0352       3654.180          42.750  
G12  23358033.763   -13769470.052       -2409.824          40.250  
G13  22606736.046   -13671067.016        4358.809          40.500  
C16  37973223.346   -13191943.9032       2105.898          41.250  
C 8  37027753.644     -697486.5502        715.342          43.500  
C 7  39918067.402    16224160.2192      -1582.646          33.500  
C10  39031596.293    10062870.0082      -1870.088          36.250  
C 3  36426752.414    -4375538.9022        216.650          43.250  
C13  37065317.244    -4909473.6632        679.883          43.750  
C 2  37399274.215    -4951217.5862        268.975          39.000  
C 1  37855328.196    -4004767.8362        234.941          41.250  
C 6  37392770.685    -8439048.3102       1896.865          39.750  
C 4  38803986.742    -3959383.6362        210.098          37.250  
C12  21603242.227   -24704325.2132        848.213          46.500  
G 5  20552964.319   -30593417.451          56.309          47.000  
G15  24495673.404    -7966510.511        5076.357          36.000  
G29  23842472.181   -10380512.166        4407.500          43.500  
C21  21871070.748   -26305687.5712        -57.168          49.750  
G19  23418243.689    -7341905.676       -4079.746          38.750  
C 5  39459376.440    -4703236.1942        258.652          36.000  
G 6  22649234.912   -15495158.984       -1467.529          41.750  
C22  24221548.592   -16172837.0782      -3006.855          44.750  
G 2  21587439.869   -25582723.849         780.391          46.500  
G 9  24774026.006    -8606173.129       -3479.395          36.750  
G30  25735826.076    -1252718.587        2303.428          30.250  
> 2020  6 29  9  2 23.0000000  0 27                     
G25  24021496.835      604158.327        -975.098          36.500  
G17  24794199.749     7131944.309       -4173.750          34.750  
C11  24505741.372    -5192470.6062       3653.906          42.750  
G12  23358217.257   -13768505.949       -2410.293          40.250  
G13  22606404.308   -13672810.395        4358.477          40.500  
C16  37973061.443   -13192786.1602       2105.615          41.250  
C 8  37027698.641     -697772.6662        715.303          43.500  
C 7  39918189.047    16224793.3122      -1582.705          33.500  
C10  39031740.008    10063618.0822      -1870.127          36.500  
C 3  36426735.592    -4375625.4812        216.436          43.250  
C13  37065265.156    -4909745.5462        679.717          43.750  
C 2  37399253.642    -4951325.1032        268.789          39.000  
C 1  37855310.161    -4004861.7522        234.756          41.250  
C 6  37392625.128    -8439806.9612       1896.641          39.750  
C 4  38803970.653    -3959467.5902        209.873          37.250  
C12  21603176.942   -24704664.3172        847.764          46.500  
G 5  20552959.996   -30593439.781          55.801          47.000  
G15  24495287.051    -7968540.923        5075.967          36.000  
G29  23842136.757   -10382275.042        4407.168          43.500  
C21  21871075.529   -26305664.5062        -57.676          49.750  
G19  23418554.211    -7340273.645       -4080.068          38.500  
C 5  39459356.586    -4703339.5682        258.438          36.000  
G 6  22649346.655   -15494571.855       -1467.832          41.750  
C22  24221779.576   -16171634.2032      -3007.197          44.750  
G 2  21587380.420   -25583035.896         780.107          46.250  
G 9  24774291.005    -8604781.221       -3479.814          36.750  
G30  25735650.928    -1253639.898        2303.477          30.250  
> 2020  6 29  9  2 23.5000000  0 27                     
G25  24021571.051      604548.403        -975.205          36.500  
G17  24794517.483     7133613.693       -4173.438          35.000  
C11  24505460.642    -5193932.2582       3654.131          42.750  
G12  23358400.881   -13767541.890       -2410.166          40.500  
G13  22606072.457   -13674553.836        4358.564          40.750  
C16  37972899.706   -13193628.5052       2105.869          41.250  
C 8  37027643.616     -698058.8642        715.469          43.500  
C 7  39918310.793    16225426.3132      -1582.500          33.750  
C10  39031883.711    10064366.0542      -1869.961          36.500  
C 3  36426718.948    -4375712.1622        216.680          43.250  
C13  37065212.949    -4910017.5602        680.039          43.750  
C 2  37399232.810    -4951432.7212        269.053          39.000  
C 1  37855292.201    -4004955.7412        234.951          41.250  
C 6  37392479.410    -8440565.7192       1896.904          39.750  
C 4  38803954.481    -3959551.6582        210.117          37.250  
C12  21603111.861   -24705003.4312        847.773          46.500  
G 5  20552955.978   -30593462.127          55.850          47.000  
G15  24494900.503    -7970571.467        5076.436          36.000  
G29  23841801.237   -10384037.958        4407.305          43.500  
C21  21871080.114   -26305641.4472        -57.656          49.750  
G19  23418864.843    -7338641.642       -4080.039          38.500  
C 5  39459336.728    -4703443.0022        258.584          36.000  
G 6  22649458.467   -15493984.787       -1467.695          41.750  
C22  24222010.639   -16170431.4112      -3006.992          44.750  
G 2  21587321.116   -25583348.007         780.273          46.250  
G 9  24774555.786    -8603389.363       -3479.590          36.750  
G30  25735475.383    -1254561.443        2303.730          30.500  
> 2020  6 29  9  2 24.0000000  0 27                     
G25  24021645.350      604938.677        -975.732          36.250  
G17  24794835.181     7135283.190       -4173.740          35.000  
C11  24505180.007    -5195393.8262       3653.916          42.750  
G12  23358584.640   -13766577.665       -2410.508          40.500  
G13  22605740.755   -13676297.183        4358.320          40.500  
C16  37972737.898   -13194470.7782       2105.674          41.250  
C 8  37027588.800     -698345.0592        715.479          43.500  
C 7  39918432.255    16226059.3342      -1582.549          33.750  
C10  39032027.527    10065114.0812      -1870.098          36.250  
C 3  36426702.196    -4375798.7712        216.523          43.250  
C13  37065160.799    -4910289.5572        679.951          43.750  
C 2  37399212.250    -4951540.2742        268.828          39.000  
C 1  37855274.388    -4005049.6902        234.893          41.250  
C 6  37392333.784    -8441324.3352       1896.523          39.750  
C 4  38803938.348    -3959635.6492        210.010          37.250  
C12  21603046.907   -24705342.3802        847.363          46.500  
G 5  20552951.846   -30593484.326          55.488          47.000  
G15  24494514.146    -7972601.933        5076.221          36.000  
G29  23841465.901   -10385800.785        4407.021          43.500  
C21  21871085.074   -26305618.2092        -58.115          49.750  
G19  23419175.378    -7337009.513       -4080.312          38.500  
C 5  39459316.913    -4703546.4062        258.496          36.000  
G 6  22649570.214   -15493397.616       -1467.949          41.750  
C22  24222241.544   -16169228.5302      -3007.207          44.750  
G 2  21587261.833   -25583660.027         780.039          46.250  
G 9  24774820.763    -8601997.335       -3480.059          36.750  
G30  25735298.124    -1255482.851        2303.594          30.000  
> 2020  6 29  9  2 24.5000000  0 27                     
G25  24021719.631      605328.972        -975.674          36.500  
G17  24795153.006     7136952.692       -4173.779          35.000  
C11  24504899.251    -5196855.4262       3654.023          42.750  
G12  23358768.068   -13765613.436       -2410.586          40.250  
G13  22605408.908   -13678040.490        4358.320          40.750  
C16  37972576.109   -13195313.0442       2105.654          41.250  
C 8  37027534.011     -698631.2932        715.605          43.500  
C 7  39918553.809    16226692.3052      -1582.422          33.750  
C10  39032171.256    10065862.0572      -1869.922          36.250  
C 3  36426685.527    -4375885.4552        216.709          43.250  
C13  37065108.658    -4910561.6062        680.127          43.750  
C 2  37399191.418    -4951647.8702        268.994          39.000  
C 1  37855256.449    -4005143.6682        234.932          41.250  
C 6  37392188.031    -8442082.9982       1896.660          39.500  
C 4  38803922.403    -3959719.6922        210.098          37.250  
C12  21602981.800   -24705681.2582        847.188          46.500  
G 5  20552947.711   -30593506.469          55.371          47.000  
G15  24494127.720    -7974632.438        5076.172          35.750  
G29  23841130.503   -10387563.580        4406.992          43.500  
C21  21871089.603   -26305594.9122        -58.232          49.750  
G19  23419485.927    -7335377.388       -4080.322          38.500  
C 5  39459297.051    -4703649.8462        258.594          36.000  
G 6  22649681.856   -15492810.429       -1467.949          41.750  
C22  24222472.611   -16168025.6572      -3007.178          44.750  
G 2  21587202.371   -25583972.057         780.078          46.250  
G 9  24775085.623    -8600605.274       -3480.205          36.750  
G30  25735122.854    -1256404.375        2303.828          30.000  
> 2020  6 29  9  2 25.0000000  0 27                     
G25  24021794.130      605719.456        -976.221          36.500  
G17  24795470.805     7138622.225       -4173.867          35.000  
C11  24504618.486    -5198316.9592       3653.799          42.750  
G12  23358951.649   -13764649.101       -2410.869          40.250  
G13  22605077.215   -13679783.724        4358.037          40.750  
C16  37972414.345   -13196155.2722       2105.566          41.250  
C 8  37027479.012     -698917.5242        715.557          43.250  
C 7  39918675.315    16227325.2692      -1582.393          34.000  
C10  39032314.971    10066610.0882      -1870.059          36.250  
C 3  36426668.958    -4375972.0782        216.553          43.250  
C13  37065056.564    -4910833.6502        680.098          43.750  
C 2  37399170.849    -4951755.4352        268.916          39.000  
C 1  37855238.458    -4005237.6242        234.922          41.250  
C 6  37392042.313    -8442841.6182       1896.533          39.500  
C 4  38803906.249    -3959803.6952        209.961          37.500  
C12  21602916.886   -24706020.0072        846.855          46.500  
G 5  20552943.549   -30593528.483          55.029          47.000  
G15  24493741.211    -7976662.901        5076.152          35.750  
G29  23840795.437   -10389326.315        4406.807          43.500  
C21  21871093.839   -26305571.4822        -58.574          49.750  
G19  23419796.636    -7333745.156       -4080.615          38.500  
C 5  39459277.293    -4703753.2842        258.594          36.000  
G 6  22649793.655   -15492223.178       -1468.135          41.750  
C22  24222703.670   -16166822.7112      -3007.363          44.750  
G 2  21587142.979   -25584284.021         779.912          46.250  
G 9  24775350.534    -8599213.121       -3480.361          36.500  
G30  25734943.954    -1257325.786        2303.584          29.750  
> 2020  6 29  9  2 25.5000000  0 27                     
G25  24021868.272      606110.010        -976.396          36.500  
G17  24795788.461     7140291.774       -4173.867          35.000  
C11  24504337.803    -5199778.4952       3653.857          42.750  
G12  23359135.086   -13763684.725       -2410.928          40.250  
G13  22604745.386   -13681526.905        4357.979          40.750  
C16  37972252.630   -13196997.5042       2105.576          41.250  
C 8  37027424.149     -699203.7992        715.674          43.250  
C 7  39918797.013    16227958.1792      -1582.305          34.000  
C10  39032458.530    10067358.0252      -1869.824          36.250  
C 3  36426652.350    -4376058.7432        216.660          43.250  
C13  37065004.231    -4911105.7332        680.215          43.750  
C 2  37399150.232    -4951863.0392        269.023          39.000  
C 1  37855220.467    -4005331.6212        234.990          41.000  
C 6  37391896.665    -8443600.2152       1896.465          39.750  
C 4  38803890.164    -3959887.7182        210.107          37.500  
C12  21602851.853   -24706358.6782        846.680          46.500  
G 5  20552939.260   -30593550.441          54.893          47.000  
G15  24493354.741    -7978693.402        5076.211          35.500  
G29  23840459.900   -10391089.037        4406.816          43.500  
C21  21871098.232   -26305547.9732        -58.779          49.750  
G19  23420107.076    -7332112.903       -4080.615          38.500  
C 5  39459257.430    -4703856.7442        258.643          36.000  
G 6  22649905.480   -15491635.912       -1468.164          41.750  
C22  24222934.671   -16165619.7622      -3007.383          44.750  
G 2  21587083.609   -25584595.974         779.873          46.250  
G 9  24775615.472    -8597820.879       -3480.625          36.750  
G30  25734769.168    -1258247.271        2303.633          29.750  
> 2020  6 29  9  2 26.0000000  0 27                     
G25  24021942.675      606500.634        -976.611          36.500  
G17  24796106.002     7141961.366       -4173.975          35.000  
C11  24504057.095    -5201240.0572       3653.896          42.750  
G12  23359318.797   -13762720.300       -2411.094          40.250  
G13  22604413.827   -13683270.105        4357.979          41.000  
C16  37972090.923   -13197839.7522       2105.596          41.250  
C 8  37027368.984     -699490.1362        715.859          43.250  
C 7  39918918.667    16228591.0252      -1582.129          34.000  
C10  39032602.032    10068105.9382      -1869.814          36.250  
C 3  36426635.803    -4376145.4352        216.719          43.250  
C13  37064952.112    -4911377.8812        680.371          43.750  
C 2  37399129.579    -4951970.6752        269.062          39.000  
C 1  37855202.293    -4005425.6412        235.029          41.000  
C 6  37391750.872    -8444358.8452       1896.572          39.750  
C 4  38803873.896    -3959971.8072        210.186          37.250  
C12  21602786.855   -24706697.2882        846.514          46.500  
G 5  20552934.976   -30593572.332          54.717          47.000  
G15  24492968.201    -7980723.915        5076.299          35.500  
G29  23840124.346   -10392851.725        4406.719          43.500  
C21  21871102.319   -26305524.4032        -58.926          49.750  
G19  23420417.755    -7330480.611       -4080.752          38.500  
C 5  39459237.611    -4703960.2192        258.691          36.000  
G 6  22650017.127   -15491048.623       -1468.242          41.750  
C22  24223165.690   -16164416.8232      -3007.354          44.750  
G 2  21587024.074   -25584907.933         779.893          46.250  
G 9  24775880.401    -8596428.627       -3480.654          36.750  
G30  25734594.736    -1259168.786        2303.760          30.000  
> 2020  6 29  9  2 26.5000000  0 27                     
G25  24022016.804      606891.405        -976.924          36.500  
G17  24796423.688     7143630.974       -4174.062          35.000  
C11  24503776.299    -5202701.5742       3653.779          42.750  
G12  23359502.121   -13761755.786       -2411.289          40.250  
G13  22604082.264   -13685013.192        4357.725          41.000  
C16  37971929.199   -13198681.9442       2105.488          41.250  
C 8  37027313.990     -699776.4542        715.762          43.250  
C 7  39919040.308    16229223.9102      -1582.197          34.000  
C10  39032745.699    10068853.8762      -1869.883          36.250  
C 3  36426618.946    -4376232.1072        216.670          43.250  
C13  37064899.752    -4911650.0242        680.342          43.750  
C 2  37399109.088    -4952078.2662        268.945          39.000  
C 1  37855184.249    -4005519.6222        234.922          41.250  
C 6  37391605.215    -8445117.4322       1896.494          39.750  
C 4  38803857.907    -3960055.8492        210.127          37.500  
C12  21602721.801   -24707035.7552        846.143          46.500  
G 5  20552930.631   -30593594.102          54.414          47.000  
G15  24492581.801    -7982754.381        5076.162          35.500  
G29  23839788.822   -10394614.362        4406.562          43.500  
C21  21871106.577   -26305500.6922        -59.297          49.750  
G19  23420728.474    -7328848.226       -4080.947          38.500  
C 5  39459217.770    -4704063.6632        258.564          35.750  
G 6  22650128.804   -15490461.269       -1468.379          41.750  
C22  24223396.596   -16163213.8102      -3007.559          44.750  
G 2  21586964.708   -25585219.841         779.746          46.250  
G 9  24776145.514    -8595036.260       -3480.918          36.750  
G30  25734418.423    -1260090.216        2303.506          30.000  
> 2020  6 29  9  2 27.0000000  0 27                     
G25  24022091.002      607282.330        -977.334          36.500  
G17  24796741.404     7145300.679       -4174.238          35.000  
C11  24503495.786    -5204162.9962       3653.564          42.750  
G12  23359685.714   -13760791.136       -2411.631          40.000  
G13  22603750.562   -13686756.187        4357.461          41.000  
C16  37971767.452   -13199524.0512       2105.254          41.250  
C 8  37027258.965     -700062.7512        715.723          43.250  
C 7  39919162.032    16229856.7692      -1582.197          34.000  
C10  39032889.236    10069601.8772      -1869.980          36.500  
C 3  36426602.547    -4376318.7372        216.562          43.250  
C13  37064847.506    -4911922.1312        680.254          43.750  
C 2  37399088.371    -4952185.8432        268.955          39.000  
C 1  37855166.158    -4005613.5822        234.873          41.250  
C 6  37391459.646    -8445875.9252       1896.182          39.750  
C 4  38803841.761    -3960139.8722        210.088          37.250  
C12  21602656.890   -24707374.0792        845.820          46.500  
G 5  20552926.339   -30593615.735          54.072          47.000  
G15  24492195.431    -7984784.858        5076.162          35.500  
G29  23839453.459   -10396376.895        4406.338          43.250  
C21  21871111.367   -26305476.8272        -59.668          49.750  
G19  23421039.197    -7327215.744       -4081.211          38.500  
C 5  39459197.916    -4704167.0822        258.574          35.750  
G 6  22650240.333   -15489873.820       -1468.623          42.000  
C22  24223627.746   -16162010.7312      -3007.686          44.750  
G 2  21586905.233   -25585531.654         779.531          46.250  
G 9  24776410.382    -8593643.756       -3481.260          36.500  
G30  25734244.475    -1261011.690        2303.740          29.750  
> 2020  6 29  9  2 27.5000000  0 27                     
G25  24022165.384      607673.508        -977.930          36.500  
G17  24797059.041     7146970.543       -4174.678          35.000  
C11  24503215.152    -5205624.2792       3653.193          42.750  
G12  23359869.382   -13759826.290       -2412.109          40.000  
G13  22603419.239   -13688498.991        4357.012          41.000  
C16  37971605.850   -13200366.0372       2104.980          41.500  
C 8  37027203.936     -700348.9222        715.449          43.500  
C 7  39919283.713    16230489.7712      -1582.490          34.250  
C10  39033032.891    10070350.0122      -1870.342          36.250  
C 3  36426585.655    -4376405.2242        216.221          43.250  
C13  37064795.226    -4912194.1382        679.990          43.750  
C 2  37399067.853    -4952293.2672        268.574          39.250  
C 1  37855148.232    -4005707.4162        234.629          41.000  
C 6  37391314.155    -8446634.2692       1895.830          39.750  
C 4  38803825.690    -3960223.7162        209.551          37.250  
C12  21602591.928   -24707712.1532        845.186          46.500  
G 5  20552922.430   -30593637.141          53.516          47.000  
G15  24491809.210    -7986815.164        5075.762          35.500  
G29  23839118.083   -10398139.242        4405.889          43.250  
C21  21871116.284   -26305452.7292        -60.234          49.750  
G19  23421349.858    -7325583.072       -4081.699          38.500  
C 5  39459178.119    -4704270.3612        258.135          35.750  
G 6  22650352.175   -15489286.192       -1469.072          42.000  
C22  24223858.560   -16160807.4722      -3008.164          44.750  
G 2  21586845.916   -25585843.313         779.141          46.250  
G 9  24776675.564    -8592251.048       -3481.768          36.500  
G30  25734068.455    -1261933.004        2303.291          30.250  
> 2020  6 29  9  2 28.0000000  0 27                     
G25  24022239.831      608064.694        -977.969          36.500  
G17  24797376.705     7148640.347       -4174.482          35.250  
C11  24502934.513    -5207085.6052       3653.320          42.750  
G12  23360053.011   -13758861.463       -2412.051          40.250  
G13  22603087.654   -13690241.812        4357.051          41.000  
C16  37971444.336   -13201208.0532       2105.039          41.500  
C 8  37027148.976     -700635.2002        715.693          43.500  
C 7  39919405.288    16231122.6632      -1582.207          34.000  
C10  39033176.589    10071098.0432      -1870.068          36.250  
C 3  36426569.086    -4376491.8012        216.455          43.250  
C13  37064742.679    -4912466.2462        680.283          43.750  
C 2  37399047.101    -4952400.7712        268.730          39.250  
C 1  37855130.271    -4005801.3082        234.727          41.250  
C 6  37391168.515    -8447392.6662       1896.016          39.750  
C 4  38803809.465    -3960307.6722        209.902          37.250  
C12  21602527.227   -24708050.2212        845.186          46.500  
G 5  20552918.551   -30593658.537          53.496          47.000  
G15  24491422.714    -7988845.524        5075.918          35.500  
G29  23838782.681   -10399901.608        4405.938          43.250  
C21  21871121.214   -26305428.6062        -60.303          49.750  
G19  23421660.542    -7323950.412       -4081.631          38.500  
C 5  39459158.273    -4704373.6992        258.398          35.750  
G 6  22650464.079   -15488698.616       -1468.945          42.000  
C22  24224089.631   -16159604.2642      -3008.008          44.750  
G 2  21586786.720   -25586155.008         779.248          46.250  
G 9  24776940.664    -8590858.359       -3481.719          36.500  
G30  25733893.918    -1262854.376        2303.457          30.250  
> 2020  6 29  9  2 28.5000000  0 27                     
G25  24022314.269      608456.018        -978.301          36.750  
G17  24797694.469     7150310.197       -4174.629          35.250  
C11  24502654.045    -5208546.9002       3653.242          42.750  
G12  23360236.753   -13757896.537       -2412.314          40.250  
G13  22602756.118   -13691984.576        4356.943          41.000  
C16  37971282.541   -13202050.0552       2105.000          41.500  
C 8  37027093.965     -700921.4802        715.703          43.250  
C 7  39919526.942    16231755.5572      -1582.236          34.250  
C10  39033320.239    10071846.0562      -1870.039          36.250  
C 3  36426552.382    -4376578.3672        216.426          43.250  
C13  37064690.385    -4912738.3632        680.293          43.750  
C 2  37399026.597    -4952508.2612        268.711          39.000  
C 1  37855112.250    -4005895.1882        234.688          41.250  
C 6  37391023.037    -8448151.0322       1895.947          39.750  
C 4  38803793.298    -3960391.6232        209.873          37.500  
C12  21602462.251   -24708388.1652        844.863          46.500  
G 5  20552914.438   -30593679.818          53.213          47.000  
G15  24491036.475    -7990875.889        5075.869          35.500  
G29  23838447.214   -10401663.942        4405.811          43.500  
C21  21871126.017   -26305404.3632        -60.615          49.750  
G19  23421971.156    -7322317.669       -4081.865          38.500  
C 5  39459138.489    -4704477.1012        258.477          36.000  
G 6  22650575.870   -15488110.965       -1469.150          42.000  
C22  24224320.725   -16158401.0142      -3008.135          44.750  
G 2  21586727.446   -25586466.660         779.121          46.250  
G 9  24777205.562    -8589465.589       -3481.943          36.500  
G30  25733716.327    -1263775.732        2303.359          30.250  
> 2020  6 29  9  2 29.0000000  0 27                     
G25  24022388.576      608847.420        -978.496          36.500  
G17  24798012.251     7151980.091       -4174.756          35.250  
C11  24502373.284    -5210008.2182       3653.262          42.750  
G12  23360420.469   -13756931.574       -2412.441          40.250  
G13  22602424.594   -13693727.330        4356.855          41.000  
C16  37971120.909   -13202892.0592       2105.010          41.250  
C 8  37027039.071     -701207.8212        715.830          43.500  
C 7  39919648.466    16232388.3982      -1582.119          34.000  
C10  39033463.937    10072594.1002      -1870.098          36.250  
C 3  36426535.726    -4376664.9622        216.455          43.250  
C13  37064638.078    -4913010.5342        680.410          43.750  
C 2  37399005.731    -4952615.8122        268.906          39.250  
C 1  37855094.149    -4005989.1312        234.844          41.250  
C 6  37390877.376    -8448909.4122       1895.957          39.750  
C 4  38803777.130    -3960475.5762        209.883          37.500  
C12  21602397.266   -24708726.0342        844.658          46.500  
G 5  20552910.415   -30593701.057          53.086          47.000  
G15  24490650.149    -7992906.267        5075.957          35.500  
G29  23838111.777   -10403426.225        4405.703          43.500  
C21  21871130.619   -26305380.0442        -60.801          49.750  
G19  23422281.883    -7320684.916       -4081.885          38.500  
C 5  39459118.709    -4704580.4682        258.438          36.000  
G 6  22650687.542   -15487523.293       -1469.170          42.000  
C22  24224551.918   -16157197.7622      -3008.125          44.750  
G 2  21586667.937   -25586778.316         779.150          46.250  
G 9  24777470.596    -8588072.743       -3482.109          36.500  
G30  25733543.347    -1264697.188        2303.643          30.250  
> 2020  6 29  9  2 29.5000000  0 27                     
G25  24022463.132      609239.039        -979.062          36.500  
G17  24798330.159     7153650.082       -4175.000          35.250  
C11  24502092.654    -5211469.4062       3652.969          42.750  
G12  23360604.285   -13755966.461       -2412.793          40.500  
G13  22602093.001   -13695469.918        4356.445          41.000  
C16  37970959.337   -13203733.9542       2104.697          41.250  
C 8  37026984.050     -701494.0942        715.684          43.250  
C 7  39919770.159    16233021.2722      -1582.275          34.250  
C10  39033607.736    10073342.1602      -1870.186          36.250  
C 3  36426519.296    -4376751.4642        216.250          43.250  
C13  37064585.871    -4913282.6292        680.225          43.750  
C 2  37398985.248    -4952723.2592        268.613          39.250  
C 1  37855076.180    -4006082.9662        234.561          41.250  
C 6  37390731.714    -8449667.6952       1895.635          39.750  
C 4  38803760.928    -3960559.4822        209.756          37.500  
C12  21602332.334   -24709063.7072        844.160          46.500  
G 5  20552906.354   -30593722.108          52.598          47.000  
G15  24490263.731    -7994936.543        5075.654          35.500  
G29  23837776.432   -10405188.395        4405.400          43.500  
C21  21871135.248   -26305355.5352        -61.289          49.750  
G19  23422592.445    -7319051.994       -4082.354          38.250  
C 5  39459098.746    -4704683.7652        258.193          36.000  
G 6  22650799.490   -15486935.507       -1469.502          42.000  
C22  24224782.977   -16155994.3832      -3008.477          44.750  
G 2  21586608.732   -25587089.843         778.789          46.250  
G 9  24777735.761    -8586679.748       -3482.520          36.750  
G30  25733366.140    -1265618.449        2302.988          30.000  
> 2020  6 29  9  2 30.0000000  0 27                     
G25  24022537.584      609630.649        -979.014          36.500  
G17  24798648.220     7155319.949       -4174.717          35.000  
C11  24501811.832    -5212930.6972       3653.223          42.750  
G12  23360788.114   -13755001.391       -2412.686          40.500  
G13  22601761.372   -13697212.573        4356.650          41.000  
C16  37970797.670   -13204575.9512       2105.010          41.500  
C 8  37026928.833     -701780.4862        715.977          43.250  
C 7  39919891.787    16233654.0192      -1581.826          34.250  
C10  39033751.338    10074090.1202      -1869.883          36.250  
C 3  36426502.526    -4376838.1032        216.592          43.250  
C13  37064533.625    -4913554.8842        680.635          43.750  
C 2  37398964.548    -4952830.8412        268.887          39.000  
C 1  37855058.084    -4006176.9182        234.873          41.000  
C 6  37390586.275    -8450426.0472       1895.908          39.750  
C 4  38803744.886    -3960643.5062        210.049          37.500  
C12  21602267.502   -24709401.3942        844.219          46.500  
G 5  20552902.257   -30593743.183          52.695          47.000  
G15  24489877.392    -7996966.957        5076.074          35.250  
G29  23837441.061   -10406950.648        4405.635          43.500  
C21  21871139.667   -26305331.0482        -61.221          49.750  
G19  23422903.264    -7317419.149       -4082.100          38.250  
C 5  39459078.940    -4704787.1732        258.574          36.000  
G 6  22650911.376   -15486347.798       -1469.238          42.000  
C22  24225014.231   -16154791.1032      -3008.203          44.750  
G 2  21586549.498   -25587401.459         779.053          46.250  
G 9  24778000.900    -8585286.810       -3482.344          36.500  
G30  25733189.906    -1266539.850        2303.652          30.250  
> 2020  6 29  9  2 30.5000000  0 27                     
G25  24022612.039      610022.348        -979.199          36.250  
G17  24798966.154     7156989.912       -4174.834          35.250  
C11  24501531.145    -5214391.9752       3653.203          42.750  
G12  23360971.992   -13754036.237       -2412.832          40.500  
G13  22601429.727   -13698955.166        4356.455          41.000  
C16  37970636.024   -13205417.9142       2104.922          41.500  
C 8  37026873.974     -702066.9042        716.064          43.250  
C 7  39920013.376    16234286.7572      -1581.816          34.250  
C10  39033895.027    10074838.0852      -1869.922          36.250  
C 3  36426486.093    -4376924.7362        216.592          43.250  
C13  37064481.396    -4913827.1692        680.732          43.750  
C 2  37398943.865    -4952938.4122        268.984          39.000  
C 1  37855040.219    -4006270.8872        234.951          41.000  
C 6  37390440.697    -8451184.3702       1895.820          39.750  
C 4  38803728.810    -3960727.5192        210.049          37.500  
C12  21602202.792   -24709738.9752        843.955          46.500  
G 5  20552898.161   -30593764.158          52.451          47.000  
G15  24489491.092    -7998997.349        5075.967          35.500  
G29  23837105.833   -10408712.823        4405.469          43.500  
C21  21871143.982   -26305306.4422        -61.494          49.750  
G19  23423213.995    -7315786.207       -4082.363          38.250  
C 5  39459059.051    -4704890.5982        258.525          36.000  
G 6  22651023.206   -15485760.015       -1469.463          42.000  
C22  24225245.355   -16153587.7782      -3008.291          44.750  
G 2  21586490.141   -25587713.042         778.955          46.250  
G 9  24778265.868    -8583893.753       -3482.666          36.500  
G30  25733018.183    -1267461.289        2303.604          30.000  
> 2020  6 29  9  2 31.0000000  0 27                     
G25  24022686.578      610414.140        -979.502          36.250  
G17  24799284.106     7158659.851       -4174.844          35.500  
C11  24501250.585    -5215853.2562       3653.184          42.750  
G12  23361155.694   -13753071.042       -2413.018          40.750  
G13  22601098.133   -13700697.757        4356.484          41.000  
C16  37970474.343   -13206259.9032       2104.941          41.500  
C 8  37026818.810     -702353.3782        716.143          43.250  
C 7  39920134.882    16234919.4252      -1581.680          34.250  
C10  39034038.691    10075586.0152      -1869.824          36.250  
C 3  36426469.227    -4377011.3922        216.621          43.250  
C13  37064429.220    -4914099.4962        680.801          43.750  
C 2  37398923.126    -4953046.0082        269.004          39.000  
C 1  37855021.980    -4006364.8802        234.990          41.000  
C 6  37390295.175    -8451942.7382       1895.928          39.750  
C 4  38803712.617    -3960811.5462        210.059          37.500  
C12  21602138.017   -24710076.4842        843.760          46.500  
G 5  20552894.187   -30593785.078          52.275          47.000  
G15  24489104.684    -8001027.794        5076.113          35.500  
G29  23836770.510   -10410475.007        4405.449          43.500  
C21  21871148.916   -26305281.7782        -61.680          49.750  
G19  23423524.745    -7314153.280       -4082.344          38.250  
C 5  39459039.341    -4704994.0482        258.672          36.000  
G 6  22651135.084   -15485172.239       -1469.482          41.750  
C22  24225476.357   -16152384.4592      -3008.320          44.750  
G 2  21586430.744   -25588024.622         778.955          46.250  
G 9  24778530.871    -8582500.662       -3482.715          36.500  
G30  25732840.575    -1268382.804        2303.770          30.000  
> 2020  6 29  9  2 31.5000000  0 27                     
G25  24022760.955      610806.095        -979.893          36.250  
G17  24799602.070     7160329.864       -4174.990          35.500  
C11  24500970.064    -5217314.4742       3653.047          42.750  
G12  23361339.349   -13752105.737       -2413.281          40.750  
G13  22600766.614   -13702440.237        4356.221          41.000  
C16  37970312.859   -13207101.8102       2104.785          41.500  
C 8  37026763.837     -702639.8492        716.221          43.250  
C 7  39920256.606    16235552.1552      -1581.777          34.250  
C10  39034182.467    10076333.9992      -1869.961          36.250  
C 3  36426452.597    -4377098.0072        216.543          43.250  
C13  37064376.870    -4914371.7962        680.762          43.750  
C 2  37398902.417    -4953153.5602        268.906          39.000  
C 1  37855003.927    -4006458.8352        234.863          41.250  
C 6  37390149.610    -8452701.0032       1895.645          39.750  
C 4  38803696.462    -3960895.5302        209.980          37.500  
C12  21602073.259   -24710413.8492        843.418          46.500  
G 5  20552890.055   -30593805.862          51.963          47.000  
G15  24488718.262    -8003058.153        5075.850          35.500  
G29  23836435.343   -10412237.097        4405.234          43.500  
C21  21871153.872   -26305256.9512        -62.070          49.750  
G19  23423835.415    -7312520.228       -4082.607          38.250  
C 5  39459019.448    -4705097.4662        258.506          35.750  
G 6  22651246.935   -15484584.366       -1469.639          41.750  
C22  24225707.568   -16151181.0532      -3008.516          44.750  
G 2  21586371.374   -25588336.128         778.760          46.250  
G 9  24778796.045    -8581107.489       -3482.949          36.500  
G30  25732666.112    -1269304.194        2303.486          29.750  
> 2020  6 29  9  2 32.0000000  0 27                     
G25  24022835.428      611198.168        -980.166          36.250  
G17  24799920.031     7161999.948       -4175.215          35.500  
C11  24500689.456    -5218775.6372       3652.900          42.750  
G12  23361523.061   -13751140.358       -2413.467          40.500  
G13  22600434.942   -13704182.655        4356.045          41.000  
C16  37970151.200   -13207943.6912       2104.688          41.500  
C 8  37026708.834     -702926.3142        716.123          43.250  
C 7  39920378.208    16236184.8612      -1581.836          34.250  
C10  39034326.152    10077081.9492      -1869.883          36.250  
C 3  36426435.976    -4377184.6142        216.484          43.250  
C13  37064324.510    -4914644.1212        680.791          43.750  
C 2  37398881.987    -4953261.1172        268.848          39.000  
C 1  37854985.661    -4006552.7662        234.814          41.000  
C 6  37390004.023    -8453459.2552       1895.615          40.000  
C 4  38803680.329    -3960979.5272        209.932          37.250  
C12  21602008.318   -24710751.0972        843.086          46.500  
G 5  20552886.146   -30593826.541          51.680          47.000  
G15  24488331.717    -8005088.517        5075.957          35.750  
G29  23836099.990   -10413999.125        4405.029          43.250  
C21  21871159.015   -26305232.0132        -62.363          49.750  
G19  23424146.273    -7310887.083       -4082.881          38.500  
C 5  39458999.686    -4705200.8582        258.496          36.000  
G 6  22651358.835   -15483996.449       -1469.824          41.750  
C22  24225938.674   -16149977.6162      -3008.613          44.750  
G 2  21586312.249   -25588647.581         778.613          46.250  
G 9  24779061.362    -8579714.165       -3483.359          36.750  
G30  25732492.473    -1270225.592        2303.428          29.750  
> 2020  6 29  9  2 32.5000000  0 27                     
G25  24022910.050      611590.365        -980.576          36.250  
G17  24800237.913     7163670.058       -4175.400          35.500  
C11  24500409.052    -5220236.7552       3652.764          42.750  
G12  23361706.894   -13750174.856       -2413.740          40.500  
G13  22600103.327   -13705924.961        4355.713          41.000  
C16  37969989.415   -13208785.5332       2104.561          41.250  
C 8  37026653.678     -703212.7612        716.104          43.250  
C 7  39920499.770    16236817.5812      -1581.895          34.250  
C10  39034469.615    10077829.9502      -1870.029          36.250  
C 3  36426419.634    -4377271.1902        216.426          43.250  
C13  37064272.033    -4914916.4222        680.723          43.750  
C 2  37398861.260    -4953368.6182        268.701          39.000  
C 1  37854967.605    -4006646.6742        234.707          41.000  
C 6  37389858.327    -8454217.4132       1895.371          40.000  
C 4  38803664.214    -3961063.5072        209.941          37.250  
C12  21601943.635   -24711088.1982        842.744          46.500  
G 5  20552882.556   -30593847.086          51.348          47.000  
G15  24487945.383    -8007118.849        5075.811          35.750  
G29  23835764.518   -10415761.069        4404.844          43.250  
C21  21871163.975   -26305206.9352        -62.705          49.750  
G19  23424457.075    -7309253.875       -4083.037          38.500  
C 5  39458979.932    -4705304.1992        258.330          35.750  
G 6  22651470.761   -15483408.444       -1470.068          41.750  
C22  24226169.689   -16148774.0972      -3008.799          44.750  
G 2  21586252.992   -25588958.964         778.447          46.250  
G 9  24779326.361    -8578320.776       -3483.428          36.750  
G30  25732316.946    -1271146.960        2303.359          29.750  
> 2020  6 29  9  2 33.0000000  0 27                     
G25  24022984.588      611982.665        -980.693          36.500  
G17  24800555.864     7165340.224       -4175.361          35.500  
C11  24500128.488    -5221697.8872       3652.852          42.750  
G12  23361890.772   -13749209.309       -2413.857          40.500  
G13  22599771.877   -13707667.251        4355.742          41.000  
C16  37969827.817   -13209627.3342       2104.531          41.250  
C 8  37026598.697     -703499.2512        716.260          43.250  
C 7  39920621.355    16237450.1832      -1581.377          34.250  
C10  39034613.265    10078577.9362      -1869.902          36.250  
C 3  36426403.056    -4377357.7792        216.504          43.250  
C13  37064219.839    -4915188.7682        680.898          43.750  
C 2  37398840.564    -4953476.1562        268.896          39.000  
C 1  37854949.675    -4006740.6132        234.902          41.000  
C 6  37389712.539    -8454975.6112       1895.518          39.750  
C 4  38803648.260    -3961147.4672        209.932          37.250  
C12  21601878.968   -24711425.2392        842.617          46.500  
G 5  20552878.935   -30593867.566          51.230          47.000  
G15  24487559.118    -8009149.155        5075.752          35.500  
G29  23835429.194   -10417522.993        4404.824          43.250  
C21  21871168.661   -26305181.7742        -62.891          49.750  
G19  23424767.942    -7307620.622       -4083.125          38.250  
C 5  39458959.877    -4705407.5842        258.525          36.000  
G 6  22651582.608   -15482820.409       -1470.039          41.750  
C22  24226400.900   -16147570.5732      -3008.799          44.750  
G 2  21586193.832   -25589270.351         778.477          46.250  
G 9  24779591.483    -8576927.321       -3483.652          36.500  
G30  25732136.720    -1272068.387        2303.613          29.500  
> 2020  6 29  9  2 33.5000000  0 27                     
G25  24023059.288      612375.115        -981.172          36.500  
G17  24800873.716     7167010.379       -4175.361          35.750  
C11  24499847.875    -5223158.9762       3652.676          42.750  
G12  23362074.418   -13748243.701       -2414.072          40.500  
G13  22599440.406   -13709409.487        4355.605          41.000  
C16  37969666.145   -13210469.1392       2104.531          41.500  
C 8  37026543.532     -703785.7412        716.191          43.250  
C 7  39920742.708    16238082.8162      -1581.670          34.000  
C10  39034756.872    10079325.8802      -1869.961          36.250  
C 3  36426386.491    -4377444.3812        216.494          43.250  
C13  37064167.637    -4915461.1282        680.859          43.750  
C 2  37398819.895    -4953583.6912        268.789          39.250  
C 1  37854931.788    -4006834.5402        234.805          41.000  
C 6  37389566.904    -8455733.7542       1895.342          39.750  
C 4  38803632.136    -3961231.4692        209.980          37.250  
C12  21601814.211   -24711762.1512        842.275          46.500  
G 5  20552875.070   -30593887.948          50.928          47.000  
G15  24487172.870    -8011179.493        5075.879          35.750  
G29  23835093.950   -10419284.859        4404.658          43.250  
C21  21871173.464   -26305156.5042        -63.193          49.750  
G19  23425078.795    -7305987.289       -4083.311          38.250  
C 5  39458940.032    -4705510.9562        258.359          36.000  
G 6  22651694.612   -15482232.330       -1470.205          41.750  
C22  24226632.106   -16146367.0112      -3008.926          44.750  
G 2  21586134.488   -25589581.691         778.330          46.250  
G 9  24779856.700    -8575533.771       -3483.877          36.500  
G30  25731958.488    -1272989.749        2303.506          29.250  
> 2020  6 29  9  2 34.0000000  0 27                     
G25  24023134.084      612767.534        -981.045          36.500  
G17  24801191.681     7168680.464       -4175.254          35.750  
C11  24499567.372    -5224620.1542       3652.959          42.750  
G12  23362258.391   -13747278.097       -2413.984          40.500  
G13  22599108.725   -13711151.759        4355.645          41.000  
C16  37969504.316   -13211311.0232       2104.668          41.250  
C 8  37026488.673     -704072.3622        716.543          43.250  
C 7  39920864.196    16238715.3782      -1581.367          34.250  
C10  39034900.343    10080073.7522      -1869.668          36.250  
C 3  36426369.874    -4377531.0902        216.758          43.250  
C13  37064115.260    -4915733.6092        681.211          43.750  
C 2  37398799.247    -4953691.3492        269.092          39.000  
C 1  37854913.858    -4006928.5892        235.078          41.250  
C 6  37389421.199    -8456491.9852       1895.586          39.750  
C 4  38803615.960    -3961315.5422        210.205          37.500  
C12  21601749.505   -24712099.0752        842.295          46.500  
G 5  20552871.192   -30593908.344          50.957          47.000  
G15  24486786.409    -8013209.911        5076.055          35.750  
G29  23834758.674   -10421046.806        4404.834          43.250  
C21  21871177.992   -26305131.2432        -63.174          49.750  
G19  23425389.671    -7304354.010       -4083.242          38.500  
C 5  39458920.047    -4705614.4482        258.760          36.000  
G 6  22651806.546   -15481644.320       -1470.049          41.750  
C22  24226863.256   -16145163.5162      -3008.750          44.750  
G 2  21586075.144   -25589893.106         778.525          46.250  
G 9  24780122.039    -8574140.241       -3483.848          36.750  
G30  25731784.404    -1273911.225        2303.623          29.250  
> 2020  6 29  9  2 34.5000000  0 27                     
G25  24023208.946      613160.082        -981.367          36.500  
G17  24801509.497     7170350.638       -4175.449          35.500  
C11  24499286.768    -5226081.2772       3652.812          42.750  
G12  23362442.364   -13746312.436       -2414.131          40.500  
G13  22598777.010   -13712893.984        4355.576          40.750  
C16  37969342.771   -13212152.8692       2104.619          41.250  
C 8  37026433.496     -704358.9752        716.562          43.250  
C 7  39920985.759    16239347.9002      -1581.289          34.500  
C10  39035044.033    10080821.6332      -1869.688          36.250  
C 3  36426353.052    -4377617.7762        216.729          43.250  
C13  37064063.006    -4916006.1102        681.279          43.750  
C 2  37398778.538    -4953798.9562        269.072          39.000  
C 1  37854895.788    -4007022.6122        235.088          41.250  
C 6  37389275.611    -8457250.1782       1895.488          39.750  
C 4  38803599.753    -3961399.5922        210.098          37.250  
C12  21601684.957   -24712435.8732        842.012          46.500  
G 5  20552867.243   -30593928.618          50.742          47.000  
G15  24486400.105    -8015240.310        5075.967          36.000  
G29  23834423.394   -10422808.662        4404.688          43.250  
C21  21871182.734   -26305105.8442        -63.477          49.750  
G19  23425700.494    -7302720.653       -4083.340          38.500  
C 5  39458900.193    -4705717.9482        258.691          36.000  
G 6  22651918.328   -15481056.239       -1470.186          41.750  
C22  24227094.437   -16143959.9732      -3008.838          44.750  
G 2  21586015.957   -25590204.470         778.428          46.250  
G 9  24780387.243    -8572746.650       -3483.906          36.750  
G30  25731608.157    -1274832.729        2303.730          29.000  
> 2020  6 29  9  2 35.0000000  0 27                     
G25  24023283.720      613552.786        -981.748          36.500  
G17  24801827.357     7172020.863       -4175.557          35.500  
C11  24499006.164    -5227542.3622       3652.734          43.000  
G12  23362626.194   -13745346.665       -2414.453          40.500  
G13  22598445.456   -13714636.115        4355.342          40.750  
C16  37969181.012   -13212994.6672       2104.482          41.250  
C 8  37026378.558     -704645.6012        716.562          43.250  
C 7  39921107.173    16239980.4142      -1581.328          34.250  
C10  39035187.526    10081569.5092      -1869.658          36.500  
C 3  36426336.505    -4377704.4272        216.621          43.000  
C13  37064010.747    -4916278.6042        681.221          43.750  
C 2  37398757.597    -4953906.5522        269.004          39.000  
C 1  37854877.692    -4007116.6032        234.980          41.250  
C 6  37389129.867    -8458008.3172       1895.352          39.750  
C 4  38803583.568    -3961483.6522        210.176          37.250  
C12  21601620.282   -24712772.5462        841.680          46.500  
G 5  20552863.304   -30593948.783          50.391          47.000  
G15  24486013.709    -8017270.666        5075.889          36.000  
G29  23834088.049   -10424570.465        4404.492          43.250  
C21  21871187.843   -26305080.3202        -63.799          49.750  
G19  23426011.370    -7301087.212       -4083.633          38.250  
C 5  39458880.370    -4705821.4022        258.652          36.000  
G 6  22652030.267   -15480468.084       -1470.391          41.750  
C22  24227325.547   -16142756.3802      -3008.965          45.000  
G 2  21585956.866   -25590515.772         778.242          46.250  
G 9  24780652.403    -8571352.926       -3484.355          36.750  
G30  25731436.731    -1275754.141        2303.545          29.000  
> 2020  6 29  9  2 35.5000000  0 27                     
G25  24023358.407      613945.606        -982.100          36.500  
G17  24802145.374     7173691.102       -4175.566          35.500  
C11  24498725.743    -5229003.4402       3652.656          43.000  
G12  23362810.027   -13744380.829       -2414.609          40.500  
G13  22598113.954   -13716378.203        4355.166          40.750  
C16  37969019.362   -13213836.4482       2104.453          41.250  
C 8  37026323.681     -704932.2692        716.611          43.500  
C 7  39921228.688    16240612.8652      -1581.162          34.250  
C10  39035331.150    10082317.3902      -1869.736          36.250  
C 3  36426319.683    -4377791.1022        216.670          43.250  
C13  37063958.374    -4916551.1472        681.328          43.750  
C 2  37398737.037    -4954014.1872        269.072          39.000  
C 1  37854859.492    -4007210.6212        235.039          41.250  
C 6  37388984.302    -8458766.4632       1895.312          39.750  
C 4  38803567.483    -3961567.7172        210.088          37.250  
C12  21601555.664   -24713109.1192        841.406          46.500  
G 5  20552859.386   -30593968.872          50.195          47.000  
G15  24485627.440    -8019301.053        5075.918          35.750  
G29  23833752.804   -10426332.233        4404.395          43.250  
C21  21871192.999   -26305054.7132        -64.053          49.750  
G19  23426322.067    -7299453.703       -4083.799          38.250  
C 5  39458860.634    -4705924.8362        258.535          35.750  
G 6  22652142.166   -15479879.917       -1470.439          41.750  
C22  24227556.645   -16141552.7572      -3009.082          45.000  
G 2  21585897.627   -25590827.058         778.193          46.250  
G 9  24780917.616    -8569959.171       -3484.404          36.750  
G30  25731258.451    -1276675.620        2303.682          29.000  
> 2020  6 29  9  2 36.0000000  0 27                     
G25  24023433.343      614338.486        -982.207          36.750  
G17  24802463.195     7175361.389       -4175.752          35.250  
C11  24498445.166    -5230464.4722       3652.578          43.000  
G12  23362993.896   -13743414.895       -2414.844          40.500  
G13  22597782.635   -13718120.200        4355.000          40.750  
C16  37968857.659   -13214678.1992       2104.375          41.250  
C 8  37026268.565     -705218.8972        716.582          43.250  
C 7  39921350.233    16241245.3692      -1581.240          34.250  
C10  39035474.761    10083065.2952      -1869.775          36.500  
C 3  36426303.145    -4377877.7492        216.621          43.250  
C13  37063906.006    -4916823.6702        681.309          43.750  
C 2  37398716.376    -4954121.7672        268.955          39.000  
C 1  37854841.636    -4007304.6072        234.951          41.250  
C 6  37388838.784    -8459524.5552       1895.234          39.750  
C 4  38803551.302    -3961651.7562        210.098          37.250  
C12  21601491.037   -24713445.5582        841.084          46.500  
G 5  20552855.539   -30593988.831          49.902          47.000  
G15  24485241.114    -8021331.405        5075.879          35.500  
G29  23833417.494   -10428093.913        4404.189          43.000  
C21  21871198.300   -26305028.9672        -64.375          49.750  
G19  23426632.951    -7297820.133       -4083.955          38.250  
C 5  39458840.509    -4706028.3132        258.701          36.000  
G 6  22652254.118   -15479291.644       -1470.713          41.750  
C22  24227787.725   -16140349.0782      -3009.219          45.000  
G 2  21585838.515   -25591138.279         778.047          46.250  
G 9  24781182.720    -8568565.291       -3484.697          36.750  
G30  25731083.098    -1277597.073        2303.643          28.750  
> 2020  6 29  9  2 36.5000000  0 27                     
G25  24023508.235      614731.571        -982.715          36.750  
G17  24802781.186     7177031.757       -4175.967          35.250  
C11  24498164.492    -5231925.4112       3652.324          43.000  
G12  23363177.904   -13742448.848       -2415.137          40.500  
G13  22597451.391   -13719862.085        4354.717          41.000  
C16  37968695.878   -13215519.8592       2104.131          41.250  
C 8  37026213.518     -705505.5002        716.494          43.250  
C 7  39921472.005    16241877.8872      -1581.318          34.250  
C10  39035618.415    10083813.2492      -1869.922          36.250  
C 3  36426286.296    -4377964.3462        216.484          43.250  
C13  37063853.703    -4917096.1702        681.240          43.750  
C 2  37398695.989    -4954229.3152        268.867          39.000  
C 1  37854823.841    -4007398.5412        234.824          41.250  
C 6  37388693.189    -8460282.5602       1895.010          39.750  
C 4  38803535.061    -3961735.7322        210.029          37.250  
C12  21601426.410   -24713781.8442        840.703          46.500  
G 5  20552851.499   -30594008.648          49.521          47.000  
G15  24484854.779    -8023361.673        5075.635          35.750  
G29  23833082.171   -10429855.500        4403.945          43.250  
C21  21871203.361   -26305003.0612        -64.756          49.750  
G19  23426943.753    -7296186.418       -4084.277          38.250  
C 5  39458820.542    -4706131.6812        258.408          36.000  
G 6  22652366.232   -15478703.289       -1470.869          41.750  
C22  24228018.932   -16139145.3082      -3009.424          45.000  
G 2  21585779.310   -25591449.425         777.861          46.250  
G 9  24781447.946    -8567171.275       -3485.049          36.500  
G30  25730908.766    -1278518.428        2303.447          29.000  
> 2020  6 29  9  2 37.0000000  0 27                     
G25  24023582.843      615124.813        -983.115          36.750  
G17  24803099.046     7178702.185       -4176.035          35.250  
C11  24497883.936    -5233386.3472       3652.363          43.000  
G12  23363361.816   -13741482.726       -2415.273          40.500  
G13  22597119.994   -13721603.949        4354.648          41.000  
C16  37968534.355   -13216361.5042       2104.121          41.250  
C 8  37026158.541     -705792.1302        716.582          43.250  
C 7  39921593.598    16242510.3782      -1581.211          34.250  
C10  39035761.952    10084561.1602      -1869.746          36.500  
C 3  36426269.693    -4378050.9552        216.514          43.250  
C13  37063801.239    -4917368.6732        681.279          43.750  
C 2  37398675.193    -4954336.8482        268.828          39.250  
C 1  37854805.780    -4007492.4822        234.883          41.250  
C 6  37388547.684    -8461040.5652       1894.990          40.000  
C 4  38803518.958    -3961819.7232        209.932          37.250  
C12  21601361.871   -24714118.0322        840.459          46.500  
G 5  20552848.005   -30594028.379          49.326          47.000  
G15  24484468.588    -8025391.989        5075.859          36.000  
G29  23832746.987   -10431617.059        4403.896          43.000  
C21  21871208.186   -26304977.0612        -64.990          49.750  
G19  23427254.685    -7294552.688       -4084.287          38.250  
C 5  39458800.679    -4706235.0822        258.535          36.000  
G 6  22652478.275   -15478114.906       -1470.967          42.000  
C22  24228250.147   -16137941.5182      -3009.453          45.000  
G 2  21585720.115   -25591760.533         777.773          46.250  
G 9  24781713.193    -8565777.201       -3485.176          36.750  
G30  25730734.495    -1279439.842        2303.525          29.000  
> 2020  6 29  9  2 37.5000000  0 27                     
G25  24023657.796      615518.091        -983.154          36.750  
G17  24803416.919     7180372.578       -4175.957          35.250  
C11  24497603.337    -5234847.2622       3652.285          43.000  
G12  23363545.694   -13740516.545       -2415.449          40.500  
G13  22596788.588   -13723345.770        4354.541          41.000  
C16  37968372.801   -13217203.1672       2104.170          41.250  
C 8  37026103.434     -706078.8102        716.689          43.250  
C 7  39921715.104    16243142.8272      -1581.074          34.500  
C10  39035905.659    10085309.1012      -1869.844          36.500  
C 3  36426252.932    -4378137.5942        216.582          43.250  
C13  37063748.832    -4917641.2432        681.406          43.750  
C 2  37398654.619    -4954444.4372        268.955          39.250  
C 1  37854787.588    -4007586.4742        234.951          41.000  
C 6  37388402.219    -8461798.5452       1894.951          39.750  
C 4  38803502.739    -3961903.7622        210.137          37.250  
C12  21601297.161   -24714454.1332        840.283          46.500  
G 5  20552844.436   -30594048.042          49.160          47.000  
G15  24484082.262    -8027422.315        5075.801          35.750  
G29  23832411.725   -10433378.589        4403.857          43.000  
C21  21871212.936   -26304950.9872        -65.186          49.750  
G19  23427565.373    -7292918.902       -4084.473          38.250  
