% program   : RTKPOST ver.2.4.3 b33
% inp file  : D:\Documents\Visual Studio 2019\rtklib_portToVS\rtklib_2.4.3\data\5.obs
% inp file  : D:\Documents\Visual Studio 2019\rtklib_portToVS\rtklib_2.4.3\data\6.nav
% obs start : 2020/06/29 09:02:22.5 GPST (week2112 118942.5s)
% obs end   : 2020/06/29 09:04:00.0 GPST (week2112 119040.0s)
% pos mode  : single
% elev mask : 30.0 deg
% ionos opt : broadcast
% tropo opt : saastamoinen
% ephemeris : broadcast
% navi sys  : gps beidou
%
% (x/y/z-ecef=WGS84,Q=1:fix,2:float,3:sbas,4:dgps,5:single,6:ppp,ns=# of satellites)
%  GPST                      x-ecef(m)      y-ecef(m)      z-ecef(m)   Q  ns   sdx(m)   sdy(m)   sdz(m)  sdxy(m)  sdyz(m)  sdzx(m) age(s)  ratio
2020/06/29 09:02:22.500  -2191122.2694   5198837.9842   2965367.1735   5  14   5.3972   6.5787   3.5818  -5.2427   4.3362  -3.7213   0.00    0.0
2020/06/29 09:02:23.000  -2191122.3998   5198838.0670   2965367.1916   5  14   5.3971   6.5784   3.5818  -5.2424   4.3360  -3.7212   0.00    0.0
2020/06/29 09:02:23.500  -2191122.1757   5198837.8147   2965366.9890   5  14   5.3969   6.5781   3.5818  -5.2422   4.3359  -3.7211   0.00    0.0
2020/06/29 09:02:24.000  -2191121.9021   5198837.3363   2965366.7004   5  14   5.3968   6.5778   3.5818  -5.2419   4.3358  -3.7210   0.00    0.0
2020/06/29 09:02:24.500  -2191121.8524   5198837.3390   2965366.5771   5  14   5.3967   6.5775   3.5818  -5.2417   4.3357  -3.7210   0.00    0.0
2020/06/29 09:02:25.000  -2191122.0613   5198837.6041   2965366.7027   5  14   5.3965   6.5772   3.5818  -5.2415   4.3356  -3.7209   0.00    0.0
2020/06/29 09:02:25.500  -2191121.9833   5198837.6787   2965366.7377   5  14   5.3964   6.5769   3.5818  -5.2412   4.3355  -3.7208   0.00    0.0
2020/06/29 09:02:26.000  -2191122.4136   5198838.1630   2965367.0728   5  14   5.3962   6.5766   3.5818  -5.2410   4.3354  -3.7207   0.00    0.0
2020/06/29 09:02:26.500  -2191122.6686   5198838.5409   2965367.3603   5  14   5.3961   6.5764   3.5818  -5.2408   4.3353  -3.7207   0.00    0.0
2020/06/29 09:02:27.000  -2191122.5257   5198838.2735   2965367.2732   5  14   5.3960   6.5761   3.5818  -5.2405   4.3352  -3.7206   0.00    0.0
2020/06/29 09:02:27.500  -2191122.5354   5198838.0539   2965367.3245   5  14   5.3958   6.5758   3.5818  -5.2403   4.3350  -3.7205   0.00    0.0
2020/06/29 09:02:28.000  -2191121.9461   5198837.3349   2965367.0112   5  14   5.3957   6.5755   3.5818  -5.2401   4.3349  -3.7204   0.00    0.0
2020/06/29 09:02:28.500  -2191122.0240   5198837.3863   2965367.0864   5  14   5.3955   6.5752   3.5818  -5.2398   4.3348  -3.7204   0.00    0.0
2020/06/29 09:02:29.000  -2191122.1089   5198837.5789   2965367.1763   5  14   5.3954   6.5749   3.5818  -5.2396   4.3347  -3.7203   0.00    0.0
2020/06/29 09:02:29.500  -2191122.2386   5198837.7315   2965367.3308   5  14   5.3953   6.5746   3.5818  -5.2394   4.3346  -3.7202   0.00    0.0
2020/06/29 09:02:30.000  -2191122.3862   5198838.1370   2965367.5351   5  14   5.3951   6.5743   3.5817  -5.2391   4.3345  -3.7201   0.00    0.0
2020/06/29 09:02:30.500  -2191122.3837   5198838.3734   2965367.6693   5  14   5.3950   6.5741   3.5817  -5.2389   4.3344  -3.7201   0.00    0.0
2020/06/29 09:02:31.000  -2191122.4211   5198838.2796   2965367.6126   5  14   5.3949   6.5738   3.5817  -5.2386   4.3343  -3.7200   0.00    0.0
2020/06/29 09:02:31.500  -2191122.2841   5198838.2512   2965367.6318   5  14   5.3947   6.5735   3.5817  -5.2384   4.3342  -3.7199   0.00    0.0
2020/06/29 09:02:32.000  -2191122.3776   5198838.1026   2965367.5579   5  14   5.3946   6.5732   3.5817  -5.2382   4.3340  -3.7198   0.00    0.0
2020/06/29 09:02:32.500  -2191122.0480   5198837.4225   2965367.2839   5  14   5.3944   6.5729   3.5817  -5.2379   4.3339  -3.7198   0.00    0.0
2020/06/29 09:02:33.000  -2191122.1867   5198837.5157   2965367.2815   5  14   5.3943   6.5726   3.5817  -5.2377   4.3338  -3.7197   0.00    0.0
2020/06/29 09:02:33.500  -2191122.3030   5198837.7562   2965367.4345   5  14   5.3942   6.5723   3.5817  -5.2375   4.3337  -3.7196   0.00    0.0
2020/06/29 09:02:34.000  -2191122.3728   5198838.0289   2965367.4946   5  14   5.3940   6.5720   3.5817  -5.2372   4.3336  -3.7195   0.00    0.0
2020/06/29 09:02:34.500  -2191122.3800   5198838.0875   2965367.4699   5  14   5.3939   6.5717   3.5817  -5.2370   4.3335  -3.7195   0.00    0.0
2020/06/29 09:02:35.000  -2191122.0505   5198837.7771   2965367.1729   5  14   5.3937   6.5715   3.5817  -5.2368   4.3334  -3.7194   0.00    0.0
2020/06/29 09:02:35.500  -2191122.0552   5198837.6960   2965367.0855   5  14   5.3936   6.5712   3.5817  -5.2365   4.3333  -3.7193   0.00    0.0
2020/06/29 09:02:36.000  -2191121.7551   5198837.3004   2965366.9706   5  14   5.3935   6.5709   3.5817  -5.2363   4.3332  -3.7192   0.00    0.0
2020/06/29 09:02:36.500  -2191121.9355   5198837.7446   2965367.2088   5  14   5.3933   6.5706   3.5817  -5.2361   4.3330  -3.7192   0.00    0.0
2020/06/29 09:02:37.000  -2191121.8473   5198837.7017   2965367.2071   5  14   5.3932   6.5703   3.5817  -5.2358   4.3329  -3.7191   0.00    0.0
2020/06/29 09:02:37.500  -2191122.2108   5198838.0579   2965367.4771   5  14   5.3930   6.5700   3.5817  -5.2356   4.3328  -3.7190   0.00    0.0
2020/06/29 09:02:38.000  -2191122.5860   5198838.7606   2965367.7605   5  14   5.3929   6.5697   3.5817  -5.2353   4.3327  -3.7189   0.00    0.0
2020/06/29 09:02:38.500  -2191122.5230   5198838.8544   2965367.8887   5  14   5.3928   6.5694   3.5816  -5.2351   4.3326  -3.7189   0.00    0.0
2020/06/29 09:02:39.000  -2191122.3673   5198838.6182   2965367.7031   5  14   5.3926   6.5692   3.5816  -5.2349   4.3325  -3.7188   0.00    0.0
2020/06/29 09:02:39.500  -2191122.5707   5198838.6087   2965367.7904   5  14   5.3925   6.5689   3.5816  -5.2346   4.3324  -3.7187   0.00    0.0
2020/06/29 09:02:40.000  -2191122.4473   5198838.4837   2965367.7093   5  14   5.3924   6.5686   3.5816  -5.2344   4.3323  -3.7186   0.00    0.0
2020/06/29 09:02:40.500  -2191122.3342   5198838.2327   2965367.6028   5  14   5.3922   6.5683   3.5816  -5.2342   4.3322  -3.7186   0.00    0.0
2020/06/29 09:02:41.000  -2191122.4555   5198838.3973   2965367.7372   5  14   5.3921   6.5680   3.5816  -5.2339   4.3320  -3.7185   0.00    0.0
2020/06/29 09:02:41.500  -2191122.5156   5198838.8893   2965367.9249   5  14   5.3919   6.5677   3.5816  -5.2337   4.3319  -3.7184   0.00    0.0
2020/06/29 09:02:42.000  -2191122.8026   5198839.1011   2965368.1002   5  14   5.3918   6.5674   3.5816  -5.2335   4.3318  -3.7183   0.00    0.0
2020/06/29 09:02:42.500  -2191122.7965   5198838.9520   2965368.0360   5  14   5.3917   6.5671   3.5816  -5.2332   4.3317  -3.7183   0.00    0.0
2020/06/29 09:02:43.000  -2191122.7968   5198838.6755   2965367.9021   5  14   5.3915   6.5669   3.5816  -5.2330   4.3316  -3.7182   0.00    0.0
2020/06/29 09:02:43.500  -2191122.5075   5198838.2278   2965367.6027   5  14   5.3914   6.5666   3.5816  -5.2328   4.3315  -3.7181   0.00    0.0
2020/06/29 09:02:44.000  -2191122.3288   5198838.0527   2965367.5288   5  14   5.3912   6.5663   3.5816  -5.2325   4.3314  -3.7180   0.00    0.0
2020/06/29 09:02:44.500  -2191122.5155   5198838.2976   2965367.6233   5  14   5.3911   6.5660   3.5816  -5.2323   4.3313  -3.7180   0.00    0.0
2020/06/29 09:02:45.000  -2191122.7579   5198838.6013   2965367.8426   5  14   5.3910   6.5657   3.5816  -5.2320   4.3312  -3.7179   0.00    0.0
2020/06/29 09:02:45.500  -2191122.9902   5198838.9812   2965368.0023   5  14   5.3908   6.5654   3.5816  -5.2318   4.3310  -3.7178   0.00    0.0
2020/06/29 09:02:46.000  -2191122.9424   5198838.7790   2965367.9557   5  14   5.3907   6.5651   3.5816  -5.2316   4.3309  -3.7177   0.00    0.0
2020/06/29 09:02:46.500  -2191122.8627   5198838.8564   2965367.9464   5  14   5.3905   6.5648   3.5816  -5.2313   4.3308  -3.7177   0.00    0.0
2020/06/29 09:02:47.000  -2191122.7929   5198838.7835   2965367.8636   5  14   5.3904   6.5646   3.5816  -5.2311   4.3307  -3.7176   0.00    0.0
2020/06/29 09:02:47.500  -2191122.8554   5198838.6836   2965367.8470   5  14   5.3903   6.5643   3.5815  -5.2309   4.3306  -3.7175   0.00    0.0
2020/06/29 09:02:48.000  -2191122.9765   5198838.8306   2965367.9133   5  14   5.3901   6.5640   3.5815  -5.2306   4.3305  -3.7174   0.00    0.0
2020/06/29 09:02:48.500  -2191123.1148   5198838.9755   2965368.0055   5  14   5.3900   6.5637   3.5815  -5.2304   4.3304  -3.7174   0.00    0.0
2020/06/29 09:02:49.000  -2191123.2254   5198839.1934   2965368.1360   5  14   5.3899   6.5634   3.5815  -5.2302   4.3303  -3.7173   0.00    0.0
2020/06/29 09:02:49.500  -2191123.2096   5198839.2917   2965368.0727   5  14   5.3897   6.5631   3.5815  -5.2299   4.3302  -3.7172   0.00    0.0
2020/06/29 09:02:50.000  -2191123.2624   5198839.4002   2965368.0493   5  14   5.3896   6.5628   3.5815  -5.2297   4.3300  -3.7171   0.00    0.0
2020/06/29 09:02:50.500  -2191122.8309   5198838.7590   2965367.8567   5  14   5.3894   6.5625   3.5815  -5.2294   4.3299  -3.7171   0.00    0.0
2020/06/29 09:02:51.000  -2191122.7064   5198838.5819   2965367.6715   5  14   5.3893   6.5623   3.5815  -5.2292   4.3298  -3.7170   0.00    0.0
2020/06/29 09:02:51.500  -2191122.8655   5198838.9943   2965367.8711   5  14   5.3892   6.5620   3.5815  -5.2290   4.3297  -3.7169   0.00    0.0
2020/06/29 09:02:52.000  -2191123.1355   5198839.0281   2965367.9648   5  14   5.3890   6.5617   3.5815  -5.2287   4.3296  -3.7168   0.00    0.0
2020/06/29 09:02:52.500  -2191123.1239   5198839.3414   2965368.0860   5  14   5.3889   6.5614   3.5815  -5.2285   4.3295  -3.7168   0.00    0.0
2020/06/29 09:02:53.000  -2191123.0977   5198839.0344   2965367.8574   5  14   5.3887   6.5611   3.5815  -5.2283   4.3294  -3.7167   0.00    0.0
2020/06/29 09:02:53.500  -2191122.8378   5198838.8186   2965367.6707   5  14   5.3886   6.5608   3.5815  -5.2280   4.3293  -3.7166   0.00    0.0
2020/06/29 09:02:54.000  -2191122.7480   5198838.5025   2965367.6076   5  14   5.3885   6.5605   3.5815  -5.2278   4.3292  -3.7165   0.00    0.0
2020/06/29 09:02:54.500  -2191122.8420   5198838.5130   2965367.6092   5  14   5.3883   6.5602   3.5815  -5.2276   4.3290  -3.7165   0.00    0.0
2020/06/29 09:02:55.000  -2191122.8762   5198838.4681   2965367.6208   5  14   5.3882   6.5600   3.5815  -5.2273   4.3289  -3.7164   0.00    0.0
2020/06/29 09:02:55.500  -2191122.9801   5198838.8368   2965367.8110   5  14   5.3880   6.5597   3.5815  -5.2271   4.3288  -3.7163   0.00    0.0
2020/06/29 09:02:56.000  -2191122.8134   5198838.4989   2965367.6748   5  14   5.3879   6.5594   3.5815  -5.2269   4.3287  -3.7162   0.00    0.0
2020/06/29 09:02:56.500  -2191122.8217   5198838.4897   2965367.7146   5  14   5.3878   6.5591   3.5814  -5.2266   4.3286  -3.7162   0.00    0.0
2020/06/29 09:02:57.000  -2191122.9623   5198838.4654   2965367.6678   5  14   5.3876   6.5588   3.5814  -5.2264   4.3285  -3.7161   0.00    0.0
2020/06/29 09:02:57.500  -2191123.1899   5198838.7470   2965367.7704   5  14   5.3875   6.5585   3.5814  -5.2261   4.3284  -3.7160   0.00    0.0
2020/06/29 09:02:58.000  -2191123.2220   5198838.9459   2965367.8332   5  14   5.3874   6.5582   3.5814  -5.2259   4.3283  -3.7159   0.00    0.0
2020/06/29 09:02:58.500  -2191123.2505   5198839.2109   2965367.9475   5  14   5.3872   6.5579   3.5814  -5.2257   4.3282  -3.7159   0.00    0.0
2020/06/29 09:02:59.000  -2191123.0638   5198839.1214   2965367.9094   5  14   5.3871   6.5577   3.5814  -5.2254   4.3280  -3.7158   0.00    0.0
2020/06/29 09:02:59.500  -2191122.7760   5198838.6665   2965367.5857   5  14   5.3869   6.5574   3.5814  -5.2252   4.3279  -3.7157   0.00    0.0
2020/06/29 09:03:00.000  -2191122.6919   5198838.3593   2965367.5571   5  14   5.3868   6.5571   3.5814  -5.2250   4.3278  -3.7156   0.00    0.0
2020/06/29 09:03:00.500  -2191122.5700   5198838.0318   2965367.3931   5  14   5.3867   6.5568   3.5814  -5.2247   4.3277  -3.7156   0.00    0.0
2020/06/29 09:03:01.000  -2191122.6447   5198837.9062   2965367.3458   5  14   5.3865   6.5565   3.5814  -5.2245   4.3276  -3.7155   0.00    0.0
2020/06/29 09:03:01.500  -2191122.8387   5198838.2911   2965367.6040   5  14   5.3864   6.5562   3.5814  -5.2243   4.3275  -3.7154   0.00    0.0
2020/06/29 09:03:02.000  -2191122.9274   5198838.4022   2965367.7994   5  14   5.3862   6.5559   3.5814  -5.2240   4.3274  -3.7153   0.00    0.0
2020/06/29 09:03:02.500  -2191122.6840   5198838.1505   2965367.7029   5  14   5.3861   6.5556   3.5814  -5.2238   4.3273  -3.7153   0.00    0.0
2020/06/29 09:03:03.000  -2191122.8589   5198838.2295   2965367.7545   5  14   5.3860   6.5554   3.5814  -5.2235   4.3272  -3.7152   0.00    0.0
2020/06/29 09:03:03.500  -2191122.7501   5198838.1620   2965367.6363   5  14   5.3858   6.5551   3.5814  -5.2233   4.3271  -3.7151   0.00    0.0
2020/06/29 09:03:04.000  -2191122.7495   5198838.2078   2965367.6368   5  14   5.3857   6.5548   3.5814  -5.2231   4.3269  -3.7150   0.00    0.0
2020/06/29 09:03:04.500  -2191122.9514   5198838.4576   2965367.7442   5  14   5.3855   6.5545   3.5814  -5.2228   4.3268  -3.7150   0.00    0.0
2020/06/29 09:03:05.000  -2191123.2314   5198839.0903   2965367.9060   5  14   5.3854   6.5542   3.5814  -5.2226   4.3267  -3.7149   0.00    0.0
2020/06/29 09:03:05.500  -2191123.1131   5198839.1072   2965367.9701   5  14   5.3853   6.5539   3.5814  -5.2224   4.3266  -3.7148   0.00    0.0
2020/06/29 09:03:06.000  -2191122.9098   5198838.8562   2965367.8103   5  14   5.3851   6.5536   3.5814  -5.2221   4.3265  -3.7147   0.00    0.0
2020/06/29 09:03:06.500  -2191122.9801   5198838.5778   2965367.7504   5  14   5.3850   6.5533   3.5813  -5.2219   4.3264  -3.7147   0.00    0.0
2020/06/29 09:03:07.000  -2191122.8026   5198838.4832   2965367.7399   5  14   5.3849   6.5530   3.5813  -5.2217   4.3263  -3.7146   0.00    0.0
2020/06/29 09:03:07.500  -2191122.8247   5198838.3899   2965367.8002   5  14   5.3847   6.5528   3.5813  -5.2214   4.3262  -3.7145   0.00    0.0
2020/06/29 09:03:08.000  -2191122.8386   5198838.5215   2965367.8559   5  14   5.3846   6.5525   3.5813  -5.2212   4.3261  -3.7144   0.00    0.0
2020/06/29 09:03:08.500  -2191122.8975   5198838.7900   2965367.9695   5  14   5.3844   6.5522   3.5813  -5.2210   4.3259  -3.7144   0.00    0.0
2020/06/29 09:03:09.000  -2191122.8414   5198838.7071   2965367.9412   5  14   5.3843   6.5519   3.5813  -5.2207   4.3258  -3.7143   0.00    0.0
2020/06/29 09:03:09.500  -2191122.8838   5198838.8043   2965368.0143   5  14   5.3842   6.5516   3.5813  -5.2205   4.3257  -3.7142   0.00    0.0
2020/06/29 09:03:10.000  -2191122.9109   5198838.9565   2965368.0068   5  14   5.3840   6.5513   3.5813  -5.2202   4.3256  -3.7141   0.00    0.0
2020/06/29 09:03:10.500  -2191122.8535   5198838.8428   2965367.9608   5  14   5.3839   6.5510   3.5813  -5.2200   4.3255  -3.7141   0.00    0.0
2020/06/29 09:03:11.000  -2191122.9799   5198839.2528   2965368.2241   5  14   5.3837   6.5507   3.5813  -5.2198   4.3254  -3.7140   0.00    0.0
2020/06/29 09:03:11.500  -2191122.8091   5198838.9290   2965367.9394   5  14   5.3836   6.5505   3.5813  -5.2195   4.3253  -3.7139   0.00    0.0
2020/06/29 09:03:12.000  -2191122.6697   5198838.5914   2965367.7707   5  14   5.3835   6.5502   3.5813  -5.2193   4.3252  -3.7138   0.00    0.0
2020/06/29 09:03:12.500  -2191122.2776   5198838.2521   2965367.6168   5  14   5.3833   6.5499   3.5813  -5.2191   4.3251  -3.7138   0.00    0.0
2020/06/29 09:03:13.000  -2191122.2061   5198838.2291   2965367.5660   5  14   5.3832   6.5496   3.5813  -5.2188   4.3250  -3.7137   0.00    0.0
2020/06/29 09:03:13.500  -2191122.4151   5198838.3765   2965367.7040   5  14   5.3830   6.5493   3.5813  -5.2186   4.3248  -3.7136   0.00    0.0
2020/06/29 09:03:14.000  -2191122.2629   5198838.1827   2965367.6337   5  14   5.3829   6.5490   3.5813  -5.2184   4.3247  -3.7135   0.00    0.0
2020/06/29 09:03:14.500  -2191122.0838   5198837.8554   2965367.5086   5  14   5.3828   6.5487   3.5813  -5.2181   4.3246  -3.7135   0.00    0.0
2020/06/29 09:03:15.000  -2191122.1269   5198837.7805   2965367.4348   5  14   5.3826   6.5484   3.5813  -5.2179   4.3245  -3.7134   0.00    0.0
2020/06/29 09:03:15.500  -2191122.1665   5198837.7841   2965367.4899   5  14   5.3825   6.5482   3.5813  -5.2176   4.3244  -3.7133   0.00    0.0
2020/06/29 09:03:16.000  -2191124.0392   5198839.8475   2965368.3621   5  15   3.8335   5.1977   3.2087  -3.4894   3.5165  -2.7892   0.00    0.0
2020/06/29 09:03:16.500  -2191124.1154   5198840.0728   2965368.5285   5  15   3.8336   5.1977   3.2088  -3.4894   3.5166  -2.7893   0.00    0.0
2020/06/29 09:03:17.000  -2191124.0206   5198840.1121   2965368.5161   5  15   3.8336   5.1977   3.2089  -3.4895   3.5166  -2.7893   0.00    0.0
2020/06/29 09:03:17.500  -2191123.9135   5198839.8398   2965368.3231   5  15   3.8337   5.1976   3.2090  -3.4895   3.5167  -2.7894   0.00    0.0
2020/06/29 09:03:18.000  -2191123.8222   5198839.6834   2965368.3010   5  15   3.8337   5.1976   3.2090  -3.4895   3.5168  -2.7895   0.00    0.0
2020/06/29 09:03:18.500  -2191123.8170   5198839.6813   2965368.3068   5  15   3.8338   5.1976   3.2091  -3.4896   3.5168  -2.7896   0.00    0.0
2020/06/29 09:03:19.000  -2191123.8867   5198839.8941   2965368.4608   5  15   3.8338   5.1976   3.2092  -3.4896   3.5169  -2.7897   0.00    0.0
2020/06/29 09:03:19.500  -2191123.9993   5198840.2851   2965368.6886   5  15   3.8339   5.1976   3.2092  -3.4896   3.5169  -2.7897   0.00    0.0
2020/06/29 09:03:20.000  -2191124.1721   5198840.4461   2965368.8077   5  15   3.8339   5.1976   3.2093  -3.4897   3.5170  -2.7898   0.00    0.0
2020/06/29 09:03:20.500  -2191124.2242   5198840.5092   2965368.8103   5  15   3.8339   5.1976   3.2094  -3.4897   3.5171  -2.7899   0.00    0.0
2020/06/29 09:03:21.000  -2191123.9132   5198839.8728   2965368.5046   5  15   3.8340   5.1976   3.2095  -3.4897   3.5171  -2.7900   0.00    0.0
2020/06/29 09:03:21.500  -2191123.8993   5198839.9202   2965368.4475   5  15   3.8340   5.1976   3.2095  -3.4898   3.5172  -2.7900   0.00    0.0
2020/06/29 09:03:22.000  -2191124.1536   5198840.2025   2965368.6725   5  15   3.8341   5.1975   3.2096  -3.4898   3.5172  -2.7901   0.00    0.0
2020/06/29 09:03:22.500  -2191124.2127   5198840.2338   2965368.6892   5  15   3.8341   5.1975   3.2097  -3.4898   3.5173  -2.7902   0.00    0.0
2020/06/29 09:03:23.000  -2191124.3162   5198840.0884   2965368.5830   5  15   3.8342   5.1975   3.2098  -3.4899   3.5173  -2.7903   0.00    0.0
2020/06/29 09:03:23.500  -2191124.4248   5198839.9146   2965368.5436   5  15   3.8342   5.1975   3.2098  -3.4899   3.5174  -2.7904   0.00    0.0
2020/06/29 09:03:24.000  -2191124.4837   5198840.1503   2965368.6918   5  15   3.8342   5.1975   3.2099  -3.4899   3.5175  -2.7904   0.00    0.0
2020/06/29 09:03:24.500  -2191124.4235   5198840.1560   2965368.7414   5  15   3.8343   5.1975   3.2100  -3.4900   3.5175  -2.7905   0.00    0.0
2020/06/29 09:03:25.000  -2191124.3327   5198840.4746   2965368.8674   5  15   3.8343   5.1975   3.2101  -3.4900   3.5176  -2.7906   0.00    0.0
2020/06/29 09:03:25.500  -2191124.3508   5198840.3438   2965368.8531   5  15   3.8344   5.1975   3.2101  -3.4900   3.5176  -2.7907   0.00    0.0
2020/06/29 09:03:26.000  -2191124.3570   5198840.4646   2965368.7908   5  15   3.8344   5.1975   3.2102  -3.4901   3.5177  -2.7908   0.00    0.0
2020/06/29 09:03:26.500  -2191124.3359   5198840.4124   2965368.7265   5  15   3.8345   5.1974   3.2103  -3.4901   3.5178  -2.7908   0.00    0.0
2020/06/29 09:03:27.000  -2191124.2461   5198840.3434   2965368.6146   5  15   3.8345   5.1974   3.2104  -3.4901   3.5178  -2.7909   0.00    0.0
2020/06/29 09:03:27.500  -2191124.3682   5198840.5221   2965368.8104   5  15   3.8346   5.1974   3.2104  -3.4902   3.5179  -2.7910   0.00    0.0
2020/06/29 09:03:28.000  -2191124.3084   5198840.6955   2965369.0054   5  15   3.8346   5.1974   3.2105  -3.4902   3.5179  -2.7911   0.00    0.0
2020/06/29 09:03:28.500  -2191124.1998   5198840.7269   2965368.9836   5  15   3.8346   5.1974   3.2106  -3.4902   3.5180  -2.7911   0.00    0.0
2020/06/29 09:03:29.000  -2191124.1536   5198840.3600   2965368.7748   5  15   3.8347   5.1974   3.2107  -3.4903   3.5181  -2.7912   0.00    0.0
2020/06/29 09:03:29.500  -2191124.3161   5198840.5298   2965368.8170   5  15   3.8347   5.1974   3.2107  -3.4903   3.5181  -2.7913   0.00    0.0
2020/06/29 09:03:30.000  -2191124.4411   5198840.5888   2965368.8978   5  15   3.8348   5.1974   3.2108  -3.4903   3.5182  -2.7914   0.00    0.0
2020/06/29 09:03:30.500  -2191124.6133   5198841.1043   2965369.1561   5  15   3.8348   5.1974   3.2109  -3.4904   3.5182  -2.7915   0.00    0.0
2020/06/29 09:03:31.000  -2191124.4813   5198840.6321   2965369.0019   5  15   3.8349   5.1973   3.2110  -3.4904   3.5183  -2.7915   0.00    0.0
2020/06/29 09:03:31.500  -2191124.5519   5198840.5533   2965368.9616   5  15   3.8349   5.1973   3.2110  -3.4904   3.5183  -2.7916   0.00    0.0
2020/06/29 09:03:32.000  -2191124.6536   5198840.4780   2965368.9322   5  15   3.8350   5.1973   3.2111  -3.4905   3.5184  -2.7917   0.00    0.0
2020/06/29 09:03:32.500  -2191124.4957   5198840.3804   2965368.7838   5  15   3.8350   5.1973   3.2112  -3.4905   3.5185  -2.7918   0.00    0.0
2020/06/29 09:03:33.000  -2191124.4967   5198840.7613   2965368.9307   5  15   3.8350   5.1973   3.2113  -3.4905   3.5185  -2.7919   0.00    0.0
2020/06/29 09:03:33.500  -2191124.3363   5198840.5377   2965368.8391   5  15   3.8351   5.1973   3.2113  -3.4906   3.5186  -2.7919   0.00    0.0
2020/06/29 09:03:34.000  -2191124.1792   5198840.3592   2965368.7024   5  15   3.8351   5.1973   3.2114  -3.4906   3.5186  -2.7920   0.00    0.0
2020/06/29 09:03:34.500  -2191124.2486   5198840.2328   2965368.6657   5  15   3.8352   5.1973   3.2115  -3.4906   3.5187  -2.7921   0.00    0.0
2020/06/29 09:03:35.000  -2191124.2943   5198840.3511   2965368.7583   5  15   3.8352   5.1973   3.2116  -3.4907   3.5188  -2.7922   0.00    0.0
2020/06/29 09:03:35.500  -2191124.3237   5198840.5245   2965368.8254   5  15   3.8353   5.1972   3.2116  -3.4907   3.5188  -2.7922   0.00    0.0
2020/06/29 09:03:36.000  -2191124.3342   5198840.5000   2965368.8191   5  15   3.8353   5.1972   3.2117  -3.4907   3.5189  -2.7923   0.00    0.0
2020/06/29 09:03:36.500  -2191124.2999   5198840.2403   2965368.6447   5  15   3.8353   5.1972   3.2118  -3.4908   3.5189  -2.7924   0.00    0.0
2020/06/29 09:03:37.000  -2191124.2032   5198840.0544   2965368.5243   5  15   3.8354   5.1972   3.2119  -3.4908   3.5190  -2.7925   0.00    0.0
2020/06/29 09:03:37.500  -2191124.3571   5198840.2362   2965368.6339   5  15   3.8354   5.1972   3.2119  -3.4908   3.5191  -2.7926   0.00    0.0
2020/06/29 09:03:38.000  -2191124.2447   5198840.2874   2965368.6413   5  15   3.8355   5.1972   3.2120  -3.4909   3.5191  -2.7926   0.00    0.0
2020/06/29 09:03:38.500  -2191124.1597   5198840.4734   2965368.5651   5  15   3.8355   5.1972   3.2121  -3.4909   3.5192  -2.7927   0.00    0.0
2020/06/29 09:03:39.000  -2191124.0249   5198840.4464   2965368.5205   5  15   3.8356   5.1972   3.2122  -3.4909   3.5192  -2.7928   0.00    0.0
2020/06/29 09:03:39.500  -2191123.9707   5198840.3362   2965368.4262   5  15   3.8356   5.1972   3.2122  -3.4910   3.5193  -2.7929   0.00    0.0
2020/06/29 09:03:40.000  -2191124.0056   5198840.3229   2965368.5201   5  15   3.8357   5.1971   3.2123  -3.4910   3.5193  -2.7930   0.00    0.0
2020/06/29 09:03:40.500  -2191124.0295   5198840.6211   2965368.5803   5  15   3.8357   5.1971   3.2124  -3.4910   3.5194  -2.7930   0.00    0.0
2020/06/29 09:03:41.000  -2191124.0955   5198840.6308   2965368.6274   5  15   3.8357   5.1971   3.2125  -3.4911   3.5195  -2.7931   0.00    0.0
2020/06/29 09:03:41.500  -2191124.1186   5198840.4624   2965368.5485   5  15   3.8358   5.1971   3.2125  -3.4911   3.5195  -2.7932   0.00    0.0
2020/06/29 09:03:42.000  -2191123.9468   5198840.1340   2965368.4397   5  15   3.8358   5.1971   3.2126  -3.4911   3.5196  -2.7933   0.00    0.0
2020/06/29 09:03:42.500  -2191124.0916   5198840.1733   2965368.4984   5  15   3.8359   5.1971   3.2127  -3.4912   3.5196  -2.7934   0.00    0.0
2020/06/29 09:03:43.000  -2191124.2859   5198840.5991   2965368.7102   5  15   3.8359   5.1971   3.2128  -3.4912   3.5197  -2.7934   0.00    0.0
2020/06/29 09:03:43.500  -2191124.2731   5198840.5250   2965368.6535   5  15   3.8360   5.1971   3.2128  -3.4912   3.5198  -2.7935   0.00    0.0
2020/06/29 09:03:44.000  -2191124.3274   5198840.2869   2965368.5248   5  15   3.8360   5.1970   3.2129  -3.4913   3.5198  -2.7936   0.00    0.0
2020/06/29 09:03:44.500  -2191124.3903   5198840.0623   2965368.5081   5  15   3.8361   5.1970   3.2130  -3.4913   3.5199  -2.7937   0.00    0.0
2020/06/29 09:03:45.000  -2191124.2052   5198840.0092   2965368.4803   5  15   3.8361   5.1970   3.2131  -3.4914   3.5199  -2.7937   0.00    0.0
2020/06/29 09:03:45.500  -2191124.2728   5198840.3113   2965368.6278   5  15   3.8361   5.1970   3.2131  -3.4914   3.5200  -2.7938   0.00    0.0
2020/06/29 09:03:46.000  -2191124.4449   5198840.8044   2965368.9504   5  15   3.8362   5.1970   3.2132  -3.4914   3.5201  -2.7939   0.00    0.0
2020/06/29 09:03:46.500  -2191124.3893   5198840.5571   2965368.8553   5  15   3.8362   5.1970   3.2133  -3.4915   3.5201  -2.7940   0.00    0.0
2020/06/29 09:03:47.000  -2191124.2904   5198840.0956   2965368.5897   5  15   3.8363   5.1970   3.2134  -3.4915   3.5202  -2.7941   0.00    0.0
2020/06/29 09:03:47.500  -2191124.3672   5198840.1279   2965368.6023   5  15   3.8363   5.1970   3.2134  -3.4915   3.5202  -2.7941   0.00    0.0
2020/06/29 09:03:48.000  -2191124.3416   5198840.2767   2965368.7696   5  15   3.8364   5.1970   3.2135  -3.4916   3.5203  -2.7942   0.00    0.0
2020/06/29 09:03:48.500  -2191124.3778   5198840.4779   2965368.6966   5  15   3.8364   5.1969   3.2136  -3.4916   3.5204  -2.7943   0.00    0.0
2020/06/29 09:03:49.000  -2191124.3785   5198840.3749   2965368.6398   5  15   3.8365   5.1969   3.2137  -3.4916   3.5204  -2.7944   0.00    0.0
2020/06/29 09:03:49.500  -2191124.3704   5198840.3378   2965368.6704   5  15   3.8365   5.1969   3.2137  -3.4917   3.5205  -2.7945   0.00    0.0
2020/06/29 09:03:50.000  -2191124.4995   5198840.5402   2965368.7718   5  15   3.8365   5.1969   3.2138  -3.4917   3.5205  -2.7945   0.00    0.0
2020/06/29 09:03:50.500  -2191124.3952   5198840.6789   2965368.8445   5  15   3.8366   5.1969   3.2139  -3.4917   3.5206  -2.7946   0.00    0.0
2020/06/29 09:03:51.000  -2191124.3405   5198840.6192   2965368.7525   5  15   3.8366   5.1969   3.2140  -3.4918   3.5207  -2.7947   0.00    0.0
2020/06/29 09:03:51.500  -2191124.0719   5198840.2221   2965368.5663   5  15   3.8367   5.1969   3.2140  -3.4918   3.5207  -2.7948   0.00    0.0
2020/06/29 09:03:52.000  -2191124.0306   5198840.0928   2965368.5235   5  15   3.8367   5.1969   3.2141  -3.4918   3.5208  -2.7949   0.00    0.0
2020/06/29 09:03:52.500  -2191123.9186   5198840.0461   2965368.6212   5  15   3.8368   5.1969   3.2142  -3.4919   3.5208  -2.7949   0.00    0.0
2020/06/29 09:03:53.000  -2191124.0673   5198840.5269   2965368.8677   5  15   3.8368   5.1968   3.2143  -3.4919   3.5209  -2.7950   0.00    0.0
2020/06/29 09:03:53.500  -2191123.9957   5198840.5043   2965368.7980   5  15   3.8369   5.1968   3.2143  -3.4919   3.5209  -2.7951   0.00    0.0
2020/06/29 09:03:54.000  -2191124.1097   5198840.6877   2965368.9146   5  15   3.8369   5.1968   3.2144  -3.4920   3.5210  -2.7952   0.00    0.0
2020/06/29 09:03:54.500  -2191124.0265   5198840.6539   2965368.8332   5  15   3.8370   5.1968   3.2145  -3.4920   3.5211  -2.7952   0.00    0.0
2020/06/29 09:03:55.000  -2191123.9395   5198840.3777   2965368.7239   5  15   3.8370   5.1968   3.2146  -3.4920   3.5211  -2.7953   0.00    0.0
2020/06/29 09:03:55.500  -2191123.9864   5198840.2619   2965368.5712   5  15   3.8370   5.1968   3.2146  -3.4921   3.5212  -2.7954   0.00    0.0
2020/06/29 09:03:56.000  -2191124.0812   5198840.1934   2965368.6100   5  15   3.8371   5.1968   3.2147  -3.4921   3.5212  -2.7955   0.00    0.0
2020/06/29 09:03:56.500  -2191124.1999   5198840.0399   2965368.5629   5  15   3.8371   5.1968   3.2148  -3.4921   3.5213  -2.7956   0.00    0.0
2020/06/29 09:03:57.000  -2191124.3350   5198839.8830   2965368.6338   5  15   3.8372   5.1968   3.2149  -3.4922   3.5214  -2.7956   0.00    0.0
2020/06/29 09:03:57.500  -2191124.6281   5198840.4673   2965368.9491   5  15   3.8372   5.1967   3.2149  -3.4922   3.5214  -2.7957   0.00    0.0
2020/06/29 09:03:58.000  -2191124.4331   5198840.1038   2965368.7054   5  15   3.8373   5.1967   3.2150  -3.4922   3.5215  -2.7958   0.00    0.0
2020/06/29 09:03:58.500  -2191124.3002   5198839.9457   2965368.5209   5  15   3.8373   5.1967   3.2151  -3.4923   3.5215  -2.7959   0.00    0.0
2020/06/29 09:03:59.000  -2191124.1345   5198839.7382   2965368.2989   5  15   3.8374   5.1967   3.2152  -3.4923   3.5216  -2.7960   0.00    0.0
2020/06/29 09:03:59.500  -2191124.1360   5198839.8938   2965368.3573   5  15   3.8374   5.1967   3.2152  -3.4923   3.5217  -2.7960   0.00    0.0
2020/06/29 09:04:00.000  -2191124.1782   5198840.0015   2965368.3710   5  15   3.8374   5.1967   3.2153  -3.4924   3.5217  -2.7961   0.00    0.0
