     3.02           OBSERVATION DATA    M: Mixed            RINEX VERSION / TYPE
RTKCONV 2.4.3 b33                       20200629 092257 UTC PGM / RUN BY / DATE 
log: D:\Documents\²âÊÔÊý¾Ý\¾²Ö¹\base_202006290902.log       COMMENT             
format: u-blox                                              COMMENT             
                                                            MARKER NAME         
                                                            MARKER NUMBER       
                                                            MARKER TYPE         
                                                            OBSERVER / AGENCY   
                                                            REC # / TYPE / VERS 
                                                            ANT # / TYPE        
 -2191140.4566  5198847.7139  2965377.0062                  APPROX POSITION XYZ 
        0.0000        0.0000        0.0000                  ANTENNA: DELTA H/E/N
G    4 C1C L1C D1C S1C                                      SYS / # / OBS TYPES 
C    4 C1I L1I D1I S1I                                      SYS / # / OBS TYPES 
  2020     6    29     9     2   23.0000000     GPS         TIME OF FIRST OBS   
  2020     6    29     9     4    0.0000000     GPS         TIME OF LAST OBS    
G                                                           SYS / PHASE SHIFT   
C                                                           SYS / PHASE SHIFT   
  0                                                         GLONASS SLOT / FRQ #
 C1C    0.000 C1P    0.000 C2C    0.000 C2P    0.000        GLONASS COD/PHS/BIS 
                                                            END OF HEADER       
> 2020  6 29  9  2 23.0000000  0 28                     
C21  21857729.236   -18599884.2302        115.117          49.500  
C16  37959713.754   -22084308.7772       1845.752          40.500  
G17  24780845.926     3590220.647       -3176.250          34.500  
G 9  24760940.720   -11017003.946       -2621.084          35.750  
C 6  37379277.657   -22605096.4722       1678.486          40.250  
C11  24492398.203   -15034499.4682       3084.375          43.250  
G25  24008160.397    -8053021.591        -617.441          36.500  
C 8  37014349.050    -4206153.0062        733.438          45.000  
C 7  39904843.496    12716735.8093      -1105.000          32.000  
C10  39018397.956     6555101.0502      -1334.971          34.250  
C 3  36413388.574    -7883105.9282        334.404          42.500  
C13  37051920.686    -8419213.2762        704.990          46.000  
C 2  37385912.728    -8458824.4922        376.279          38.250  
C 1  37841956.753    -7512312.0262        349.014          41.250  
C 4  38790614.165    -7466928.8702        329.141          37.750  
G13  22593059.298    -9103904.657        3649.541          40.000  
C 9  39085765.455    -4314073.1552       1822.656          32.750  
G15  24481942.975    -3386546.2511       4223.633          32.500  
G 2  21574031.470   -25715085.121         786.797          47.750  
C 5  39446018.792    -8199514.8643        368.008          35.250  
C12  21589828.638   -29872177.1252        839.473          46.250  
G19  23405202.801   -10883967.435       -3101.387          37.250  
G 6  22635993.063   -19065996.925       -1011.543          43.750  
G29  23828795.699    -8712534.680        3688.408          43.500  
C22  24208426.874   -21765382.8442      -2244.473          47.000  
G12  23344876.059   -13827733.103       -1765.488          38.250  
G30  25722292.921    -2056268.415        2005.488          33.000  
G 5  20539617.424   -30443061.494         207.373          47.500  
> 2020  6 29  9  2 24.0000000  0 28                     
C21  21857706.991   -18599999.0702        114.756          49.500  
C16  37959359.279   -22086154.5232       1845.791          40.500  
G17  24781450.520     3593396.936       -3176.348          34.500  
G 9  24761439.378   -11014382.656       -2621.299          36.000  
C 6  37378955.509   -22606774.9912       1678.535          40.250  
C11  24491806.056   -15037583.8292       3084.395          43.250  
G25  24008277.759    -8052403.851        -617.871          36.500  
C 8  37014208.091    -4206886.5472        733.584          45.250  
C 7  39905055.778    12717840.6862      -1104.766          32.250  
C10  39018654.221     6556435.8872      -1334.795          34.250  
C 3  36413324.283    -7883440.3722        334.502          42.500  
C13  37051785.085    -8419918.4252        705.205          46.000  
C 2  37385840.754    -8459200.7782        376.318          38.500  
C 1  37841889.666    -7512661.1052        349.121          41.250  
C 4  38790551.104    -7467258.0662        329.209          37.500  
G13  22592365.050    -9107554.039        3649.336          40.250  
C 9  39085415.543    -4315895.8642       1822.666          33.000  
G15  24481139.348    -3390769.868        4223.730          32.750  
G 2  21573881.935   -25715871.883         786.768          47.750  
C 5  39445948.258    -8199882.8612        368.066          35.500  
C12  21589667.529   -29873016.3192        839.102          46.250  
G19  23405792.789   -10880865.936       -3101.465          37.250  
G 6  22636185.434   -19064985.298       -1011.621          43.750  
G29  23828093.978    -8716223.035        3688.350          43.500  
C22  24208857.847   -21763138.3082      -2244.521          47.000  
G12  23345212.351   -13825967.428       -1765.781          38.750  
G30  25721911.224    -2058273.935        2005.488          32.500  
G 5  20539577.912   -30443268.662         207.139          47.500  
> 2020  6 29  9  2 25.0000000  0 28                     
C21  21857684.895   -18600113.6202        114.404          49.500  
C16  37959004.961   -22088000.2882       1845.703          40.500  
G17  24782055.008     3596573.214       -3176.357          34.250  
G 9  24761938.201   -11011761.187       -2621.582          35.750  
C 6  37378632.907   -22608453.5442       1678.457          40.250  
C11  24491213.634   -15040668.2382       3084.346          43.250  
G25  24008395.635    -8051785.802        -618.203          36.500  
C 8  37014067.264    -4207620.2982        733.730          45.250  
C 7  39905268.025    12718945.3502      -1104.707          32.250  
C10  39018910.490     6557770.5792      -1334.619          34.500  
C 3  36413259.966    -7883774.9352        334.541          42.500  
C13  37051649.545    -8420623.7972        705.352          46.000  
C 2  37385768.502    -8459577.2322        376.426          38.250  
C 1  37841822.740    -7513010.3222        349.160          41.250  
C 4  38790487.934    -7467587.3722        329.268          37.500  
G13  22591670.705    -9111203.335        3649.189          40.250  
C 9  39085065.378    -4317718.7192       1822.861          33.000  
G15  24480335.840    -3394993.589        4223.711          32.500  
G 2  21573732.129   -25716658.634         786.680          47.750  
C 5  39445877.702    -8200251.0182        368.203          35.250  
C12  21589506.463   -29873855.2282        838.740          46.250  
G19  23406382.942   -10877764.337       -3101.719          37.500  
G 6  22636378.229   -19063973.622       -1011.787          43.750  
G29  23827392.178    -8719911.337        3688.242          43.500  
C22  24209288.946   -21760893.7662      -2244.619          47.000  
G12  23345548.455   -13824201.604       -1765.889          38.750  
G30  25721529.409    -2060279.676        2005.801          32.250  
G 5  20539538.662   -30443475.585         206.807          47.500  
> 2020  6 29  9  2 26.0000000  0 28                     
C21  21857663.318   -18600227.7162        113.916          49.500  
C16  37958650.468   -22089845.9452       1845.576          40.500  
G17  24782659.593     3599749.659       -3176.543          34.250  
G 9  24762437.142   -11009139.345       -2621.904          35.500  
C 6  37378310.828   -22610131.9482       1678.311          40.250  
C11  24490621.208   -15043752.5042       3084.150          43.250  
G25  24008513.223    -8051167.319        -618.672          36.500  
C 8  37013926.384    -4208354.0762        733.750          45.250  
C 7  39905480.342    12720049.9432      -1104.551          32.250  
C10  39019166.843     6559105.3172      -1334.746          34.500  
C 3  36413195.767    -7884109.4682        334.482          42.500  
C13  37051514.070    -8421329.2032        705.420          46.000  
C 2  37385696.306    -8459953.6212        376.318          38.500  
C 1  37841755.377    -7513359.5052        349.111          41.250  
C 4  38790424.655    -7467916.6572        329.248          37.500  
G13  22590976.732    -9114852.358        3648.867          40.250  
C 9  39084715.275    -4319541.4742       1822.695          33.000  
G15  24479532.262    -3399217.226        4223.506          32.250  
G 2  21573582.463   -25717445.209         786.475          47.750  
C 5  39445807.055    -8200619.1012        368.076          35.750  
C12  21589345.419   -29874693.6772        838.262          46.250  
G19  23406973.113   -10874662.432       -3102.100          37.500  
G 6  22636570.840   -19062961.709       -1012.051          43.750  
G29  23826690.418    -8723599.407        3687.979          43.250  
C22  24209720.045   -21758649.0402      -2244.844          47.000  
G12  23345884.712   -13822435.470       -1766.348          38.750  
G30  25721147.803    -2062285.295        2005.576          32.250  
G 5  20539499.408   -30443682.085         206.338          47.500  
> 2020  6 29  9  2 27.0000000  0 27                     
C21  21857641.287   -18600341.4182        113.574          49.500  
C16  37958296.229   -22091691.5152       1845.479          40.250  
G17  24783263.785     3602926.248       -3176.611          34.500  
G 9  24762936.035   -11006517.231       -2622.168          35.750  
C 6  37377988.483   -22611810.2932       1678.330          40.250  
C11  24490029.065   -15046836.7282       3084.199          43.250  
G25  24008631.051    -8050548.352        -619.102          36.500  
C 8  37013785.600    -4209087.9712        733.926          45.250  
C 7  39905692.366    12721154.4172      -1104.355          32.250  
C10  39019423.317     6560440.0012      -1334.678          34.500  
C 3  36413131.472    -7884444.0272        334.531          42.500  
C13  37051378.678    -8422034.7182        705.547          46.000  
C 2  37385624.036    -8460330.0742        376.426          38.250  
C 1  37841688.307    -7513708.7122        349.199          41.250  
C 4  38790361.359    -7468245.9942        329.277          37.750  
G13  22590282.466    -9118501.199        3648.760          40.250  
C 9  39084365.459    -4321364.2712       1822.793          33.000  
G15  24478728.527    -3403440.916        4223.545          32.250  
G 2  21573432.788   -25718231.685         786.436          47.500  
C12  21589184.502   -29875531.7392        837.920          46.250  
G19  23407563.663   -10871560.304       -3102.178          37.500  
G 6  22636763.311   -19061949.669       -1012.129          44.000  
G29  23825988.670    -8727287.321        3687.871          43.500  
C22  24210150.982   -21756404.2252      -2244.863          47.000  
G12  23346221.318   -13820669.056       -1766.514          39.250  
G30  25720766.337    -2064290.979        2005.693          32.500  
G 5  20539460.337   -30443888.235         206.035          47.500  
> 2020  6 29  9  2 28.0000000  0 28                     
C21  21857619.758   -18600454.6642        113.164          49.500  
C16  37957941.846   -22093536.9872       1845.449          40.500  
G17  24783868.492     3606102.990       -3176.719          34.750  
G 9  24763435.054   -11003894.792       -2622.539          35.750  
C 6  37377666.182   -22613488.5082       1678.203          40.250  
C11  24489436.796   -15049920.7872       3084.023          43.250  
G25  24008749.128    -8049928.920        -619.473          36.500  
C 8  37013644.742    -4209821.8822        733.994          45.250  
C 7  39905904.600    12722258.8312      -1104.385          32.500  
C10  39019679.714     6561774.6742      -1334.619          34.250  
C 3  36413067.150    -7884778.5782        334.570          42.500  
C13  37051243.190    -8422740.3182        705.654          46.000  
C 2  37385551.421    -8460706.4652        376.416          38.250  
C 1  37841621.447    -7514057.9202        349.229          41.000  
C 4  38790298.124    -7468575.2742        329.355          37.500  
G13  22589587.939    -9122149.783        3648.555          40.250  
C 9  39084015.512    -4323187.0302       1822.871          33.000  
G15  24477924.687    -3407664.542        4223.643          32.500  
G 2  21573283.122   -25719017.994         786.328          47.500  
C 5  39445665.870    -8201355.3713        368.135          35.500  
C12  21589023.790   -29876369.3652        837.520          46.250  
G19  23408154.021   -10868457.928       -3102.412          37.500  
G 6  22636955.892   -19060937.408       -1012.295          44.000  
G29  23825286.801    -8730974.996        3687.646          43.250  
C22  24210582.107   -21754159.2452      -2244.990          47.000  
G12  23346557.614   -13818902.316       -1766.846          39.250  
G30  25720384.565    -2066296.588        2005.615          32.250  
G 5  20539421.039   -30444094.000         205.703          47.500  
> 2020  6 29  9  2 29.0000000  0 28                     
C21  21857597.797   -18600567.5902        112.705          49.500  
C16  37957587.375   -22095382.4772       1845.420          40.500  
G17  24784473.011     3609279.754       -3176.963          34.750  
G 9  24763933.886   -11001272.127       -2622.891          35.750  
C 6  37377343.916   -22615166.7362       1678.154          40.250  
C11  24488844.584   -15053004.9022       3084.004          43.250  
G25  24008866.869    -8049309.149        -619.941          36.500  
C 8  37013503.783    -4210555.9992        734.053          45.250  
C 7  39906116.520    12723363.0902      -1104.453          32.250  
C10  39019935.983     6563109.2252      -1334.541          34.500  
C 3  36413002.754    -7885113.2162        334.551          42.500  
C13  37051107.715    -8423446.0852        705.723          46.000  
C 2  37385478.989    -8461082.9922        376.592          38.250  
C 1  37841554.429    -7514407.2202        349.277          41.250  
C 4  38790234.766    -7468904.6802        329.355          37.750  
G13  22588893.621    -9125798.284        3648.418          40.250  
C 9  39083665.347    -4325009.8492       1822.822          33.250  
G15  24477120.912    -3411888.242        4223.652          32.250  
G 2  21573133.591   -25719804.268         786.152          47.500  
C 5  39445594.908    -8201723.5852        368.213          35.750  
C12  21588862.908   -29877206.6532        837.080          46.250  
G19  23408744.633   -10865355.393       -3102.656          37.750  
G 6  22637148.852   -19059925.070       -1012.490          44.000  
G29  23824585.245    -8734662.569        3687.432          43.500  
C22  24211013.424   -21751914.2202      -2245.166          47.000  
G12  23346894.094   -13817135.409       -1767.080          39.250  
G30  25720002.380    -2068302.286        2005.674          32.250  
G 5  20539381.366   -30444299.480         205.283          47.250  
> 2020  6 29  9  2 30.0000000  0 28                     
C21  21857576.394   -18600680.1962        112.510          49.500  
C16  37957232.743   -22097227.9692       1845.557          40.250  
G17  24785077.495     3612456.559       -3176.787          35.000  
G 9  24764432.932   -10998649.285       -2622.822          35.500  
C 6  37377021.506   -22616844.9642       1678.164          40.250  
C11  24488252.445   -15056088.9922       3084.053          43.250  
G25  24008984.671    -8048689.043        -620.215          36.500  
C 8  37013362.667    -4211290.2642        734.336          45.250  
C 7  39906328.741    12724467.1142      -1103.906          32.500  
C10  39020192.388     6564443.6682      -1334.365          34.500  
C 3  36412938.490    -7885447.9592        334.805          42.500  
C13  37050972.153    -8424152.0422        706.025          46.000  
C 2  37385406.510    -8461459.6182        376.641          38.500  
C 1  37841487.237    -7514756.6312        349.492          41.250  
C 4  38790171.645    -7469234.2032        329.590          37.750  
G13  22588199.591    -9129446.609        3648.389          40.250  
C 9  39083315.265    -4326832.7402       1823.027          33.000  
G15  24476317.225    -3416112.007        4223.691          32.250  
G 2  21572984.025   -25720590.506         786.240          47.750  
C 5  39445524.217    -8202091.8792        368.359          35.500  
C12  21588702.231   -29878043.6202        836.855          46.250  
G19  23409335.122   -10862252.706       -3102.676          37.500  
G 6  22637341.756   -19058912.650       -1012.432          44.000  
G29  23823883.611    -8738350.064        3687.461          43.500  
C22  24211444.414   -21749669.1722      -2245.068          47.000  
G12  23347230.421   -13815368.303       -1767.119          39.250  
G30  25719620.769    -2070308.140        2005.918          32.250  
G 5  20539342.509   -30444504.700         205.146          47.250  
> 2020  6 29  9  2 31.0000000  0 28                     
C21  21857554.930   -18600792.3632        112.012          49.500  
C16  37956878.242   -22099073.3442       1845.312          40.500  
G17  24785681.918     3615633.535       -3177.109          35.000  
G 9  24764932.061   -10996026.055       -2623.125          35.750  
C 6  37376699.052   -22618523.0712       1677.979          40.250  
C11  24487660.006   -15059172.9762       3083.926          43.250  
G25  24009102.700    -8048068.450        -620.811          36.750  
C 8  37013221.726    -4212024.5902        734.297          45.000  
C 7  39906540.630    12725571.1072      -1104.014          32.000  
C10  39020448.588     6565778.1582      -1334.492          34.500  
C 3  36412874.447    -7885782.6752        334.668          42.500  
C13  37050836.727    -8424858.0742        706.006          46.000  
C 2  37385334.279    -8461836.2282        376.592          38.500  
C 1  37841419.984    -7515106.0102        349.336          41.000  
C 4  38790108.401    -7469563.6542        329.414          37.500  
G13  22587504.946    -9133094.710        3648.008          40.250  
C 9  39082965.175    -4328655.5922       1822.812          33.000  
G15  24475513.381    -3420335.751        4223.828          32.000  
G 2  21572834.521   -25721376.583         785.996          47.750  
C 5  39445453.605    -8202460.2072        368.262          35.500  
C12  21588541.684   -29878880.1462        836.348          46.500  
G19  23409925.650   -10859149.755       -3103.047          37.500  
G 6  22637534.454   -19057900.017       -1012.734          44.000  
G29  23823182.195    -8742037.343        3687.139          43.500  
C22  24211875.583   -21747423.9552      -2245.312          47.000  
G12  23347567.127   -13813600.882       -1767.529          39.250  
G30  25719239.124    -2072313.929        2005.723          31.750  
G 5  20539303.665   -30444709.517         204.648          47.250  
> 2020  6 29  9  2 32.0000000  0 28                     
C21  21857533.174   -18600904.1702        111.602          49.500  
C16  37956523.919   -22100918.7092       1845.254          40.500  
G17  24786286.738     3618810.550       -3177.207          35.000  
G 9  24765431.359   -10993402.603       -2623.574          35.500  
C 6  37376377.017   -22620201.1562       1677.949          40.250  
C11  24487067.680   -15062256.9412       3083.828          43.250  
G25  24009220.690    -8047447.492        -621.104          36.500  
C 8  37013080.733    -4212759.0932        734.424          45.250  
C 7  39906752.511    12726674.9282      -1103.945          32.000  
C10  39020704.831     6567112.4802      -1334.326          34.500  
C 3  36412810.113    -7886117.4782        334.707          42.500  
C13  37050700.999    -8425564.2852        706.172          46.000  
C 2  37385262.070    -8462212.8982        376.621          38.250  
C 1  37841352.871    -7515455.4702        349.414          41.000  
C 4  38790045.113    -7469893.2052        329.414          37.500  
G13  22586810.711    -9136742.658        3647.842          40.250  
C 9  39082615.115    -4330478.4772       1822.803          33.250  
G15  24474709.410    -3424559.518        4223.613          32.000  
G 2  21572684.850   -25722162.602         785.898          47.750  
C 5  39445382.932    -8202828.6062        368.320          35.750  
C12  21588381.064   -29879716.3262        835.947          46.500  
G19  23410515.969   -10856046.634       -3103.320          37.500  
G 6  22637727.087   -19056887.272       -1012.861          44.000  
G29  23822480.422    -8745724.520        3687.012          43.500  
C22  24212306.839   -21745178.6812      -2245.381          47.000  
G12  23347904.117   -13811833.232       -1767.832          39.500  
G30  25718857.375    -2074319.830        2005.898          32.000  
G 5  20539264.816   -30444914.038         204.336          47.250  
> 2020  6 29  9  2 33.0000000  0 28                     
C21  21857512.133   -18601015.3792        110.938          49.500  
C16  37956169.501   -22102763.8052       1844.922          40.500  
G17  24786891.498     3621987.914       -3177.578          34.750  
G 9  24765930.457   -10990778.691       -2624.121          35.500  
C 6  37376055.078   -22621878.9702       1677.646          40.250  
C11  24486475.791   -15065340.6212       3083.555          43.250  
G25  24009338.928    -8046825.882        -621.768          36.750  
C 8  37012939.796    -4213493.4792        734.287          45.250  
C 7  39906964.614    12727778.8332      -1103.945          32.000  
C10  39020961.236     6568447.0302      -1334.736          34.250  
C 3  36412745.761    -7886452.0862        334.502          42.500  
C13  37050565.310    -8426270.3762        705.996          46.000  
C 2  37385189.848    -8462589.3852        376.357          38.250  
C 1  37841285.875    -7515804.7562        349.180          41.250  
C 4  38789981.655    -7470222.6052        329.277          37.500  
G13  22586116.580    -9140390.183        3647.334          40.250  
C 9  39082264.924    -4332301.2222       1822.549          33.000  
G15  24473905.579    -3428783.124        4223.457          31.750  
G 2  21572535.398   -25722948.298         785.518          47.750  
C 5  39445311.966    -8203196.7662        368.057          35.750  
C12  21588220.495   -29880551.9222        835.342          46.500  
G19  23411106.786   -10852943.066       -3103.750          37.750  
G 6  22637919.886   -19055874.160       -1013.301          44.000  
G29  23821778.744    -8749411.317        3686.621          43.500  
C22  24212738.121   -21742933.0872      -2245.762          47.000  
G12  23348240.832   -13810065.110       -1768.301          39.500  
G30  25718475.542    -2076325.509        2005.625          31.500  
G 5  20539225.841   -30445117.995         203.750          47.250  
> 2020  6 29  9  2 34.0000000  0 28                     
C21  21857490.748   -18601126.2992        110.771          49.500  
C16  37955815.135   -22104608.9342       1845.117          40.500  
G17  24787496.100     3625165.244       -3177.324          34.750  
G 9  24766429.691   -10988154.553       -2624.248          35.250  
C 6  37375732.899   -22623556.8152       1677.783          40.250  
C11  24485883.535   -15068424.3572       3083.672          43.500  
G25  24009457.433    -8046203.965        -622.080          36.500  
C 8  37012798.720    -4214228.0482        734.570          45.250  
C 7  39907176.533    12728882.5922      -1103.838          32.250  
C10  39021217.322     6569781.4092      -1334.492          34.500  
C 3  36412681.758    -7886786.8372        334.746          42.500  
C13  37050429.840    -8426976.6752        706.309          46.000  
C 2  37385117.530    -8462966.0332        376.621          38.250  
C 1  37841218.596    -7516154.1912        349.443          41.250  
C 4  38789918.385    -7470552.1492        329.541          37.500  
G13  22585422.345    -9144037.640        3647.393          40.250  
C 9  39081915.073    -4334124.0832       1822.832          33.000  
G15  24473101.909    -3433006.836        4223.711          32.000  
G 2  21572385.832   -25723733.992         785.625          47.750  
C 5  39445241.114    -8203565.1262        368.359          35.750  
C12  21588060.145   -29881387.2102        835.137          46.500  
G19  23411697.401   -10849839.396       -3103.779          37.500  
G 6  22638112.462   -19054861.010       -1013.223          44.000  
G29  23821077.136    -8753098.060        3686.660          43.500  
C22  24213169.202   -21740687.4892      -2245.664          47.000  
G12  23348577.791   -13808296.853       -1768.350          39.750  
G30  25718093.758    -2078331.313        2005.664          31.500  
G 5  20539187.071   -30445321.716         203.613          47.250  
> 2020  6 29  9  2 35.0000000  0 28                     
C21  21857469.847   -18601236.6872        110.146          49.500  
C16  37955461.022   -22106453.8752       1844.785          40.500  
G17  24788100.911     3628342.846       -3177.764          34.750  
G 9  24766929.055   -10985529.980       -2624.785          35.250  
C 6  37375410.776   -22625234.4422       1677.520          40.250  
C11  24485291.226   -15071507.8612       3083.379          43.500  
G25  24009575.837    -8045581.471        -622.715          36.750  
C 8  37012657.570    -4214962.5952        734.473          45.250  
C 7  39907388.292    12729986.2952      -1103.691          32.000  
C10  39021473.705     6571115.8612      -1334.541          34.500  
C 3  36412617.654    -7887121.4702        334.512          42.500  
C13  37050294.169    -8427682.9732        706.230          46.000  
C 2  37385045.133    -8463342.5332        376.377          38.250  
C 1  37841151.543    -7516503.5042        349.219          41.250  
C 4  38789855.154    -7470881.5492        329.346          37.500  
G13  22584728.263    -9147684.761        3646.953          40.250  
C 9  39081565.253    -4335946.7922       1822.617          33.250  
G15  24472298.344    -3437230.369        4223.301          32.000  
G 2  21572236.419   -25724519.448         785.293          47.750  
C 5  39445170.445    -8203933.3472        368.115          35.750  
C12  21587899.808   -29882221.9802        834.551          46.500  
G19  23412288.187   -10846735.364       -3104.209          37.750  
G 6  22638305.505   -19053847.568       -1013.574          44.000  
G29  23820376.048    -8756784.511        3686.318          43.500  
C22  24213600.637   -21738441.6472      -2245.977          47.000  
G12  23348914.310   -13806528.181       -1768.848          39.500  
G30  25717711.807    -2080337.028        2005.518          31.750  
G 5  20539148.567   -30445524.935         203.008          47.250  
> 2020  6 29  9  2 36.0000000  0 28                     
C21  21857448.366   -18601346.7032        109.883          49.500  
C16  37955106.827   -22108298.7802       1844.873          40.500  
G17  24788705.884     3631520.540       -3177.812          34.500  
G 9  24767428.275   -10982905.191       -2624.893          35.000  
C 6  37375088.458   -22626912.0472       1677.568          40.250  
C11  24484699.097   -15074591.3382       3083.438          43.500  
G25  24009694.585    -8044958.642        -623.008          36.500  
C 8  37012516.498    -4215697.2522        734.658          45.250  
C 7  39907600.421    12731089.8812      -1103.408          32.000  
C10  39021729.966     6572450.2682      -1334.355          34.500  
C 3  36412553.215    -7887456.1742        334.678          42.500  
C13  37050158.515    -8428389.4012        706.475          46.000  
C 2  37384972.985    -8463719.1102        376.523          38.250  
C 1  37841084.369    -7516852.8732        349.424          41.250  
C 4  38789791.836    -7471211.0002        329.326          37.500  
G13  22584034.582    -9151331.688        3646.904          40.250  
C 9  39081215.446    -4337769.5252       1822.852          33.250  
G15  24471490.390    -3441453.922        4223.496          32.000  
G 2  21572086.949   -25725304.817         785.342          47.750  
C 5  39445099.549    -8204301.5672        368.281          35.500  
C12  21587739.742   -29883056.3722        834.277          46.500  
G19  23412878.663   -10843631.136       -3104.297          37.750  
G 6  22638498.317   -19052833.972       -1013.672          44.000  
G29  23819674.540    -8760470.817        3686.270          43.500  
C22  24214031.959   -21736195.7182      -2245.977          47.000  
G12  23349251.182   -13804759.264       -1769.004          39.500  
G30  25717330.232    -2082342.780        2005.615          32.000  
G 5  20539109.867   -30445727.840         202.783          47.250  
> 2020  6 29  9  2 37.0000000  0 27                     
C21  21857427.395   -18601456.4702        109.668          49.500  
C16  37954752.496   -22110143.7792       1845.049          40.500  
G17  24789310.359     3634698.172       -3177.676          34.250  
G 9  24767927.757   -10980280.250       -2625.020          35.000  
C 6  37374766.240   -22628589.6952       1677.637          40.250  
C11  24484107.042   -15077674.8942       3083.545          43.500  
G25  24009813.356    -8044335.478        -623.301          36.750  
C 8  37012375.164    -4216432.1642        734.932          45.250  
C 7  39907811.455    12732193.2362      -1103.438          32.000  
C10  39021986.113     6573784.5002      -1334.189          34.500  
C 3  36412488.619    -7887791.0562        334.922          42.500  
C13  37050022.556    -8429096.0902        706.719          45.750  
C 2  37384900.672    -8464095.8742        376.826          38.250  
C 1  37841017.233    -7517202.4322        349.561          41.250  
C 4  38789728.636    -7471540.6622        329.609          37.500  
G13  22583340.731    -9154978.590        3646.875          40.250  
C 9  39080865.429    -4339592.4202       1822.910          33.250  
G15  24470685.198    -3445677.641        4223.740          32.250  
G 2  21571937.671   -25726090.225         785.410          47.750  
C12  21587579.597   -29883890.5162        834.033          46.500  
G19  23413469.419   -10840526.846       -3104.287          37.750  
G 6  22638691.351   -19051820.375       -1013.672          44.000  
G29  23818972.911    -8764157.096        3686.270          43.250  
C22  24214463.140   -21733949.8342      -2245.908          47.000  
G12  23349588.028   -13802990.237       -1769.102          39.500  
G30  25716948.487    -2084348.731        2005.957          32.000  
G 5  20539071.280   -30445930.543         202.627          47.250  
> 2020  6 29  9  2 38.0000000  0 28                     
C21  21857406.363   -18601565.7282        109.062          49.500  
C16  37954398.160   -22111988.5572       1844.707          40.500  
G17  24789915.197     3637876.042       -3177.988          33.750  
G 9  24768427.296   -10977654.914       -2625.518          35.250  
C 6  37374444.043   -22630267.1952       1677.373          40.250  
C11  24483514.934   -15080758.2512       3083.271          43.500  
G25  24009931.804    -8043711.790        -623.867          36.750  
C 8  37012234.079    -4217167.0552        734.854          45.250  
C 7  39908023.899    12733296.5882      -1103.408          32.250  
C10  39022242.326     6575118.7742      -1334.316          34.500  
C 3  36412424.341    -7888125.8372        334.678          42.500  
C13  37049887.007    -8429802.7872        706.689          45.750  
C 2  37384828.197    -8464472.5502        376.650          38.250  
C 1  37840950.338    -7517551.8972        349.385          41.250  
C 4  38789665.305    -7471870.2272        329.492          37.500  
G13  22582647.041    -9158625.186        3646.445          40.250  
C 9  39080515.583    -4341415.1872       1822.725          33.250  
G15  24469884.656    -3449901.280        4223.613          32.000  
G 2  21571788.070   -25726875.399         785.078          47.750  
C 5  39444957.801    -8205038.4283        368.447          35.500  
C12  21587419.670   -29884724.1602        833.457          46.500  
G19  23414060.318   -10837422.220       -3104.814          37.750  
G 6  22638884.364   -19050806.509       -1013.994          44.000  
G29  23818271.416    -8767843.118        3685.908          43.250  
C22  24214894.484   -21731703.7292      -2246.201          47.000  
G12  23349924.817   -13801220.841       -1769.502          39.750  
G30  25716566.833    -2086354.568        2005.850          31.750  
G 5  20539032.877   -30446132.786         202.041          47.250  
> 2020  6 29  9  2 39.0000000  0 28                     
C21  21857385.240   -18601674.5542        108.779          49.500  
C16  37954043.916   -22113833.2872       1844.775          40.500  
G17  24790519.904     3641054.026       -3177.910          33.750  
G 9  24768926.922   -10975029.269       -2625.693          35.000  
C 6  37374121.825   -22631944.5752       1677.432          40.250  
C11  24482922.992   -15083841.5112       3083.301          43.500  
G25  24010050.709    -8043087.661        -624.189          36.750  
C 8  37012092.955    -4217902.0082        735.078          45.250  
C 7  39908234.078    12734399.8142      -1103.066          32.000  
C10  39022498.735     6576453.0702      -1334.248          34.500  
C 3  36412360.246    -7888460.6062        334.844          42.500  
C13  37049751.153    -8430509.5852        706.895          46.000  
C 2  37384755.721    -8464849.1892        376.729          38.500  
C 1  37840883.237    -7517901.3572        349.521          41.250  
C 4  38789601.943    -7472199.7802        329.678          37.500  
G13  22581953.081    -9162271.526        3646.377          40.500  
C 9  39080165.296    -4343237.9592       1822.812          33.500  
G15  24469080.419    -3454124.879        4223.623          32.000  
G 2  21571638.640   -25727660.425         785.068          47.750  
C 5  39444887.071    -8205406.7702        368.486          35.500  
C12  21587259.569   -29885557.3682        833.174          46.500  
G19  23414651.313   -10834317.328       -3104.883          37.750  
G 6  22639077.389   -19049792.455       -1014.014          44.000  
G29  23817570.048    -8771528.935        3685.869          43.250  
C22  24215325.953   -21729457.4662      -2246.211          47.000  
G12  23350261.685   -13799451.135       -1769.688          39.750  
G30  25716184.992    -2088360.367        2005.879          31.750  
G 5  20538994.333   -30446334.634         201.807          47.250  
> 2020  6 29  9  2 40.0000000  0 28                     
C21  21857364.758   -18601783.0372        108.418          49.500  
C16  37953689.581   -22115677.9822       1844.727          40.500  
G17  24791124.746     3644232.108       -3177.988          34.250  
G 9  24769426.652   -10972403.354       -2625.977          34.750  
C 6  37373799.720   -22633621.9252       1677.354          40.250  
C11  24482330.950   -15086924.7632       3083.252          43.500  
G25  24010169.545    -8042463.131        -624.580          36.500  
C 8  37011951.604    -4218637.1362        735.215          45.250  
C 7  39908445.295    12735502.9412      -1103.037          32.000  
C10  39022755.040     6577787.2362      -1334.141          34.750  
C 3  36412295.837    -7888795.4672        334.951          42.500  
C13  37049615.264    -8431216.5302        707.051          45.750  
C 2  37384683.325    -8465225.9182        376.807          38.250  
C 1  37840815.941    -7518250.9192        349.629          41.250  
C 4  38789538.904    -7472529.4242        329.727          37.750  
G13  22581259.129    -9165917.718        3646.191          40.500  
C 9  39079815.589    -4345060.7622       1822.891          33.250  
G15  24468280.553    -3458348.507        4223.428          32.250  
G 2  21571489.475   -25728445.385         784.971          47.750  
C 5  39444816.437    -8205775.2202        368.545          35.500  
C12  21587099.598   -29886390.2402        832.812          46.500  
G19  23415242.352   -10831212.275       -3105.107          37.750  
G 6  22639270.415   -19048778.298       -1014.141          44.000  
G29  23816868.728    -8775214.640        3685.723          43.250  
C22  24215757.349   -21727211.1572      -2246.289          47.000  
G12  23350598.705   -13797681.235       -1769.893          39.750  
G30  25715803.390    -2090366.310        2006.143          31.500  
G 5  20538955.895   -30446536.191         201.504          47.250  
> 2020  6 29  9  2 41.0000000  0 28                     
C21  21857343.538   -18601891.1662        108.027          49.500  
C16  37953335.211   -22117522.6422       1844.648          40.500  
G17  24791729.330     3647410.235       -3178.076          33.750  
G 9  24769926.597   -10969777.207       -2626.250          34.750  
C 6  37373477.672   -22635299.2672       1677.334          40.250  
C11  24481738.820   -15090007.9922       3083.271          43.500  
G25  24010288.639    -8041838.224        -625.127          36.750  
C 8  37011810.314    -4219372.3972        735.312          45.250  
C 7  39908658.100    12736605.9142      -1103.066          32.000  
C10  39023011.366     6579121.3052      -1333.916          34.750  
C 3  36412231.407    -7889130.3822        334.912          42.500  
C13  37049479.680    -8431923.5972        707.139          45.750  
C 2  37384611.007    -8465602.7202        376.836          38.500  
C 1  37840748.962    -7518600.5082        349.639          41.250  
C 4  38789475.486    -7472859.1012        329.697          37.500  
G13  22580565.212    -9169563.755        3645.938          40.500  
C 9  39079465.425    -4346883.6342       1822.871          33.500  
G15  24467477.926    -3462572.197        4223.740          32.250  
G 2  21571340.154   -25729230.282         784.883          47.750  
C 5  39444745.676    -8206143.7082        368.477          35.500  
C12  21586939.732   -29887222.7492        832.402          46.500  
G19  23415832.985   -10828107.042       -3105.254          37.750  
G 6  22639463.453   -19047764.006       -1014.346          44.000  
G29  23816167.422    -8778900.223        3685.576          43.250  
C22  24216188.867   -21724964.7752      -2246.396          47.000  
G12  23350935.647   -13795911.096       -1770.195          39.750  
G30  25715421.401    -2092372.231        2005.908          32.000  
G 5  20538917.570   -30446737.444         201.191          47.250  
> 2020  6 29  9  2 42.0000000  0 28                     
C21  21857323.078   -18601998.8162        107.549          49.500  
C16  37952981.115   -22119367.1842       1844.531          40.500  
G17  24792334.111     3650588.572       -3178.369          33.750  
G 9  24770426.205   -10967150.679       -2626.670          34.750  
C 6  37373155.864   -22636976.4352       1677.148          40.000  
C11  24481146.739   -15093091.0512       3083.027          43.500  
G25  24010407.632    -8041212.872        -625.449          36.750  
C 8  37011669.085    -4220107.6752        735.312          45.250  
C 7  39908871.477    12737708.7772      -1102.842          32.000  
C10  39023267.579     6580455.4402      -1334.004          34.500  
C 3  36412167.286    -7889465.2732        334.902          42.500  
C13  37049343.969    -8432630.7412        707.197          45.750  
C 2  37384538.697    -8465979.4772        376.816          38.250  
C 1  37840681.853    -7518950.0922        349.541          41.250  
C 4  38789411.871    -7473188.7732        329.629          37.750  
G13  22579871.640    -9173209.519        3645.684          40.250  
C 9  39079115.430    -4348706.4542       1822.881          33.500  
G15  24466671.827    -3466795.800        4223.672          32.000  
G 2  21571190.828   -25730014.993         784.678          47.750  
C 5  39444674.850    -8206512.1482        368.428          35.250  
C12  21586780.028   -29888054.8052        831.904          46.500  
G19  23416424.046   -10825001.511       -3105.664          37.750  
G 6  22639656.553   -19046749.501       -1014.590          44.000  
G29  23815466.001    -8782585.553        3685.264          43.250  
C22  24216620.336   -21722718.2162      -2246.602          47.000  
G12  23351272.764   -13794140.618       -1770.576          39.750  
G30  25715039.603    -2094378.172        2005.986          32.000  
G 5  20538879.236   -30446938.266         200.723          47.250  
> 2020  6 29  9  2 43.0000000  0 28                     
C21  21857302.138   -18602106.0682        107.158          49.500  
C16  37952627.120   -22121211.6372       1844.414          40.500  
G17  24792938.888     3653767.008       -3178.457          34.000  
G 9  24770926.001   -10964523.898       -2626.807          34.750  
C 6  37372833.850   -22638653.5432       1677.109          40.250  
C11  24480554.670   -15096174.0482       3082.998          43.500  
G25  24010526.607    -8040587.000        -626.094          36.750  
C 8  37011528.126    -4220843.0482        735.439          45.250  
C 7  39909083.471    12738811.5692      -1102.754          32.000  
C10  39023523.578     6581789.5452      -1334.053          34.750  
C 3  36412102.956    -7889800.1552        334.902          42.500  
C13  37049207.967    -8433337.9802        707.285          46.000  
C 2  37384466.379    -8466356.2402        376.836          38.250  
C 1  37840614.831    -7519299.6992        349.609          41.250  
C 4  38789348.692    -7473518.4422        329.629          37.750  
G13  22579177.689    -9176855.089        3645.527          40.250  
C 9  39078765.505    -4350529.2142       1822.686          33.250  
G15  24465869.928    -3471019.398        4223.389          32.250  
G 2  21571041.633   -25730799.578         784.561          47.750  
C 5  39444604.194    -8206880.6782        368.574          35.250  
C12  21586620.219   -29888886.4382        831.523          46.500  
G19  23417014.954   -10821895.764       -3105.820          37.750  
G 6  22639849.627   -19045734.828       -1014.678          44.000  
G29  23814764.734    -8786270.725        3685.146          43.250  
C22  24217051.714   -21720471.5262      -2246.709          47.000  
G12  23351609.509   -13792369.872       -1770.830          39.750  
G30  25714657.648    -2096384.104        2006.035          31.750  
G 5  20538840.998   -30447138.738         200.361          47.250  
> 2020  6 29  9  2 44.0000000  0 28                     
C21  21857282.079   -18602212.8432        106.572          49.500  
C16  37952273.051   -22123055.9652       1844.258          40.500  
G17  24793543.630     3656945.616       -3178.682          33.250  
G 9  24771425.810   -10961896.745       -2627.402          34.500  
C 6  37372511.667   -22640330.4842       1676.855          40.250  
C11  24479962.693   -15099256.8892       3082.754          43.500  
G25  24010645.618    -8039960.691        -626.475          36.500  
C 8  37011386.945    -4221578.4362        735.352          45.250  
C 7  39909295.090    12739914.3602      -1102.803          32.000  
C10  39023779.790     6583123.6552      -1334.209          34.750  
C 3  36412038.578    -7890135.0152        334.814          42.500  
C13  37049072.108    -8434045.2532        707.207          45.750  
C 2  37384394.061    -8466732.9632        376.660          38.500  
C 1  37840547.526    -7519649.2372        349.502          41.250  
C 4  38789285.427    -7473848.0732        329.629          37.750  
G13  22578483.964    -9180500.361        3645.166          40.250  
C 9  39078415.419    -4352352.0282       1822.773          33.500  
G15  24465064.635    -3475242.908        4223.496          32.000  
G 2  21570892.159   -25731583.984         784.316          47.750  
C 5  39444533.573    -8207249.0682        368.369          35.500  
C12  21586460.432   -29889717.6222        831.006          46.500  
G19  23417605.884   -10818789.712       -3106.201          37.500  
G 6  22640042.761   -19044719.896       -1015.029          44.000  
G29  23814063.427    -8789955.635        3684.775          43.250  
C22  24217483.119   -21718224.6642      -2246.943          47.250  
G12  23351946.508   -13790598.776       -1771.299          39.750  
G30  25714276.064    -2098389.918        2005.762          32.000  
G 5  20538802.726   -30447338.780         199.883          47.250  
> 2020  6 29  9  2 45.0000000  0 28                     
C21  21857261.343   -18602319.1282        106.182          49.250  
C16  37951918.964   -22124900.1272       1844.160          40.500  
G17  24794148.694     3660124.492       -3178.877          33.250  
G 9  24771925.759   -10959269.179       -2627.598          34.500  
C 6  37372189.375   -22642007.2792       1676.826          40.000  
C11  24479370.651   -15102339.5652       3082.656          43.250  
G25  24010764.934    -8039333.845        -626.953          36.250  
C 8  37011245.838    -4222313.8222        735.449          45.250  
C 7  39909506.718    12741017.1042      -1102.734          32.250  
C10  39024035.942     6584457.8702      -1334.131          34.500  
C 3  36411974.383    -7890469.7822        334.863          42.500  
C13  37048936.175    -8434752.5482        707.334          45.750  
C 2  37384321.621    -8467109.6262        376.680          38.250  
C 1  37840480.351    -7519998.7072        349.492          41.250  
C 4  38789222.296    -7474177.6412        329.600          37.750  
G13  22577790.431    -9184145.338        3644.932          40.250  
C 9  39078065.258    -4354174.6582       1822.656          33.500  
G15  24464259.827    -3479466.336        4223.330          32.000  
G 2  21570743.029   -25732368.168         784.209          47.750  
C 5  39444462.860    -8207617.4512        368.447          35.500  
C12  21586300.989   -29890548.2912        830.586          46.250  
G19  23418196.909   -10815683.343       -3106.367          37.500  
G 6  22640235.687   -19043704.729       -1015.186          43.750  
G29  23813362.216    -8793640.306        3684.678          43.000  
C22  24217914.697   -21715977.5762      -2247.080          47.000  
G12  23352283.397   -13788827.315       -1771.475          39.500  
G30  25713894.437    -2100395.734        2005.908          32.000  
G 5  20538765.107   -30447538.371         199.512          47.000  
> 2020  6 29  9  2 46.0000000  0 28                     
C21  21857241.254   -18602424.9572        105.645          49.500  
C16  37951564.790   -22126744.1432       1843.906          40.500  
G17  24794753.610     3663303.498       -3179.102          33.000  
G 9  24772425.616   -10956641.263       -2628.018          34.500  
C 6  37371867.375   -22643683.9112       1676.562          40.250  
C11  24478778.587   -15105422.1122       3082.461          43.250  
G25  24010884.110    -8038706.517        -627.412          36.250  
C 8  37011104.683    -4223049.2912        735.469          45.250  
C 7  39909718.428    12742119.7892      -1102.598          32.000  
C10  39024291.994     6585792.0492      -1334.189          34.750  
C 3  36411910.170    -7890804.5202        334.668          42.500  
C13  37048800.312    -8435459.8892        707.305          45.750  
C 2  37384249.443    -8467486.2472        376.572          38.250  
C 1  37840413.473    -7520348.1612        349.346          41.250  
C 4  38789159.091    -7474507.1532        329.424          37.750  
G13  22577096.371    -9187790.059        3644.619          40.250  
C 9  39077715.137    -4355997.2282       1822.588          33.500  
G15  24463455.904    -3483689.724        4223.418          32.000  
G 2  21570594.044   -25733152.197         783.926          47.750  
C 5  39444391.999    -8207985.7792        368.223          35.500  
C12  21586141.638   -29891378.5092        830.059          46.500  
G19  23418787.975   -10812576.692       -3106.729          37.500  
G 6  22640428.852   -19042689.341       -1015.488          44.000  
G29  23812660.940    -8797324.732        3684.336          43.000  
C22  24218346.259   -21713730.3312      -2247.363          47.000  
G12  23352620.034   -13787055.542       -1771.934          39.000  
G30  25713512.796    -2102401.499        2005.801          32.000  
G 5  20538727.175   -30447737.554         199.004          47.250  
> 2020  6 29  9  2 47.0000000  0 28                     
C21  21857220.837   -18602530.4712        105.352          49.500  
C16  37951210.463   -22128588.2172       1844.023          40.500  
G17  24795358.666     3666482.512       -3179.102          33.000  
G 9  24772925.883   -10954013.184       -2628.057          34.500  
C 6  37371545.335   -22645360.5762       1676.602          40.250  
C11  24478186.710   -15108504.6792       3082.529          43.500  
G25  24011003.230    -8038078.838        -627.842          36.000  
C 8  37010963.450    -4223784.9022        735.625          45.250  
C 7  39909930.893    12743222.3602      -1102.480          32.250  
C10  39024548.019     6587126.1202      -1333.906          34.750  
C 3  36411845.853    -7891139.3612        334.814          42.500  
C13  37048664.646    -8436167.4152        707.578          45.750  
C 2  37384176.963    -8467862.9892        376.680          38.250  
C 1  37840346.360    -7520697.7372        349.570          41.000  
C 4  38789095.773    -7474836.8032        329.629          37.500  
G13  22576402.947    -9191434.662        3644.512          40.250  
C 9  39077365.177    -4357819.9002       1822.617          33.500  
G15  24462653.783    -3487913.199        4223.525          32.250  
G 2  21570444.809   -25733936.185         783.916          47.750  
C 5  39444321.378    -8208354.2012        368.369          35.750  
C12  21585982.283   -29892208.4092        829.727          46.500  
G19  23419379.149   -10809469.889       -3106.904          37.750  
G 6  22640621.965   -19041673.867       -1015.537          43.750  
G29  23811959.899    -8801009.084        3684.258          43.000  
C22  24218777.833   -21711483.0612      -2247.344          47.000  
G12  23352956.841   -13785283.572       -1772.002          39.000  
G30  25713131.086    -2104407.316        2005.703          31.750  
G 5  20538689.299   -30447936.482         198.799          47.250  
> 2020  6 29  9  2 48.0000000  0 28                     
C21  21857200.813   -18602635.5532        104.893          49.500  
C16  37950856.294   -22130432.1482       1843.799          40.500  
G17  24795963.691     3669661.709       -3179.336          33.000  
G 9  24773426.085   -10951384.775       -2628.496          34.750  
C 6  37371223.265   -22647037.1392       1676.455          40.250  
C11  24477594.642   -15111587.1232       3082.402          43.500  
G25  24011122.655    -8037450.703        -628.242          36.000  
C 8  37010821.920    -4224520.5822        735.645          45.250  
C 7  39910143.022    12744324.7772      -1102.549          32.000  
C10  39024804.123     6588460.1802      -1334.092          34.750  
C 3  36411781.405    -7891474.2042        334.785          42.500  
C13  37048528.857    -8436875.0212        707.588          45.750  
C 2  37384104.671    -8468239.7342        376.719          38.250  
C 1  37840279.115    -7521047.2762        349.482          41.250  
C 4  38789032.303    -7475166.4552        329.590          37.500  
G13  22575709.406    -9195079.027        3644.238          40.250  
C 9  39077015.192    -4359642.5552       1822.520          33.500  
G15  24461848.460    -3492136.560        4223.408          32.250  
G 2  21570295.531   -25734720.034         783.750          47.750  
C 5  39444250.561    -8208722.6162        368.311          35.500  
C12  21585822.884   -29893037.8922        829.277          46.500  
G19  23419970.598   -10806362.844       -3107.207          38.000  
G 6  22640815.043   -19040658.206       -1015.771          43.750  
G29  23811258.941    -8804693.235        3684.043          43.000  
C22  24219209.377   -21709235.6422      -2247.520          47.000  
G12  23353293.494   -13783511.324       -1772.432          39.000  
G30  25712749.532    -2106413.212        2005.889          31.500  
G 5  20538651.594   -30448135.022         198.369          47.250  
> 2020  6 29  9  2 49.0000000  0 28                     
C21  21857180.719   -18602740.2652        104.482          49.250  
C16  37950502.129   -22132276.0782       1843.828          40.500  
G17  24796568.507     3672840.962       -3179.365          32.750  
G 9  24773926.082   -10948756.057       -2628.867          34.500  
C 6  37370901.413   -22648713.6492       1676.357          40.250  
C11  24477002.958   -15114669.5462       3082.275          43.500  
G25  24011242.167    -8036822.176        -628.809          36.000  
C 8  37010680.421    -4225256.3892        735.684          45.000  
C 7  39910353.852    12745427.0822      -1102.471          31.750  
C10  39025060.187     6589794.1852      -1334.150          34.500  
C 3  36411717.175    -7891809.0962        334.785          42.500  
C13  37048392.810    -8437582.7812        707.705          45.750  
C 2  37384032.336    -8468616.4952        376.729          38.250  
C 1  37840211.923    -7521396.9002        349.502          41.250  
C 4  38788968.984    -7475496.1492        329.697          37.500  
G13  22575015.873    -9198723.241        3644.053          40.000  
C 9  39076665.140    -4361465.2502       1822.529          33.500  
G15  24461046.330    -3496360.047        4223.408          32.250  
G 2  21570146.398   -25735503.795         783.613          47.750  
C 5  39444179.827    -8209091.1292        368.428          35.500  
C12  21585663.659   -29893867.0052        828.867          46.500  
G19  23420562.029   -10803255.624       -3107.373          37.750  
G 6  22641008.408   -19039642.409       -1015.977          43.750  
G29  23810557.796    -8808377.254        3683.906          42.750  
C22  24219641.013   -21706988.1452      -2247.627          47.000  
G12  23353630.471   -13781738.822       -1772.646          38.750  
G30  25712367.552    -2108419.076        2005.830          31.000  
G 5  20538613.862   -30448333.247         198.027          47.000  
> 2020  6 29  9  2 50.0000000  0 28                     
C21  21857160.215   -18602844.5972        104.189          49.250  
C16  37950148.325   -22134119.9332       1843.818          40.500  
G17  24797173.249     3676020.315       -3179.424          33.000  
G 9  24774426.379   -10946127.103       -2629.131          34.750  
C 6  37370579.540   -22650390.0962       1676.426          40.250  
C11  24476411.033   -15117751.8872       3082.305          43.500  
G25  24011361.753    -8036193.231        -629.160          36.000  
C 8  37010539.170    -4225992.2872        735.898          45.250  
C 7  39910563.747    12746529.2782      -1102.109          32.000  
C10  39025316.365     6591128.1292      -1333.945          34.500  
C 3  36411653.037    -7892144.0412        334.922          42.500  
C13  37048256.712    -8438290.6242        707.832          45.750  
C 2  37383960.253    -8468993.2972        376.699          38.250  
C 1  37840144.714    -7521746.5492        349.629          41.250  
C 4  38788905.535    -7475825.8762        329.785          37.500  
G13  22574322.419    -9202367.244        3643.887          40.000  
C 9  39076315.071    -4363287.9562       1822.705          33.500  
G15  24460242.896    -3500583.466        4223.340          32.500  
G 2  21569997.338   -25736287.455         783.623          47.750  
C 5  39444109.031    -8209459.6602        368.584          35.500  
C12  21585504.565   -29894695.7342        828.613          46.500  
G19  23421153.391   -10800148.164       -3107.588          37.500  
G 6  22641201.648   -19038626.487       -1015.996          43.750  
G29  23809856.851    -8812061.117        3683.750          42.750  
C22  24220072.596   -21704740.5422      -2247.646          47.000  
G12  23353967.308   -13779966.082       -1772.832          38.500  
G30  25711985.749    -2110425.011        2005.996          31.000  
G 5  20538576.196   -30448531.125         197.773          47.000  
> 2020  6 29  9  2 51.0000000  0 28                     
C21  21857140.631   -18602948.4382        103.672          49.250  
C16  37949794.199   -22135963.6462       1843.730          40.500  
G17  24797778.387     3679199.877       -3179.609          33.000  
G 9  24774926.887   -10943497.799       -2629.385          34.500  
C 6  37370257.548   -22652066.3752       1676.201          40.250  
C11  24475818.938   -15120834.0712       3082.119          43.500  
G25  24011481.531    -8035563.806        -629.541          35.750  
C 8  37010398.006    -4226728.2132        735.898          45.250  
C 7  39910778.651    12747631.4572      -1102.188          32.000  
C10  39025572.530     6592462.1162      -1334.092          34.250  
C 3  36411588.807    -7892478.9092        334.814          42.500  
C13  37048120.696    -8438998.5212        707.881          45.750  
C 2  37383887.721    -8469370.0502        376.689          38.250  
C 1  37840077.648    -7522096.1602        349.570          41.250  
C 4  38788842.065    -7476155.5292        329.561          37.500  
G13  22573629.008    -9206010.964        3643.594          40.250  
C 9  39075964.728    -4365110.5472       1822.568          33.500  
G15  24459439.340    -3504806.812        4223.320          32.750  
G 2  21569848.117   -25737070.915         783.369          47.750  
C 5  39444038.340    -8209828.1332        368.457          35.500  
C12  21585345.594   -29895523.9612        828.066          46.500  
G19  23421744.866   -10797040.405       -3107.881          37.500  
G 6  22641395.114   -19037610.296       -1016.289          43.750  
G29  23809155.959    -8815744.719        3683.525          42.750  
C22  24220504.244   -21702492.7472      -2247.900          47.000  
G12  23354304.080   -13778192.970       -1773.203          38.250  
G30  25711603.956    -2112430.869        2005.752          31.250  
G 5  20538538.778   -30448728.558         197.246          47.250  
> 2020  6 29  9  2 52.0000000  0 28                     
C21  21857120.424   -18603051.7712        103.252          49.250  
C16  37949440.043   -22137807.1772       1843.574          40.500  
G17  24798383.474     3682379.692       -3179.873          33.000  
G 9  24775427.355   -10940868.063       -2629.951          34.500  
C 6  37369935.749   -22653742.4892       1676.094          40.000  
C11  24475226.949   -15123916.0822       3082.031          43.500  
G25  24011601.231    -8034933.801        -630.127          36.000  
C 8  37010256.834    -4227464.1142        735.986          45.000  
C 7  39910987.111    12748733.5872      -1102.148          31.750  
C10  39025828.717     6593796.1432      -1333.984          34.500  
C 3  36411524.490    -7892813.6902        334.863          42.500  
C13  37047984.864    -8439706.4312        707.988          45.750  
C 2  37383815.382    -8469746.7322        376.729          38.000  
C 1  37840010.678    -7522445.6552        349.541          41.250  
C 4  38788778.781    -7476485.1182        329.580          37.500  
G13  22572935.689    -9209654.379        3643.389          40.250  
C 9  39075614.602    -4366933.0362       1822.627          33.750  
G15  24458635.879    -3509030.044        4223.223          32.500  
G 2  21569699.192   -25737854.148         783.232          47.750  
C 5  39443967.662    -8210196.5072        368.506          35.250  
C12  21585186.544   -29896351.7002        827.686          46.500  
G19  23422336.385   -10793932.320       -3108.125          37.750  
