% program   : RTKPOST ver.2.4.3 b33
% inp file  : D:\Documents\Visual Studio 2019\rtklib_portToVS\rtklib_2.4.3\data\7.obs
% inp file  : D:\Documents\Visual Studio 2019\rtklib_portToVS\rtklib_2.4.3\data\8.obs
% inp file  : D:\Documents\Visual Studio 2019\rtklib_portToVS\rtklib_2.4.3\data\8.nav
% obs start : 2020/06/29 08:13:15.5 GPST (week2112 115995.5s)
% obs end   : 2020/06/29 08:38:11.0 GPST (week2112 117491.0s)
% pos mode  : kinematic
% freqs     : L1
% solution  : forward
% elev mask : 0.0 deg
% dynamics  : off
% tidecorr  : off
% ionos opt : broadcast
% tropo opt : saastamoinen
% ephemeris : broadcast
% navi sys  : gps beidou
% amb res   : instantaneous
% val thres : 3.0
% antenna1  :                       ( 0.0000  0.0000  0.0000)
% antenna2  :                       ( 0.0000  0.0000  0.0000)
% ref pos   : -2191136.5960   5198843.8105   2965370.9859
%
% (x/y/z-ecef=WGS84,Q=1:fix,2:float,3:sbas,4:dgps,5:single,6:ppp,ns=# of satellites)
%  GPST                      x-ecef(m)      y-ecef(m)      z-ecef(m)   Q  ns   sdx(m)   sdy(m)   sdz(m)  sdxy(m)  sdyz(m)  sdzx(m) age(s)  ratio
2020/06/29 08:13:15.500  -2191126.6439   5198846.6296   2965369.3016   2  22   0.5667   0.9843   0.5065  -0.6310   0.5911  -0.4126  -0.50    1.2
2020/06/29 08:13:16.000  -2191126.7513   5198846.8186   2965369.4043   2  22   0.5667   0.9843   0.5065  -0.6310   0.5910  -0.4126   0.00    1.0
2020/06/29 08:13:16.500  -2191126.8834   5198846.8345   2965369.4500   2  22   0.5667   0.9843   0.5065  -0.6310   0.5910  -0.4126   0.50    1.0
2020/06/29 08:13:17.000  -2191126.9278   5198846.8727   2965369.4672   2  22   0.5667   0.9842   0.5064  -0.6310   0.5910  -0.4125   0.00    1.2
2020/06/29 08:13:17.500  -2191127.0719   5198846.9652   2965369.5587   2  22   0.5667   0.9842   0.5064  -0.6309   0.5909  -0.4125   0.50    1.4
2020/06/29 08:13:18.000  -2191127.0989   5198847.0249   2965369.6673   2  22   0.5667   0.9842   0.5064  -0.6309   0.5909  -0.4125   0.00    1.5
2020/06/29 08:13:18.500  -2191127.0894   5198846.9143   2965369.6348   2  22   0.5667   0.9841   0.5064  -0.6309   0.5909  -0.4125   0.50    1.8
2020/06/29 08:13:19.000  -2191127.1288   5198846.9382   2965369.7003   2  22   0.5667   0.9841   0.5064  -0.6309   0.5908  -0.4125   0.00    2.1
2020/06/29 08:13:19.500  -2191127.1333   5198846.7977   2965369.6919   2  22   0.5667   0.9841   0.5063  -0.6309   0.5908  -0.4125   0.50    2.4
2020/06/29 08:13:20.000  -2191127.3408   5198847.2994   2965369.8556   2  22   0.5667   0.9841   0.5063  -0.6309   0.5908  -0.4124   0.00    2.6
2020/06/29 08:13:20.500  -2191127.4249   5198847.3730   2965369.8472   2  22   0.5667   0.9840   0.5063  -0.6309   0.5908  -0.4124   0.50    2.6
2020/06/29 08:13:21.000  -2191127.5475   5198847.5595   2965369.8665   2  22   0.5667   0.9840   0.5063  -0.6309   0.5907  -0.4124   0.00    2.0
2020/06/29 08:13:21.500  -2191127.5230   5198847.5716   2965369.8380   2  22   0.5667   0.9840   0.5063  -0.6308   0.5907  -0.4124   0.50    1.8
2020/06/29 08:13:22.000  -2191127.4842   5198847.2452   2965369.6976   2  22   0.5667   0.9839   0.5062  -0.6308   0.5907  -0.4124   0.00    1.9
2020/06/29 08:13:22.500  -2191127.5485   5198847.3096   2965369.7943   2  22   0.5667   0.9839   0.5062  -0.6308   0.5906  -0.4123   0.50    2.3
2020/06/29 08:13:23.000  -2191127.5451   5198847.5766   2965369.8983   2  22   0.5667   0.9839   0.5062  -0.6308   0.5906  -0.4123   0.00    2.5
2020/06/29 08:13:23.500  -2191127.3758   5198847.3959   2965369.8554   2  22   0.5667   0.9839   0.5062  -0.6308   0.5906  -0.4123   0.50    2.2
2020/06/29 08:13:24.000  -2191127.4334   5198847.5204   2965369.8630   2  22   0.5667   0.9838   0.5062  -0.6308   0.5905  -0.4123   0.00    1.9
2020/06/29 08:13:24.500  -2191127.3920   5198847.5295   2965369.8587   2  22   0.5667   0.9838   0.5061  -0.6308   0.5905  -0.4123   0.50    1.9
2020/06/29 08:13:25.000  -2191127.5127   5198847.6019   2965369.8266   2  22   0.5667   0.9838   0.5061  -0.6308   0.5905  -0.4123   0.00    1.6
2020/06/29 08:13:25.500  -2191127.5260   5198847.7161   2965369.8331   2  22   0.5667   0.9837   0.5061  -0.6307   0.5905  -0.4122   0.50    1.5
2020/06/29 08:13:26.000  -2191127.6481   5198847.9023   2965369.8392   2  22   0.5667   0.9837   0.5061  -0.6307   0.5904  -0.4122   0.00    1.4
2020/06/29 08:13:26.500  -2191127.6288   5198847.7614   2965369.8113   2  22   0.5667   0.9837   0.5061  -0.6307   0.5904  -0.4122   0.50    1.4
2020/06/29 08:13:27.000  -2191127.5907   5198847.8728   2965369.9377   2  22   0.5667   0.9837   0.5060  -0.6307   0.5904  -0.4122   0.00    1.8
2020/06/29 08:13:27.500  -2191127.6421   5198847.7757   2965369.9374   2  22   0.5667   0.9836   0.5060  -0.6307   0.5903  -0.4122   0.50    2.1
2020/06/29 08:13:28.000  -2191127.5305   5198847.6474   2965369.9611   2  22   0.5667   0.9836   0.5060  -0.6307   0.5903  -0.4122   0.00    2.5
2020/06/29 08:13:28.500  -2191127.4267   5198847.4606   2965369.8880   2  22   0.5667   0.9836   0.5060  -0.6307   0.5903  -0.4121   0.50    2.5
2020/06/29 08:13:29.000  -2191127.7232   5198847.7299   2965370.5621   1  22   0.0087   0.0149   0.0103  -0.0099   0.0101  -0.0074   0.00    4.1
2020/06/29 08:13:29.500  -2191127.7229   5198847.7306   2965370.5619   1  22   0.0087   0.0150   0.0103  -0.0099   0.0101  -0.0074   0.50    3.5
2020/06/29 08:13:30.000  -2191127.6490   5198848.1114   2965370.0826   2  22   0.5668   0.9835   0.5059  -0.6306   0.5902  -0.4121   0.00    1.7
2020/06/29 08:13:30.500  -2191127.7308   5198848.2745   2965370.1139   2  22   0.5668   0.9835   0.5059  -0.6306   0.5902  -0.4121   0.50    1.5
2020/06/29 08:13:31.000  -2191127.8749   5198848.4531   2965370.1830   2  22   0.5668   0.9834   0.5059  -0.6306   0.5901  -0.4120   0.00    1.7
2020/06/29 08:13:31.500  -2191127.9335   5198848.5547   2965370.1724   2  22   0.5668   0.9834   0.5059  -0.6306   0.5901  -0.4120   0.50    1.3
2020/06/29 08:13:32.000  -2191128.0009   5198848.7222   2965370.2279   2  22   0.5668   0.9834   0.5059  -0.6306   0.5901  -0.4120   0.00    1.1
2020/06/29 08:13:32.500  -2191127.9288   5198848.6002   2965370.1518   2  22   0.5668   0.9833   0.5058  -0.6306   0.5900  -0.4120   0.50    1.1
2020/06/29 08:13:33.000  -2191128.0094   5198848.7497   2965370.2105   2  22   0.5668   0.9833   0.5058  -0.6306   0.5900  -0.4120   0.00    1.1
2020/06/29 08:13:33.500  -2191127.8960   5198848.4900   2965370.0786   2  22   0.5668   0.9833   0.5058  -0.6306   0.5900  -0.4120   0.50    1.1
2020/06/29 08:13:34.000  -2191127.8177   5198848.1375   2965369.9918   2  22   0.5668   0.9833   0.5058  -0.6305   0.5899  -0.4119   0.00    1.6
2020/06/29 08:13:34.500  -2191127.7425   5198848.1072   2965369.9971   2  22   0.5668   0.9832   0.5058  -0.6305   0.5899  -0.4119   0.50    1.6
2020/06/29 08:13:35.000  -2191127.7515   5198848.0971   2965369.9465   2  22   0.5668   0.9832   0.5057  -0.6305   0.5899  -0.4119   0.00    1.5
2020/06/29 08:13:35.500  -2191127.7138   5198848.1505   2965369.9899   2  22   0.5668   0.9832   0.5057  -0.6305   0.5899  -0.4119   0.50    1.5
2020/06/29 08:13:36.000  -2191127.8218   5198848.1592   2965370.0979   2  22   0.5668   0.9831   0.5057  -0.6305   0.5898  -0.4119   0.00    1.9
2020/06/29 08:13:36.500  -2191127.8889   5198848.3326   2965370.1399   2  22   0.5668   0.9831   0.5057  -0.6305   0.5898  -0.4119   0.50    1.2
2020/06/29 08:13:37.000  -2191127.8886   5198848.2104   2965370.1577   2  22   0.5668   0.9831   0.5057  -0.6305   0.5898  -0.4118   0.00    2.1
2020/06/29 08:13:37.500  -2191127.9903   5198848.5257   2965370.3007   2  22   0.5668   0.9831   0.5056  -0.6305   0.5897  -0.4118   0.50    2.3
2020/06/29 08:13:38.000  -2191127.9077   5198848.5951   2965370.2681   2  22   0.5668   0.9830   0.5056  -0.6304   0.5897  -0.4118   0.00    1.9
2020/06/29 08:13:38.500  -2191127.9568   5198848.6373   2965370.2973   2  22   0.5668   0.9830   0.5056  -0.6304   0.5897  -0.4118   0.50    1.9
2020/06/29 08:13:39.000  -2191127.9907   5198848.7639   2965370.3402   2  22   0.5668   0.9830   0.5056  -0.6304   0.5896  -0.4118   0.00    1.5
2020/06/29 08:13:39.500  -2191127.9518   5198848.7241   2965370.3643   2  22   0.5668   0.9829   0.5056  -0.6304   0.5896  -0.4118   0.50    1.6
2020/06/29 08:13:40.000  -2191128.0261   5198848.6098   2965370.2537   2  22   0.5668   0.9829   0.5055  -0.6304   0.5896  -0.4117   0.00    1.5
2020/06/29 08:13:40.500  -2191128.0280   5198848.4901   2965370.2365   2  22   0.5668   0.9829   0.5055  -0.6304   0.5896  -0.4117   0.50    1.6
2020/06/29 08:13:41.000  -2191127.7263   5198847.7365   2965370.5654   1  22   0.0087   0.0149   0.0103  -0.0099   0.0100  -0.0074   0.00    3.3
2020/06/29 08:13:41.500  -2191127.7261   5198847.7341   2965370.5636   1  22   0.0087   0.0150   0.0103  -0.0099   0.0101  -0.0074   0.50    5.2
2020/06/29 08:13:42.000  -2191127.9350   5198848.2092   2965370.2076   2  22   0.5668   0.9828   0.5055  -0.6303   0.5895  -0.4117   0.00    2.8
2020/06/29 08:13:42.500  -2191127.9717   5198848.0290   2965370.1083   2  22   0.5668   0.9828   0.5055  -0.6303   0.5894  -0.4116   0.50    2.3
2020/06/29 08:13:43.000  -2191127.7104   5198847.7641   2965370.0137   2  22   0.5668   0.9827   0.5054  -0.6303   0.5894  -0.4116   0.00    3.0
2020/06/29 08:13:43.500  -2191127.7098   5198847.6632   2965369.9954   2  22   0.5668   0.9827   0.5054  -0.6303   0.5894  -0.4116   0.50    3.0
2020/06/29 08:13:44.000  -2191127.5964   5198847.8039   2965370.0464   2  22   0.5668   0.9827   0.5054  -0.6303   0.5893  -0.4116   0.00    2.7
2020/06/29 08:13:44.500  -2191127.7050   5198847.8582   2965369.9799   2  22   0.5668   0.9827   0.5054  -0.6303   0.5893  -0.4116   0.50    1.7
2020/06/29 08:13:45.000  -2191127.7172   5198847.7491   2965369.9302   2  22   0.5668   0.9826   0.5054  -0.6303   0.5893  -0.4116   0.00    1.6
2020/06/29 08:13:45.500  -2191127.8022   5198847.8295   2965369.9548   2  22   0.5668   0.9826   0.5053  -0.6303   0.5893  -0.4115   0.50    1.6
2020/06/29 08:13:46.000  -2191127.7319   5198847.9021   2965369.9845   2  22   0.5668   0.9826   0.5053  -0.6302   0.5892  -0.4115   0.00    1.8
2020/06/29 08:13:46.500  -2191127.7807   5198847.8695   2965369.9228   2  22   0.5668   0.9825   0.5053  -0.6302   0.5892  -0.4115   0.50    1.3
2020/06/29 08:13:47.000  -2191127.8301   5198847.8237   2965369.9390   2  22   0.5668   0.9825   0.5053  -0.6302   0.5892  -0.4115   0.00    1.6
2020/06/29 08:13:47.500  -2191127.7847   5198847.8620   2965369.9669   2  22   0.5668   0.9825   0.5053  -0.6302   0.5891  -0.4115   0.50    1.9
2020/06/29 08:13:48.000  -2191127.7922   5198847.8326   2965369.9725   2  22   0.5668   0.9825   0.5052  -0.6302   0.5891  -0.4115   0.00    1.9
2020/06/29 08:13:48.500  -2191127.8779   5198847.8092   2965369.9674   2  22   0.5668   0.9824   0.5052  -0.6302   0.5891  -0.4114   0.50    1.7
2020/06/29 08:13:49.000  -2191127.9105   5198847.8996   2965369.9911   2  22   0.5668   0.9824   0.5052  -0.6302   0.5890  -0.4114   0.00    1.6
2020/06/29 08:13:49.500  -2191127.8540   5198847.8743   2965369.9877   2  22   0.5668   0.9824   0.5052  -0.6302   0.5890  -0.4114   0.50    1.9
2020/06/29 08:13:50.000  -2191127.9730   5198847.9638   2965370.0573   2  22   0.5668   0.9823   0.5052  -0.6302   0.5890  -0.4114   0.00    1.8
2020/06/29 08:13:50.500  -2191127.9114   5198847.9285   2965370.1146   2  22   0.5668   0.9823   0.5051  -0.6301   0.5890  -0.4114   0.50    2.7
2020/06/29 08:13:51.000  -2191127.7233   5198847.7308   2965370.5636   1  22   0.0087   0.0149   0.0103  -0.0099   0.0100  -0.0074   0.00    3.3
2020/06/29 08:13:51.500  -2191127.7235   5198847.7279   2965370.5616   1  22   0.0087   0.0150   0.0103  -0.0099   0.0100  -0.0074   0.50    4.3
2020/06/29 08:13:52.000  -2191127.7246   5198847.7317   2965370.5624   1  22   0.0087   0.0149   0.0103  -0.0099   0.0100  -0.0074   0.00    3.9
2020/06/29 08:13:52.500  -2191127.5387   5198847.2756   2965369.8296   2  22   0.5668   0.9822   0.5051  -0.6301   0.5888  -0.4113   0.50    2.9
2020/06/29 08:13:53.000  -2191127.3329   5198847.0498   2965369.7250   2  22   0.5668   0.9822   0.5050  -0.6301   0.5888  -0.4113   0.00    2.5
2020/06/29 08:13:53.500  -2191127.7280   5198847.7369   2965370.5647   1  22   0.0087   0.0150   0.0103  -0.0099   0.0100  -0.0074   0.50    3.1
2020/06/29 08:13:54.000  -2191127.4737   5198847.1706   2965369.7015   2  22   0.5668   0.9821   0.5050  -0.6301   0.5887  -0.4112   0.00    2.1
2020/06/29 08:13:54.500  -2191127.5238   5198847.2298   2965369.6181   2  22   0.5668   0.9821   0.5050  -0.6300   0.5887  -0.4112   0.50    1.5
2020/06/29 08:13:55.000  -2191127.4852   5198847.0844   2965369.5626   2  22   0.5668   0.9821   0.5050  -0.6300   0.5887  -0.4112   0.00    1.3
2020/06/29 08:13:55.500  -2191127.4800   5198847.2606   2965369.5966   2  22   0.5668   0.9820   0.5050  -0.6300   0.5887  -0.4112   0.50    1.4
2020/06/29 08:13:56.000  -2191127.4024   5198847.2530   2965369.6225   2  22   0.5668   0.9820   0.5049  -0.6300   0.5886  -0.4112   0.00    1.3
2020/06/29 08:13:56.500  -2191127.4459   5198847.1607   2965369.6038   2  22   0.5668   0.9820   0.5049  -0.6300   0.5886  -0.4112   0.50    1.6
2020/06/29 08:13:57.000  -2191127.5547   5198847.0843   2965369.6400   2  22   0.5668   0.9819   0.5049  -0.6300   0.5886  -0.4111   0.00    1.7
2020/06/29 08:13:57.500  -2191127.5038   5198846.8591   2965369.5552   2  22   0.5668   0.9819   0.5049  -0.6300   0.5885  -0.4111   0.50    1.7
2020/06/29 08:13:58.000  -2191128.0064   5198847.3366   2965369.8257   2  21   0.6335   1.0346   0.5351  -0.6993   0.6357  -0.4682   0.00    1.4
2020/06/29 08:13:58.500  -2191127.9386   5198847.1848   2965369.7623   2  21   0.6335   1.0345   0.5351  -0.6993   0.6357  -0.4681   0.50    1.4
2020/06/29 08:13:59.000  -2191127.7293   5198847.0121   2965369.7414   2  22   0.5668   0.9818   0.5048  -0.6299   0.5884  -0.4111   0.00    2.2
2020/06/29 08:13:59.500  -2191127.6048   5198846.7254   2965369.6423   2  22   0.5668   0.9818   0.5048  -0.6299   0.5884  -0.4110   0.50    1.9
2020/06/29 08:14:00.000  -2191127.5814   5198846.7105   2965369.7050   2  22   0.5668   0.9818   0.5048  -0.6299   0.5884  -0.4110   0.00    2.2
2020/06/29 08:14:00.500  -2191127.7247   5198847.7313   2965370.5623   1  22   0.0087   0.0149   0.0103  -0.0099   0.0100  -0.0074   0.50    3.1
2020/06/29 08:14:01.000  -2191127.7279   5198847.7360   2965370.5665   1  22   0.0087   0.0149   0.0102  -0.0099   0.0100  -0.0074   0.00    3.4
2020/06/29 08:14:01.500  -2191127.7262   5198847.7332   2965370.5665   1  22   0.0087   0.0149   0.0103  -0.0099   0.0100  -0.0074   0.50    3.5
2020/06/29 08:14:02.000  -2191127.4502   5198846.7275   2965369.7744   2  22   0.5668   0.9817   0.5047  -0.6299   0.5883  -0.4110   0.00    2.8
2020/06/29 08:14:02.500  -2191127.4062   5198846.7200   2965369.7546   2  22   0.5668   0.9816   0.5047  -0.6298   0.5882  -0.4109   0.50    2.4
2020/06/29 08:14:03.000  -2191127.7250   5198847.7308   2965370.5644   1  22   0.0087   0.0149   0.0102  -0.0099   0.0100  -0.0074   0.00    3.6
2020/06/29 08:14:03.500  -2191127.5663   5198846.9985   2965369.7394   2  22   0.5668   0.9816   0.5046  -0.6298   0.5882  -0.4109   0.50    2.6
2020/06/29 08:14:04.000  -2191127.3331   5198846.7234   2965369.5835   2  22   0.5668   0.9815   0.5046  -0.6298   0.5881  -0.4109   0.00    1.9
2020/06/29 08:14:04.500  -2191127.3580   5198846.7428   2965369.5364   2  22   0.5668   0.9815   0.5046  -0.6298   0.5881  -0.4109   0.50    1.5
2020/06/29 08:14:05.000  -2191127.2333   5198846.8134   2965369.5647   2  22   0.5668   0.9815   0.5046  -0.6298   0.5881  -0.4109   0.00    2.0
2020/06/29 08:14:05.500  -2191127.1580   5198846.7302   2965369.5434   2  22   0.5668   0.9815   0.5046  -0.6298   0.5881  -0.4108   0.50    2.0
2020/06/29 08:14:06.000  -2191127.1191   5198846.9691   2965369.6299   2  22   0.5668   0.9814   0.5045  -0.6298   0.5880  -0.4108   0.00    2.0
2020/06/29 08:14:06.500  -2191127.0448   5198846.8848   2965369.6026   2  22   0.5668   0.9814   0.5045  -0.6297   0.5880  -0.4108   0.50    1.7
2020/06/29 08:14:07.000  -2191126.8976   5198846.7384   2965369.4736   2  22   0.5668   0.9814   0.5045  -0.6297   0.5880  -0.4108   0.00    1.5
2020/06/29 08:14:07.500  -2191126.8339   5198846.3728   2965369.4025   2  22   0.5668   0.9814   0.5045  -0.6297   0.5879  -0.4108   0.50    1.5
2020/06/29 08:14:08.000  -2191126.8733   5198846.4290   2965369.2570   2  22   0.5668   0.9813   0.5045  -0.6297   0.5879  -0.4107   0.00    1.1
2020/06/29 08:14:08.500  -2191126.9082   5198846.3284   2965369.2579   2  22   0.5668   0.9813   0.5045  -0.6297   0.5879  -0.4107   0.50    1.1
2020/06/29 08:14:09.000  -2191126.6819   5198846.1537   2965369.2397   2  22   0.5668   0.9813   0.5044  -0.6297   0.5878  -0.4107   0.00    1.1
2020/06/29 08:14:09.500  -2191126.6898   5198846.2424   2965369.3011   2  22   0.5668   0.9812   0.5044  -0.6297   0.5878  -0.4107   0.50    1.2
2020/06/29 08:14:10.000  -2191126.6702   5198846.0180   2965369.2388   2  22   0.5668   0.9812   0.5044  -0.6297   0.5878  -0.4107   0.00    1.1
2020/06/29 08:14:10.500  -2191126.6993   5198846.2107   2965369.3254   2  22   0.5668   0.9812   0.5044  -0.6296   0.5877  -0.4107   0.50    1.2
2020/06/29 08:14:11.000  -2191126.6606   5198846.1201   2965369.3361   2  22   0.5668   0.9812   0.5044  -0.6296   0.5877  -0.4106   0.00    1.2
2020/06/29 08:14:11.500  -2191126.5478   5198846.0835   2965369.2701   2  22   0.5668   0.9811   0.5043  -0.6296   0.5877  -0.4106   0.50    1.0
2020/06/29 08:14:12.000  -2191126.4903   5198846.3090   2965369.4074   2  22   0.5668   0.9811   0.5043  -0.6296   0.5877  -0.4106   0.00    1.3
2020/06/29 08:14:12.500  -2191126.5682   5198846.5811   2965369.4934   2  22   0.5668   0.9811   0.5043  -0.6296   0.5876  -0.4106   0.50    1.3
2020/06/29 08:14:13.000  -2191126.6168   5198846.3435   2965369.3560   2  22   0.5668   0.9810   0.5043  -0.6296   0.5876  -0.4106   0.00    1.3
2020/06/29 08:14:13.500  -2191126.5560   5198846.1679   2965369.2658   2  22   0.5668   0.9810   0.5043  -0.6296   0.5876  -0.4105   0.50    1.1
2020/06/29 08:14:14.000  -2191126.7003   5198846.5195   2965369.3455   2  22   0.5668   0.9810   0.5042  -0.6296   0.5875  -0.4105   0.00    1.1
2020/06/29 08:14:14.500  -2191126.6519   5198846.2882   2965369.3992   2  22   0.5668   0.9810   0.5042  -0.6295   0.5875  -0.4105   0.50    1.5
2020/06/29 08:14:15.000  -2191126.7135   5198846.3682   2965369.4706   2  22   0.5668   0.9809   0.5042  -0.6295   0.5875  -0.4105   0.00    1.6
2020/06/29 08:14:15.500  -2191126.6820   5198846.2391   2965369.4777   2  22   0.5668   0.9809   0.5042  -0.6295   0.5874  -0.4105   0.50    1.6
2020/06/29 08:14:16.000  -2191126.5709   5198846.0348   2965369.3242   2  22   0.5668   0.9809   0.5042  -0.6295   0.5874  -0.4105   0.00    1.3
2020/06/29 08:14:16.500  -2191126.6582   5198846.0410   2965369.3702   2  22   0.5668   0.9808   0.5041  -0.6295   0.5874  -0.4104   0.50    1.3
2020/06/29 08:14:17.000  -2191126.6574   5198846.0461   2965369.2450   2  22   0.5668   0.9808   0.5041  -0.6295   0.5874  -0.4104   0.00    1.1
2020/06/29 08:14:17.500  -2191126.6880   5198846.0878   2965369.2238   2  22   0.5669   0.9808   0.5041  -0.6295   0.5873  -0.4104   0.50    1.0
2020/06/29 08:14:18.000  -2191126.8029   5198846.2218   2965369.4445   2  22   0.5669   0.9808   0.5041  -0.6295   0.5873  -0.4104   0.00    1.7
2020/06/29 08:14:18.500  -2191126.7977   5198846.3599   2965369.5133   2  22   0.5669   0.9807   0.5041  -0.6294   0.5873  -0.4104   0.50    1.6
2020/06/29 08:14:19.000  -2191126.6396   5198846.2782   2965369.5296   2  22   0.5669   0.9807   0.5041  -0.6294   0.5872  -0.4104   0.00    1.7
2020/06/29 08:14:19.500  -2191126.7017   5198846.4176   2965369.5246   2  22   0.5669   0.9807   0.5040  -0.6294   0.5872  -0.4103   0.50    1.8
2020/06/29 08:14:20.000  -2191126.8277   5198846.6281   2965369.6734   2  22   0.5669   0.9806   0.5040  -0.6294   0.5872  -0.4103   0.00    2.3
2020/06/29 08:14:20.500  -2191126.8955   5198846.8063   2965369.6695   2  22   0.5669   0.9806   0.5040  -0.6294   0.5871  -0.4103   0.50    1.7
2020/06/29 08:14:21.000  -2191126.9056   5198846.7565   2965369.6573   2  22   0.5669   0.9806   0.5040  -0.6294   0.5871  -0.4103   0.00    1.8
2020/06/29 08:14:21.500  -2191126.7464   5198846.4594   2965369.5593   2  22   0.5669   0.9806   0.5040  -0.6294   0.5871  -0.4103   0.50    1.8
2020/06/29 08:14:22.000  -2191126.9415   5198846.7395   2965369.6486   2  22   0.5669   0.9805   0.5039  -0.6294   0.5871  -0.4102   0.00    2.0
2020/06/29 08:14:22.500  -2191126.8498   5198846.7618   2965369.6453   2  22   0.5669   0.9805   0.5039  -0.6293   0.5870  -0.4102   0.50    1.5
2020/06/29 08:14:23.000  -2191126.6715   5198846.5006   2965369.5589   2  22   0.5669   0.9805   0.5039  -0.6293   0.5870  -0.4102   0.00    1.6
2020/06/29 08:14:23.500  -2191126.6382   5198846.3135   2965369.5433   2  22   0.5669   0.9804   0.5039  -0.6293   0.5870  -0.4102   0.50    1.7
2020/06/29 08:14:24.000  -2191126.6581   5198846.1893   2965369.4988   2  22   0.5669   0.9804   0.5039  -0.6293   0.5869  -0.4102   0.00    1.8
2020/06/29 08:14:24.500  -2191126.6037   5198845.9977   2965369.4344   2  22   0.5669   0.9804   0.5038  -0.6293   0.5869  -0.4102   0.50    1.5
2020/06/29 08:14:25.000  -2191126.4661   5198845.9743   2965369.3970   2  22   0.5669   0.9804   0.5038  -0.6293   0.5869  -0.4101   0.00    1.4
2020/06/29 08:14:25.500  -2191126.4400   5198845.8905   2965369.4215   2  22   0.5669   0.9803   0.5038  -0.6293   0.5868  -0.4101   0.50    1.4
2020/06/29 08:14:26.000  -2191126.3774   5198845.9423   2965369.3953   2  22   0.5669   0.9803   0.5038  -0.6293   0.5868  -0.4101   0.00    1.4
2020/06/29 08:14:26.500  -2191126.4169   5198846.0992   2965369.4848   2  22   0.5669   0.9803   0.5038  -0.6292   0.5868  -0.4101   0.50    1.5
2020/06/29 08:14:27.000  -2191126.3432   5198846.1240   2965369.6106   2  22   0.5669   0.9802   0.5037  -0.6292   0.5868  -0.4101   0.00    1.4
2020/06/29 08:14:27.500  -2191126.3207   5198846.1176   2965369.4959   2  22   0.5669   0.9802   0.5037  -0.6292   0.5867  -0.4100   0.50    1.3
2020/06/29 08:14:28.000  -2191126.3008   5198846.2315   2965369.5570   2  22   0.5669   0.9802   0.5037  -0.6292   0.5867  -0.4100   0.00    1.1
2020/06/29 08:14:28.500  -2191126.3687   5198846.3062   2965369.5595   2  22   0.5669   0.9802   0.5037  -0.6292   0.5867  -0.4100   0.50    1.3
2020/06/29 08:14:29.000  -2191126.3426   5198846.3260   2965369.6344   2  22   0.5669   0.9801   0.5037  -0.6292   0.5866  -0.4100   0.00    1.1
2020/06/29 08:14:29.500  -2191126.5080   5198846.5354   2965369.6977   2  22   0.5669   0.9801   0.5036  -0.6292   0.5866  -0.4100   0.50    1.4
2020/06/29 08:14:30.000  -2191126.4363   5198846.6240   2965369.6475   2  22   0.5669   0.9801   0.5036  -0.6292   0.5866  -0.4100   0.00    1.2
2020/06/29 08:14:30.500  -2191126.4843   5198846.6413   2965369.6609   2  22   0.5669   0.9800   0.5036  -0.6291   0.5865  -0.4099   0.50    1.4
2020/06/29 08:14:31.000  -2191126.5698   5198846.6425   2965369.6785   2  22   0.5669   0.9800   0.5036  -0.6291   0.5865  -0.4099   0.00    1.3
2020/06/29 08:14:31.500  -2191126.5442   5198846.4815   2965369.7368   2  22   0.5669   0.9800   0.5036  -0.6291   0.5865  -0.4099   0.50    1.5
2020/06/29 08:14:32.000  -2191126.7089   5198846.8731   2965369.8974   2  22   0.5669   0.9800   0.5036  -0.6291   0.5864  -0.4099   0.00    2.0
2020/06/29 08:14:32.500  -2191126.7228   5198846.9307   2965369.8834   2  22   0.5669   0.9799   0.5035  -0.6291   0.5864  -0.4099   0.50    1.9
2020/06/29 08:14:33.000  -2191126.7285   5198847.0813   2965369.9238   2  22   0.5669   0.9799   0.5035  -0.6291   0.5864  -0.4099   0.00    1.7
2020/06/29 08:14:33.500  -2191126.7077   5198847.1014   2965369.8517   2  22   0.5669   0.9799   0.5035  -0.6291   0.5864  -0.4098   0.50    1.6
2020/06/29 08:14:34.000  -2191126.8599   5198847.1757   2965370.0408   2  22   0.5669   0.9798   0.5035  -0.6291   0.5863  -0.4098   0.00    2.5
2020/06/29 08:14:34.500  -2191126.9360   5198847.3002   2965370.0957   2  22   0.5669   0.9798   0.5035  -0.6290   0.5863  -0.4098   0.50    2.8
2020/06/29 08:14:35.000  -2191127.7323   5198847.7388   2965370.5696   1  22   0.0087   0.0148   0.0102  -0.0098   0.0099  -0.0073   0.00    4.1
2020/06/29 08:14:35.500  -2191127.7310   5198847.7372   2965370.5676   1  22   0.0087   0.0149   0.0102  -0.0099   0.0099  -0.0074   0.50    5.2
2020/06/29 08:14:36.000  -2191126.9111   5198846.8592   2965370.0228   2  22   0.5669   0.9797   0.5034  -0.6290   0.5862  -0.4097   0.00    3.0
2020/06/29 08:14:36.500  -2191126.8965   5198847.0261   2965370.0652   2  22   0.5669   0.9797   0.5034  -0.6290   0.5862  -0.4097   0.50    2.5
2020/06/29 08:14:37.000  -2191126.9175   5198847.1847   2965370.0058   2  22   0.5669   0.9797   0.5034  -0.6290   0.5861  -0.4097   0.00    2.8
2020/06/29 08:14:37.500  -2191126.8490   5198847.0022   2965370.0010   2  22   0.5669   0.9796   0.5033  -0.6290   0.5861  -0.4097   0.50    2.9
2020/06/29 08:14:38.000  -2191126.5870   5198846.7453   2965369.8440   2  22   0.5669   0.9796   0.5033  -0.6290   0.5861  -0.4097   0.00    1.7
2020/06/29 08:14:38.500  -2191126.5641   5198846.6569   2965369.8565   2  22   0.5669   0.9796   0.5033  -0.6289   0.5861  -0.4097   0.50    1.5
2020/06/29 08:14:39.000  -2191126.6322   5198846.6573   2965369.7345   2  22   0.5669   0.9796   0.5033  -0.6289   0.5860  -0.4096   0.00    1.9
2020/06/29 08:14:39.500  -2191126.6124   5198846.6120   2965369.8082   2  22   0.5669   0.9795   0.5033  -0.6289   0.5860  -0.4096   0.50    1.9
2020/06/29 08:14:40.000  -2191126.5846   5198846.4648   2965369.7150   2  22   0.5669   0.9795   0.5032  -0.6289   0.5860  -0.4096   0.00    1.7
2020/06/29 08:14:40.500  -2191126.6298   5198846.5297   2965369.7412   2  22   0.5669   0.9795   0.5032  -0.6289   0.5859  -0.4096   0.50    1.9
2020/06/29 08:14:41.000  -2191126.7412   5198846.7927   2965369.9221   2  22   0.5669   0.9794   0.5032  -0.6289   0.5859  -0.4096   0.00    2.0
2020/06/29 08:14:41.500  -2191126.6902   5198846.7348   2965369.9421   2  22   0.5669   0.9794   0.5032  -0.6289   0.5859  -0.4095   0.50    2.2
2020/06/29 08:14:42.000  -2191126.4804   5198846.6752   2965369.9000   2  22   0.5669   0.9794   0.5032  -0.6289   0.5858  -0.4095   0.00    1.2
2020/06/29 08:14:42.500  -2191126.5104   5198846.7272   2965369.8840   2  22   0.5669   0.9794   0.5031  -0.6288   0.5858  -0.4095   0.50    1.2
2020/06/29 08:14:43.000  -2191126.6055   5198846.6419   2965369.8589   2  22   0.5669   0.9793   0.5031  -0.6288   0.5858  -0.4095   0.00    1.7
2020/06/29 08:14:43.500  -2191126.7585   5198846.8735   2965369.8936   2  22   0.5669   0.9793   0.5031  -0.6288   0.5858  -0.4095   0.50    2.2
2020/06/29 08:14:44.000  -2191126.7445   5198846.6683   2965369.9112   2  22   0.5669   0.9793   0.5031  -0.6288   0.5857  -0.4095   0.00    1.9
2020/06/29 08:14:44.500  -2191126.7851   5198846.8395   2965369.8314   2  22   0.5669   0.9792   0.5031  -0.6288   0.5857  -0.4094   0.50    2.2
2020/06/29 08:14:45.000  -2191126.6310   5198846.5660   2965369.8771   2  22   0.5669   0.9792   0.5031  -0.6288   0.5857  -0.4094   0.00    1.7
2020/06/29 08:14:45.500  -2191126.6131   5198846.4142   2965369.8659   2  22   0.5669   0.9792   0.5030  -0.6288   0.5856  -0.4094   0.50    1.8
2020/06/29 08:14:46.000  -2191126.6196   5198846.7406   2965369.8426   2  22   0.5669   0.9792   0.5030  -0.6288   0.5856  -0.4094   0.00    1.8
2020/06/29 08:14:46.500  -2191126.6856   5198846.8099   2965369.8694   2  22   0.5669   0.9791   0.5030  -0.6287   0.5856  -0.4094   0.50    1.8
2020/06/29 08:14:47.000  -2191126.7279   5198847.0140   2965369.9312   2  22   0.5669   0.9791   0.5030  -0.6287   0.5855  -0.4093   0.00    1.6
2020/06/29 08:14:47.500  -2191126.7159   5198846.8284   2965369.8470   2  22   0.5669   0.9791   0.5030  -0.6287   0.5855  -0.4093   0.50    2.1
2020/06/29 08:14:48.000  -2191126.7969   5198847.0743   2965369.9398   2  22   0.5669   0.9791   0.5029  -0.6287   0.5855  -0.4093   0.00    2.0
2020/06/29 08:14:48.500  -2191126.6553   5198846.9792   2965369.9203   2  22   0.5669   0.9790   0.5029  -0.6287   0.5855  -0.4093   0.50    1.5
2020/06/29 08:14:49.000  -2191126.6243   5198847.1147   2965370.0155   2  22   0.5669   0.9790   0.5029  -0.6287   0.5854  -0.4093   0.00    1.4
2020/06/29 08:14:49.500  -2191126.5204   5198846.8241   2965369.9023   2  22   0.5669   0.9790   0.5029  -0.6287   0.5854  -0.4093   0.50    1.2
2020/06/29 08:14:50.000  -2191126.6686   5198846.9526   2965369.9301   2  22   0.5669   0.9789   0.5029  -0.6287   0.5854  -0.4092   0.00    1.5
2020/06/29 08:14:50.500  -2191126.6779   5198847.1714   2965369.9654   2  22   0.5669   0.9789   0.5028  -0.6286   0.5853  -0.4092   0.50    1.4
2020/06/29 08:14:51.000  -2191126.5448   5198846.7877   2965369.9818   2  22   0.5669   0.9789   0.5028  -0.6286   0.5853  -0.4092   0.00    1.3
2020/06/29 08:14:51.500  -2191126.5447   5198846.9542   2965369.9694   2  22   0.5669   0.9789   0.5028  -0.6286   0.5853  -0.4092   0.50    1.0
2020/06/29 08:14:52.000  -2191126.6738   5198846.9353   2965369.9981   2  22   0.5669   0.9788   0.5028  -0.6286   0.5852  -0.4092   0.00    1.5
2020/06/29 08:14:52.500  -2191126.6265   5198846.8438   2965369.9540   2  22   0.5669   0.9788   0.5028  -0.6286   0.5852  -0.4091   0.50    1.6
2020/06/29 08:14:53.000  -2191126.7570   5198847.1785   2965370.0658   2  22   0.5669   0.9788   0.5027  -0.6286   0.5852  -0.4091   0.00    1.4
2020/06/29 08:14:53.500  -2191126.6869   5198847.0759   2965370.0164   2  22   0.5669   0.9787   0.5027  -0.6286   0.5851  -0.4091   0.50    1.4
2020/06/29 08:14:54.000  -2191126.7452   5198847.2556   2965369.9899   2  22   0.5669   0.9787   0.5027  -0.6286   0.5851  -0.4091   0.00    1.3
2020/06/29 08:14:54.500  -2191126.5962   5198846.9452   2965369.8898   2  22   0.5669   0.9787   0.5027  -0.6285   0.5851  -0.4091   0.50    1.1
2020/06/29 08:14:55.000  -2191126.6773   5198847.1293   2965369.9306   2  22   0.5669   0.9787   0.5027  -0.6285   0.5851  -0.4091   0.00    1.1
2020/06/29 08:14:55.500  -2191126.6546   5198847.0245   2965369.8482   2  22   0.5669   0.9786   0.5027  -0.6285   0.5850  -0.4090   0.50    1.1
2020/06/29 08:14:56.000  -2191126.6123   5198847.1356   2965369.9016   2  22   0.5669   0.9786   0.5026  -0.6285   0.5850  -0.4090   0.00    1.1
2020/06/29 08:14:56.500  -2191126.5292   5198847.0071   2965369.9181   2  22   0.5669   0.9786   0.5026  -0.6285   0.5850  -0.4090   0.50    1.1
2020/06/29 08:14:57.000  -2191126.6923   5198847.3296   2965370.0104   2  22   0.5669   0.9785   0.5026  -0.6285   0.5849  -0.4090   0.00    1.3
2020/06/29 08:14:57.500  -2191126.7352   5198847.4513   2965370.0279   2  22   0.5669   0.9785   0.5026  -0.6285   0.5849  -0.4090   0.50    1.2
2020/06/29 08:14:58.000  -2191126.6668   5198847.4031   2965370.0010   2  22   0.5669   0.9785   0.5026  -0.6285   0.5849  -0.4089   0.00    1.0
2020/06/29 08:14:58.500  -2191126.7657   5198847.5619   2965370.0022   2  22   0.5669   0.9785   0.5025  -0.6284   0.5848  -0.4089   0.50    1.2
2020/06/29 08:14:59.000  -2191126.7685   5198847.7698   2965370.1135   2  22   0.5669   0.9784   0.5025  -0.6284   0.5848  -0.4089   0.00    1.1
2020/06/29 08:14:59.500  -2191126.7611   5198847.7063   2965370.0062   2  22   0.5669   0.9784   0.5025  -0.6284   0.5848  -0.4089   0.50    1.1
2020/06/29 08:15:00.000  -2191126.7845   5198847.4915   2965370.0408   2  22   0.5669   0.9784   0.5025  -0.6284   0.5848  -0.4089   0.00    1.5
2020/06/29 08:15:00.500  -2191126.8203   5198847.5706   2965370.0493   2  22   0.5669   0.9783   0.5025  -0.6284   0.5847  -0.4089   0.50    1.4
2020/06/29 08:15:01.000  -2191126.7180   5198847.1432   2965369.9268   2  22   0.5669   0.9783   0.5024  -0.6284   0.5847  -0.4088   0.00    1.4
2020/06/29 08:15:01.500  -2191126.6550   5198847.3283   2965369.9664   2  22   0.5669   0.9783   0.5024  -0.6284   0.5847  -0.4088   0.50    1.3
2020/06/29 08:15:02.000  -2191126.6555   5198847.2514   2965369.9561   2  22   0.5669   0.9783   0.5024  -0.6284   0.5846  -0.4088   0.00    1.1
2020/06/29 08:15:02.500  -2191126.5766   5198847.1082   2965369.8911   2  22   0.5669   0.9782   0.5024  -0.6283   0.5846  -0.4088   0.50    1.1
2020/06/29 08:15:03.000  -2191126.5538   5198847.0189   2965369.9301   2  22   0.5669   0.9782   0.5024  -0.6283   0.5846  -0.4088   0.00    1.0
2020/06/29 08:15:03.500  -2191126.4405   5198846.8320   2965369.9799   2  22   0.5669   0.9782   0.5023  -0.6283   0.5845  -0.4088   0.50    1.2
2020/06/29 08:15:04.000  -2191126.5049   5198847.0612   2965369.9815   2  22   0.5669   0.9781   0.5023  -0.6283   0.5845  -0.4087   0.00    1.1
2020/06/29 08:15:04.500  -2191126.4861   5198847.0243   2965369.9404   2  22   0.5669   0.9781   0.5023  -0.6283   0.5845  -0.4087   0.50    1.3
2020/06/29 08:15:05.000  -2191126.7619   5198847.4487   2965370.0584   2  22   0.5669   0.9781   0.5023  -0.6283   0.5845  -0.4087   0.00    1.2
2020/06/29 08:15:05.500  -2191126.8215   5198847.3497   2965370.0716   2  22   0.5669   0.9781   0.5023  -0.6283   0.5844  -0.4087   0.50    1.7
2020/06/29 08:15:06.000  -2191126.7213   5198847.2672   2965369.9958   2  22   0.5669   0.9780   0.5022  -0.6283   0.5844  -0.4087   0.00    1.0
2020/06/29 08:15:06.500  -2191126.7873   5198847.2825   2965369.9385   2  22   0.5669   0.9780   0.5022  -0.6282   0.5844  -0.4086   0.50    1.2
2020/06/29 08:15:07.000  -2191126.8463   5198847.3925   2965370.0771   2  22   0.5669   0.9780   0.5022  -0.6282   0.5843  -0.4086   0.00    1.9
2020/06/29 08:15:07.500  -2191126.9823   5198847.5326   2965370.1053   2  22   0.5669   0.9779   0.5022  -0.6282   0.5843  -0.4086   0.50    2.3
2020/06/29 08:15:08.000  -2191126.9386   5198847.0025   2965369.9364   2  22   0.5669   0.9779   0.5022  -0.6282   0.5843  -0.4086   0.00    2.7
2020/06/29 08:15:08.500  -2191127.7258   5198847.7351   2965370.5686   1  22   0.0087   0.0149   0.0102  -0.0098   0.0099  -0.0073   0.50    3.8
2020/06/29 08:15:09.000  -2191127.7264   5198847.7372   2965370.5698   1  22   0.0087   0.0148   0.0101  -0.0098   0.0098  -0.0073   0.00    3.8
2020/06/29 08:15:09.500  -2191127.7255   5198847.7380   2965370.5672   1  22   0.0087   0.0149   0.0102  -0.0098   0.0099  -0.0073   0.50    3.7
2020/06/29 08:15:10.000  -2191126.8678   5198847.0007   2965370.0697   2  22   0.5669   0.9778   0.5021  -0.6281   0.5841  -0.4085   0.00    2.7
2020/06/29 08:15:10.500  -2191126.8579   5198846.9656   2965370.1081   2  22   0.5669   0.9778   0.5021  -0.6281   0.5841  -0.4085   0.50    2.7
2020/06/29 08:15:11.000  -2191126.9010   5198847.1787   2965370.2570   2  22   0.5669   0.9777   0.5021  -0.6281   0.5841  -0.4085   0.00    2.1
2020/06/29 08:15:11.500  -2191126.8758   5198846.9547   2965370.1638   2  22   0.5669   0.9777   0.5020  -0.6281   0.5841  -0.4085   0.50    2.2
2020/06/29 08:15:12.000  -2191127.7234   5198847.7316   2965370.5660   1  22   0.0087   0.0148   0.0101  -0.0098   0.0098  -0.0073   0.00    3.7
2020/06/29 08:15:12.500  -2191127.7252   5198847.7353   2965370.5664   1  22   0.0087   0.0149   0.0102  -0.0098   0.0099  -0.0073   0.50    3.9
2020/06/29 08:15:13.000  -2191127.7251   5198847.7357   2965370.5652   1  22   0.0087   0.0148   0.0101  -0.0098   0.0098  -0.0073   0.00    4.0
2020/06/29 08:15:13.500  -2191127.7256   5198847.7348   2965370.5645   1  22   0.0087   0.0149   0.0102  -0.0098   0.0099  -0.0073   0.50    4.0
2020/06/29 08:15:14.000  -2191127.7237   5198847.7304   2965370.5613   1  22   0.0087   0.0148   0.0101  -0.0098   0.0098  -0.0073   0.00    3.3
2020/06/29 08:15:14.500  -2191127.7254   5198847.7351   2965370.5631   1  22   0.0087   0.0149   0.0102  -0.0098   0.0099  -0.0073   0.50    3.2
2020/06/29 08:15:15.000  -2191126.8229   5198846.8503   2965370.2784   2  22   0.5669   0.9775   0.5019  -0.6280   0.5838  -0.4083   0.00    1.7
2020/06/29 08:15:19.500  -2191126.6403   5198846.6973   2965370.4722   2  22   0.5669   0.9773   0.5017  -0.6279   0.5836  -0.4082   0.50    1.7
2020/06/29 08:15:20.000  -2191126.6862   5198846.8161   2965370.4495   2  22   0.5669   0.9772   0.5017  -0.6279   0.5835  -0.4081   0.00    1.0
2020/06/29 08:15:20.500  -2191126.6557   5198846.7433   2965370.4648   2  22   0.5669   0.9772   0.5017  -0.6279   0.5835  -0.4081   0.50    1.4
2020/06/29 08:15:21.000  -2191126.8298   5198847.0913   2965370.6725   2  22   0.5669   0.9772   0.5017  -0.6279   0.5835  -0.4081   0.00    1.0
2020/06/29 08:15:21.500  -2191126.8652   5198847.1694   2965370.6999   2  22   0.5669   0.9772   0.5017  -0.6279   0.5835  -0.4081   0.50    1.1
2020/06/29 08:15:22.000  -2191126.8059   5198847.0874   2965370.6461   2  22   0.5669   0.9771   0.5016  -0.6278   0.5834  -0.4081   0.00    1.2
2020/06/29 08:15:22.500  -2191126.7722   5198847.1509   2965370.6764   2  22   0.5669   0.9771   0.5016  -0.6278   0.5834  -0.4081   0.50    1.3
2020/06/29 08:15:23.000  -2191126.7441   5198846.9506   2965370.6858   2  22   0.5669   0.9771   0.5016  -0.6278   0.5834  -0.4080   0.00    1.3
2020/06/29 08:15:23.500  -2191126.8628   5198847.1136   2965370.6459   2  22   0.5669   0.9770   0.5016  -0.6278   0.5833  -0.4080   0.50    1.1
2020/06/29 08:15:24.000  -2191126.8365   5198846.8079   2965370.4593   2  21   0.6338   1.0292   0.5313  -0.6970   0.6301  -0.4649   0.00    1.7
2020/06/29 08:15:24.500  -2191126.8496   5198846.9138   2965370.5315   2  22   0.5669   0.9770   0.5015  -0.6278   0.5833  -0.4080   0.50    1.1
2020/06/29 08:15:25.000  -2191126.8433   5198847.0037   2965370.5895   2  22   0.5669   0.9770   0.5015  -0.6278   0.5832  -0.4080   0.00    1.0
2020/06/29 08:15:25.500  -2191126.9025   5198847.1436   2965370.5413   2  22   0.5669   0.9769   0.5015  -0.6278   0.5832  -0.4079   0.50    1.5
2020/06/29 08:15:26.000  -2191126.7654   5198847.1236   2965370.5125   2  22   0.5669   0.9769   0.5015  -0.6277   0.5832  -0.4079   0.00    1.2
2020/06/29 08:15:26.500  -2191126.7691   5198847.0155   2965370.5315   2  22   0.5669   0.9769   0.5015  -0.6277   0.5831  -0.4079   0.50    1.0
2020/06/29 08:15:27.000  -2191126.8083   5198847.1791   2965370.6388   2  21   0.6338   1.0290   0.5312  -0.6969   0.6299  -0.4648   0.00    1.0
2020/06/29 08:15:27.500  -2191126.7063   5198846.9865   2965370.5056   2  21   0.6338   1.0290   0.5312  -0.6969   0.6298  -0.4648   0.50    1.1
2020/06/29 08:15:28.000  -2191126.8489   5198847.3840   2965370.6627   2  22   0.5670   0.9768   0.5014  -0.6277   0.5831  -0.4079   0.00    1.0
2020/06/29 08:15:28.500  -2191126.7905   5198847.3127   2965370.6884   2  22   0.5670   0.9768   0.5014  -0.6277   0.5830  -0.4078   0.50    1.2
2020/06/29 08:15:29.000  -2191126.9931   5198847.7115   2965370.8475   2  22   0.5670   0.9767   0.5014  -0.6277   0.5830  -0.4078   0.00    1.1
2020/06/29 08:15:29.500  -2191127.0075   5198847.7161   2965370.8476   2  22   0.5670   0.9767   0.5014  -0.6276   0.5830  -0.4078   0.50    1.1
2020/06/29 08:15:30.000  -2191126.8999   5198847.3723   2965370.7060   2  22   0.5670   0.9767   0.5013  -0.6276   0.5829  -0.4078   0.00    1.2
2020/06/29 08:15:30.500  -2191126.8444   5198847.3357   2965370.6949   2  22   0.5670   0.9766   0.5013  -0.6276   0.5829  -0.4078   0.50    1.1
2020/06/29 08:15:39.500  -2191127.7233   5198847.7340   2965370.5626   1  23   0.0087   0.0148   0.0101  -0.0098   0.0098  -0.0073   0.50    9.1
2020/06/29 08:15:40.000  -2191127.7220   5198847.7305   2965370.5638   1  23   0.0087   0.0148   0.0101  -0.0098   0.0098  -0.0072   0.00    4.6
2020/06/29 08:15:40.500  -2191127.7221   5198847.7306   2965370.5645   1  23   0.0087   0.0148   0.0101  -0.0098   0.0098  -0.0073   0.50    5.2
2020/06/29 08:15:41.000  -2191127.7226   5198847.7327   2965370.5659   1  23   0.0087   0.0148   0.0101  -0.0098   0.0098  -0.0072   0.00    5.3
2020/06/29 08:15:41.500  -2191127.7218   5198847.7273   2965370.5595   1  23   0.0087   0.0148   0.0101  -0.0098   0.0098  -0.0073   0.50    7.7
2020/06/29 08:15:42.000  -2191127.7221   5198847.7297   2965370.5615   1  23   0.0087   0.0148   0.0101  -0.0098   0.0098  -0.0072   0.00   15.1
2020/06/29 08:15:42.500  -2191127.7220   5198847.7296   2965370.5611   1  23   0.0087   0.0148   0.0101  -0.0098   0.0098  -0.0073   0.50   22.8
2020/06/29 08:15:43.000  -2191127.7223   5198847.7300   2965370.5643   1  23   0.0087   0.0148   0.0101  -0.0098   0.0098  -0.0072   0.00   19.9
2020/06/29 08:15:43.500  -2191127.7198   5198847.7271   2965370.5586   1  23   0.0087   0.0148   0.0101  -0.0098   0.0098  -0.0073   0.50   16.3
2020/06/29 08:15:44.000  -2191127.7246   5198847.7331   2965370.5653   1  23   0.0087   0.0148   0.0101  -0.0098   0.0098  -0.0072   0.00    7.8
2020/06/29 08:15:44.500  -2191127.7227   5198847.7304   2965370.5604   1  23   0.0087   0.0148   0.0101  -0.0098   0.0098  -0.0073   0.50    5.4
2020/06/29 08:15:45.000  -2191127.7253   5198847.7359   2965370.5674   1  23   0.0087   0.0148   0.0101  -0.0098   0.0098  -0.0072   0.00    8.2
2020/06/29 08:15:45.500  -2191127.7236   5198847.7322   2965370.5625   1  23   0.0087   0.0148   0.0101  -0.0098   0.0098  -0.0073   0.50    9.6
2020/06/29 08:15:46.000  -2191127.7228   5198847.7329   2965370.5642   1  23   0.0087   0.0148   0.0101  -0.0098   0.0098  -0.0072   0.00    6.0
2020/06/29 08:15:46.500  -2191127.7215   5198847.7333   2965370.5631   1  23   0.0087   0.0148   0.0101  -0.0098   0.0098  -0.0073   0.50    4.4
2020/06/29 08:15:47.000  -2191127.7236   5198847.7322   2965370.5639   1  23   0.0087   0.0148   0.0101  -0.0098   0.0098  -0.0072   0.00    7.4
2020/06/29 08:15:47.500  -2191127.7250   5198847.7340   2965370.5626   1  23   0.0087   0.0148   0.0101  -0.0098   0.0098  -0.0073   0.50    5.4
2020/06/29 08:15:48.000  -2191127.7233   5198847.7321   2965370.5627   1  23   0.0087   0.0148   0.0101  -0.0098   0.0098  -0.0072   0.00    5.5
2020/06/29 08:15:48.500  -2191127.7229   5198847.7337   2965370.5652   1  23   0.0087   0.0148   0.0101  -0.0098   0.0098  -0.0073   0.50    5.2
2020/06/29 08:15:49.000  -2191127.7236   5198847.7322   2965370.5628   1  23   0.0087   0.0148   0.0101  -0.0098   0.0097  -0.0072   0.00    4.1
2020/06/29 08:15:49.500  -2191127.7239   5198847.7342   2965370.5631   1  23   0.0087   0.0148   0.0101  -0.0098   0.0098  -0.0072   0.50    4.4
2020/06/29 08:15:50.000  -2191127.7239   5198847.7319   2965370.5637   1  23   0.0087   0.0148   0.0101  -0.0098   0.0097  -0.0072   0.00    4.3
2020/06/29 08:15:50.500  -2191127.7239   5198847.7319   2965370.5634   1  23   0.0087   0.0148   0.0101  -0.0098   0.0098  -0.0072   0.50    6.8
2020/06/29 08:15:51.000  -2191127.7234   5198847.7334   2965370.5639   1  23   0.0087   0.0148   0.0101  -0.0098   0.0097  -0.0072   0.00    7.9
2020/06/29 08:15:51.500  -2191127.7230   5198847.7295   2965370.5626   1  23   0.0087   0.0148   0.0101  -0.0098   0.0098  -0.0072   0.50   11.1
2020/06/29 08:15:52.000  -2191127.7232   5198847.7314   2965370.5604   1  23   0.0087   0.0148   0.0101  -0.0098   0.0097  -0.0072   0.00    7.7
2020/06/29 08:15:52.500  -2191127.7215   5198847.7282   2965370.5585   1  23   0.0087   0.0148   0.0101  -0.0098   0.0098  -0.0072   0.50    9.0
2020/06/29 08:15:53.000  -2191127.7202   5198847.7262   2965370.5596   1  23   0.0087   0.0148   0.0101  -0.0098   0.0097  -0.0072   0.00   10.9
2020/06/29 08:15:53.500  -2191127.7204   5198847.7260   2965370.5583   1  23   0.0087   0.0148   0.0101  -0.0098   0.0098  -0.0072   0.50   10.4
2020/06/29 08:15:54.000  -2191127.7229   5198847.7308   2965370.5629   1  23   0.0087   0.0148   0.0100  -0.0098   0.0097  -0.0072   0.00    5.0
2020/06/29 08:15:54.500  -2191127.7204   5198847.7248   2965370.5608   1  23   0.0087   0.0148   0.0101  -0.0098   0.0098  -0.0072   0.50    5.4
2020/06/29 08:15:55.000  -2191127.7225   5198847.7311   2965370.5611   1  23   0.0087   0.0148   0.0100  -0.0098   0.0097  -0.0072   0.00    4.8
2020/06/29 08:15:55.500  -2191127.7201   5198847.7251   2965370.5600   1  23   0.0087   0.0148   0.0101  -0.0098   0.0098  -0.0072   0.50    3.4
2020/06/29 08:15:56.000  -2191127.7229   5198847.7298   2965370.5608   1  23   0.0087   0.0148   0.0100  -0.0098   0.0097  -0.0072   0.00    5.1
2020/06/29 08:15:56.500  -2191127.7215   5198847.7286   2965370.5609   1  23   0.0087   0.0148   0.0101  -0.0098   0.0098  -0.0072   0.50    5.3
2020/06/29 08:15:57.000  -2191127.7216   5198847.7293   2965370.5603   1  23   0.0087   0.0148   0.0100  -0.0098   0.0097  -0.0072   0.00    5.8
2020/06/29 08:15:57.500  -2191127.7213   5198847.7314   2965370.5620   1  23   0.0087   0.0148   0.0101  -0.0098   0.0098  -0.0072   0.50    6.7
2020/06/29 08:15:58.000  -2191127.7211   5198847.7292   2965370.5606   1  23   0.0087   0.0148   0.0100  -0.0098   0.0097  -0.0072   0.00    3.4
2020/06/29 08:15:58.500  -2191127.6952   5198848.0209   2965371.0217   2  23   0.5251   0.9104   0.4900  -0.5642   0.5502  -0.3794   0.50    2.9
2020/06/29 08:15:59.000  -2191127.7367   5198848.2180   2965371.0291   2  23   0.5251   0.9104   0.4900  -0.5642   0.5501  -0.3794   0.00    2.6
2020/06/29 08:15:59.500  -2191127.6708   5198848.1705   2965371.0386   2  23   0.5251   0.9103   0.4900  -0.5642   0.5501  -0.3793   0.50    2.5
2020/06/29 08:16:00.000  -2191127.7274   5198848.3684   2965371.1971   2  23   0.5251   0.9103   0.4900  -0.5642   0.5501  -0.3793   0.00    1.7
2020/06/29 08:16:00.500  -2191127.7324   5198848.3843   2965371.1994   2  23   0.5251   0.9103   0.4900  -0.5641   0.5500  -0.3793   0.50    1.7
2020/06/29 08:16:01.000  -2191127.7413   5198848.4625   2965371.1518   2  23   0.5251   0.9102   0.4899  -0.5641   0.5500  -0.3793   0.00    2.0
2020/06/29 08:16:01.500  -2191127.7730   5198848.5399   2965371.1186   2  23   0.5251   0.9102   0.4899  -0.5641   0.5500  -0.3793   0.50    2.6
2020/06/29 08:16:02.000  -2191127.8525   5198848.6306   2965371.2656   2  23   0.5251   0.9102   0.4899  -0.5641   0.5500  -0.3792   0.00    1.5
2020/06/29 08:16:02.500  -2191127.9381   5198848.7272   2965371.2798   2  23   0.5251   0.9101   0.4899  -0.5640   0.5499  -0.3792   0.50    1.7
2020/06/29 08:16:03.000  -2191127.9595   5198848.6925   2965371.2203   2  23   0.5251   0.9101   0.4899  -0.5640   0.5499  -0.3792   0.00    2.7
2020/06/29 08:16:03.500  -2191128.0280   5198848.7284   2965371.2478   2  23   0.5250   0.9101   0.4898  -0.5640   0.5499  -0.3792   0.50    2.0
2020/06/29 08:16:04.000  -2191127.7221   5198847.7335   2965370.5626   1  23   0.0087   0.0147   0.0100  -0.0098   0.0097  -0.0072   0.00    3.7
2020/06/29 08:16:04.500  -2191127.7230   5198847.7331   2965370.5655   1  23   0.0087   0.0148   0.0101  -0.0098   0.0097  -0.0072   0.50    4.3
2020/06/29 08:16:05.000  -2191127.7210   5198847.7313   2965370.5642   1  23   0.0087   0.0147   0.0100  -0.0098   0.0097  -0.0072   0.00    5.3
2020/06/29 08:16:05.500  -2191127.7229   5198847.7320   2965370.5655   1  23   0.0087   0.0148   0.0101  -0.0098   0.0097  -0.0072   0.50    3.5
2020/06/29 08:16:06.000  -2191127.7224   5198847.7311   2965370.5624   1  23   0.0087   0.0147   0.0100  -0.0098   0.0097  -0.0072   0.00    4.3
2020/06/29 08:16:06.500  -2191127.7180   5198847.7238   2965370.5590   1  23   0.0087   0.0148   0.0101  -0.0098   0.0097  -0.0072   0.50    3.2
2020/06/29 08:16:07.000  -2191127.7213   5198847.7300   2965370.5626   1  23   0.0087   0.0147   0.0100  -0.0098   0.0097  -0.0072   0.00    3.4
2020/06/29 08:16:07.500  -2191127.7206   5198847.7271   2965370.5613   1  23   0.0087   0.0148   0.0101  -0.0098   0.0097  -0.0072   0.50    4.1
2020/06/29 08:16:08.000  -2191127.7207   5198847.7285   2965370.5614   1  23   0.0087   0.0147   0.0100  -0.0098   0.0097  -0.0072   0.00   10.9
2020/06/29 08:16:08.500  -2191127.7234   5198847.7298   2965370.5635   1  23   0.0087   0.0148   0.0101  -0.0098   0.0097  -0.0072   0.50   15.0
2020/06/29 08:16:09.000  -2191127.7213   5198847.7302   2965370.5621   1  23   0.0087   0.0147   0.0100  -0.0098   0.0097  -0.0072   0.00    4.0
2020/06/29 08:16:09.500  -2191127.7210   5198847.7275   2965370.5615   1  23   0.0087   0.0148   0.0101  -0.0098   0.0097  -0.0072   0.50    5.0
2020/06/29 08:16:10.000  -2191127.7204   5198847.7264   2965370.5615   1  23   0.0087   0.0147   0.0100  -0.0098   0.0097  -0.0072   0.00    6.7
2020/06/29 08:16:10.500  -2191127.7217   5198847.7275   2965370.5630   1  23   0.0087   0.0148   0.0101  -0.0098   0.0097  -0.0072   0.50    7.4
2020/06/29 08:16:11.000  -2191127.7199   5198847.7288   2965370.5642   1  23   0.0087   0.0147   0.0100  -0.0098   0.0097  -0.0072   0.00    9.2
2020/06/29 08:16:11.500  -2191127.7200   5198847.7264   2965370.5624   1  23   0.0087   0.0148   0.0101  -0.0098   0.0097  -0.0072   0.50   10.7
2020/06/29 08:16:12.000  -2191127.7201   5198847.7291   2965370.5613   1  23   0.0087   0.0147   0.0100  -0.0098   0.0097  -0.0072   0.00    3.8
2020/06/29 08:16:12.500  -2191127.8992   5198847.9984   2965371.0215   2  23   0.5249   0.9094   0.4895  -0.5636   0.5493  -0.3788   0.50    3.0
2020/06/29 08:16:13.000  -2191127.7209   5198847.7273   2965370.5634   1  23   0.0087   0.0147   0.0100  -0.0098   0.0097  -0.0072   0.00    4.0
2020/06/29 08:16:13.500  -2191127.7223   5198847.7271   2965370.5613   1  23   0.0087   0.0148   0.0101  -0.0098   0.0097  -0.0072   0.50    5.4
2020/06/29 08:16:14.000  -2191127.7217   5198847.7297   2965370.5636   1  23   0.0087   0.0147   0.0100  -0.0098   0.0097  -0.0072   0.00    6.9
2020/06/29 08:16:14.500  -2191127.7227   5198847.7304   2965370.5634   1  23   0.0087   0.0148   0.0101  -0.0098   0.0097  -0.0072   0.50    4.5
2020/06/29 08:16:15.000  -2191127.7220   5198847.7272   2965370.5619   1  23   0.0087   0.0147   0.0100  -0.0098   0.0097  -0.0072   0.00    6.8
2020/06/29 08:16:15.500  -2191127.7248   5198847.7344   2965370.5626   1  23   0.0087   0.0148   0.0101  -0.0098   0.0097  -0.0072   0.50    5.6
2020/06/29 08:16:16.000  -2191127.7197   5198847.7324   2965370.5613   1  23   0.0087   0.0147   0.0100  -0.0098   0.0097  -0.0072   0.00    3.8
2020/06/29 08:16:16.500  -2191127.7203   5198847.7319   2965370.5629   1  23   0.0087   0.0148   0.0101  -0.0098   0.0097  -0.0072   0.50    3.2
2020/06/29 08:16:17.000  -2191127.8229   5198847.9525   2965371.0607   2  23   0.5249   0.9091   0.4894  -0.5634   0.5490  -0.3786   0.00    2.7
2020/06/29 08:16:17.500  -2191127.9057   5198848.1683   2965371.1270   2  23   0.5249   0.9091   0.4893  -0.5634   0.5490  -0.3786   0.50    2.6
2020/06/29 08:16:18.000  -2191127.7225   5198847.7286   2965370.5598   1  23   0.0087   0.0147   0.0100  -0.0098   0.0097  -0.0072   0.00    3.5
2020/06/29 08:16:18.500  -2191127.7202   5198847.7279   2965370.5614   1  23   0.0087   0.0148   0.0100  -0.0098   0.0097  -0.0072   0.50    3.3
2020/06/29 08:16:19.000  -2191127.5897   5198847.6548   2965370.8896   2  23   0.5248   0.9090   0.4893  -0.5633   0.5489  -0.3786   0.00    2.8
2020/06/29 08:16:19.500  -2191127.7217   5198847.7282   2965370.5627   1  23   0.0087   0.0148   0.0100  -0.0098   0.0097  -0.0072   0.50    3.6
2020/06/29 08:16:20.000  -2191127.5796   5198847.2890   2965370.7182   2  23   0.5248   0.9089   0.4893  -0.5632   0.5488  -0.3785   0.00    2.7
2020/06/29 08:16:20.500  -2191127.5088   5198847.2099   2965370.7199   2  23   0.5248   0.9089   0.4892  -0.5632   0.5488  -0.3785   0.50    2.3
2020/06/29 08:16:21.000  -2191127.4160   5198847.2573   2965370.7330   2  23   0.5248   0.9088   0.4892  -0.5632   0.5488  -0.3785   0.00    2.5
2020/06/29 08:16:21.500  -2191127.4669   5198847.2812   2965370.7638   2  23   0.5248   0.9088   0.4892  -0.5632   0.5487  -0.3784   0.50    1.7
2020/06/29 08:16:22.000  -2191127.4415   5198847.3823   2965370.8510   2  23   0.5248   0.9088   0.4892  -0.5632   0.5487  -0.3784   0.00    1.4
2020/06/29 08:16:22.500  -2191127.3146   5198847.2400   2965370.8406   2  23   0.5248   0.9087   0.4892  -0.5631   0.5487  -0.3784   0.50    1.0
2020/06/29 08:16:23.000  -2191127.2830   5198847.5697   2965371.0400   2  23   0.5248   0.9087   0.4891  -0.5631   0.5486  -0.3784   0.00    1.4
2020/06/29 08:16:23.500  -2191127.2791   5198847.5197   2965370.9523   2  23   0.5248   0.9086   0.4891  -0.5631   0.5486  -0.3784   0.50    1.5
2020/06/29 08:16:24.000  -2191127.3704   5198847.1987   2965370.8094   2  23   0.5248   0.9086   0.4891  -0.5631   0.5486  -0.3783   0.00    1.6
2020/06/29 08:16:24.500  -2191127.2887   5198847.0733   2965370.6703   2  23   0.5248   0.9086   0.4891  -0.5630   0.5486  -0.3783   0.50    1.8
2020/06/29 08:16:25.000  -2191127.3669   5198846.9682   2965370.6468   2  23   0.5247   0.9085   0.4891  -0.5630   0.5485  -0.3783   0.00    1.3
2020/06/29 08:16:25.500  -2191127.3667   5198847.1093   2965370.6494   2  23   0.5247   0.9085   0.4891  -0.5630   0.5485  -0.3783   0.50    1.7
2020/06/29 08:16:26.000  -2191127.3827   5198847.0465   2965370.6032   2  23   0.5247   0.9085   0.4890  -0.5630   0.5485  -0.3783   0.00    2.7
2020/06/29 08:16:26.500  -2191127.7247   5198847.7336   2965370.5636   1  23   0.0087   0.0148   0.0100  -0.0098   0.0097  -0.0072   0.50    3.5
2020/06/29 08:16:27.000  -2191127.3991   5198847.0253   2965370.5116   2  23   0.5247   0.9084   0.4890  -0.5629   0.5484  -0.3782   0.00    2.7
2020/06/29 08:16:27.500  -2191127.7226   5198847.7279   2965370.5643   1  23   0.0087   0.0148   0.0100  -0.0098   0.0097  -0.0072   0.50    3.1
2020/06/29 08:16:28.000  -2191127.4020   5198847.0701   2965370.6456   2  23   0.5247   0.9083   0.4890  -0.5629   0.5483  -0.3782   0.00    2.1
2020/06/29 08:16:28.500  -2191127.3653   5198846.9603   2965370.5409   2  23   0.5247   0.9083   0.4889  -0.5629   0.5483  -0.3782   0.50    1.7
2020/06/29 08:16:29.000  -2191127.3869   5198847.0874   2965370.5838   2  23   0.5247   0.9083   0.4889  -0.5628   0.5483  -0.3781   0.00    1.4
2020/06/29 08:16:29.500  -2191127.3378   5198846.9248   2965370.4330   2  23   0.5247   0.9082   0.4889  -0.5628   0.5482  -0.3781   0.50    1.5
2020/06/29 08:16:30.000  -2191127.7209   5198847.7278   2965370.5615   1  23   0.0087   0.0147   0.0100  -0.0098   0.0097  -0.0072   0.00    3.4
2020/06/29 08:16:30.500  -2191127.4171   5198846.8806   2965370.5269   2  23   0.5247   0.9082   0.4889  -0.5628   0.5482  -0.3781   0.50    2.1
2020/06/29 08:16:31.000  -2191127.7225   5198847.7314   2965370.5615   1  23   0.0087   0.0147   0.0100  -0.0098   0.0097  -0.0072   0.00    4.7
2020/06/29 08:16:31.500  -2191127.7199   5198847.7265   2965370.5615   1  23   0.0087   0.0148   0.0100  -0.0098   0.0097  -0.0072   0.50    4.3
2020/06/29 08:16:32.000  -2191127.7220   5198847.7284   2965370.5622   1  23   0.0087   0.0147   0.0100  -0.0098   0.0097  -0.0072   0.00   12.2
2020/06/29 08:16:32.500  -2191127.7218   5198847.7277   2965370.5618   1  23   0.0087   0.0148   0.0100  -0.0098   0.0097  -0.0072   0.50    6.2
2020/06/29 08:16:33.000  -2191127.7245   5198847.7308   2965370.5636   1  23   0.0087   0.0147   0.0100  -0.0098   0.0097  -0.0072   0.00    6.9
2020/06/29 08:16:33.500  -2191127.7232   5198847.7294   2965370.5625   1  23   0.0087   0.0148   0.0100  -0.0098   0.0097  -0.0072   0.50    6.6
2020/06/29 08:16:34.000  -2191127.7229   5198847.7300   2965370.5627   1  23   0.0087   0.0147   0.0100  -0.0098   0.0097  -0.0072   0.00    5.5
2020/06/29 08:16:34.500  -2191127.7237   5198847.7284   2965370.5645   1  23   0.0087   0.0148   0.0100  -0.0098   0.0097  -0.0072   0.50    5.2
2020/06/29 08:16:35.000  -2191127.7233   5198847.7315   2965370.5662   1  23   0.0087   0.0147   0.0100  -0.0098   0.0096  -0.0072   0.00    8.5
2020/06/29 08:16:35.500  -2191127.7226   5198847.7323   2965370.5628   1  23   0.0087   0.0148   0.0100  -0.0098   0.0097  -0.0072   0.50    9.0
2020/06/29 08:16:36.000  -2191127.7230   5198847.7304   2965370.5626   1  23   0.0087   0.0147   0.0100  -0.0098   0.0096  -0.0072   0.00    4.8
2020/06/29 08:16:36.500  -2191127.7218   5198847.7228   2965370.5635   1  23   0.0087   0.0148   0.0100  -0.0098   0.0097  -0.0072   0.50    5.7
2020/06/29 08:16:37.000  -2191127.7225   5198847.7282   2965370.5629   1  23   0.0087   0.0147   0.0100  -0.0098   0.0096  -0.0072   0.00    9.2
2020/06/29 08:16:37.500  -2191127.7233   5198847.7309   2965370.5639   1  23   0.0087   0.0148   0.0100  -0.0098   0.0097  -0.0072   0.50    6.5
2020/06/29 08:16:38.000  -2191127.7237   5198847.7311   2965370.5645   1  23   0.0087   0.0147   0.0100  -0.0098   0.0096  -0.0072   0.00    5.4
2020/06/29 08:16:38.500  -2191127.7231   5198847.7277   2965370.5634   1  23   0.0087   0.0148   0.0100  -0.0098   0.0097  -0.0072   0.50    3.5
2020/06/29 08:16:39.000  -2191127.7235   5198847.7305   2965370.5654   1  23   0.0087   0.0147   0.0100  -0.0098   0.0096  -0.0072   0.00    3.4
2020/06/29 08:16:39.500  -2191127.7240   5198847.7332   2965370.5662   1  23   0.0087   0.0148   0.0100  -0.0098   0.0097  -0.0072   0.50    3.1
2020/06/29 08:16:40.000  -2191127.7228   5198847.7314   2965370.5656   1  23   0.0087   0.0147   0.0100  -0.0097   0.0096  -0.0072   0.00    3.2
2020/06/29 08:16:40.500  -2191127.9263   5198847.6186   2965371.0368   2  23   0.5245   0.9074   0.4885  -0.5623   0.5476  -0.3777   0.50    2.8
2020/06/29 08:16:41.000  -2191127.7179   5198847.6592   2965371.0592   2  23   0.5245   0.9074   0.4885  -0.5623   0.5475  -0.3777   0.00    1.7
2020/06/29 08:16:41.500  -2191127.8020   5198847.8179   2965371.0898   2  23   0.5245   0.9074   0.4885  -0.5623   0.5475  -0.3776   0.50    2.3
2020/06/29 08:16:42.000  -2191127.7531   5198847.7210   2965371.1683   2  23   0.5245   0.9073   0.4885  -0.5622   0.5475  -0.3776   0.00    1.4
2020/06/29 08:16:42.500  -2191127.7671   5198847.7152   2965371.1158   2  23   0.5245   0.9073   0.4884  -0.5622   0.5474  -0.3776   0.50    2.1
2020/06/29 08:16:43.000  -2191127.7561   5198847.7277   2965371.0935   2  23   0.5245   0.9073   0.4884  -0.5622   0.5474  -0.3776   0.00    2.3
2020/06/29 08:16:43.500  -2191127.8304   5198847.7702   2965371.0913   2  23   0.5245   0.9072   0.4884  -0.5622   0.5474  -0.3776   0.50    2.6
2020/06/29 08:16:44.000  -2191127.8462   5198847.7275   2965371.1303   2  23   0.5245   0.9072   0.4884  -0.5621   0.5473  -0.3775   0.00    2.2
2020/06/29 08:16:44.500  -2191127.8453   5198847.8065   2965371.2411   2  23   0.5245   0.9072   0.4884  -0.5621   0.5473  -0.3775   0.50    1.8
2020/06/29 08:16:45.000  -2191127.8593   5198847.8467   2965371.2462   2  23   0.5245   0.9071   0.4884  -0.5621   0.5473  -0.3775   0.00    1.6
2020/06/29 08:16:45.500  -2191127.9182   5198847.8461   2965371.2549   2  23   0.5245   0.9071   0.4883  -0.5621   0.5472  -0.3775   0.50    1.8
2020/06/29 08:16:46.000  -2191127.9146   5198848.1545   2965371.2251   2  23   0.5245   0.9071   0.4883  -0.5621   0.5472  -0.3774   0.00    2.6
2020/06/29 08:16:46.500  -2191127.8990   5198848.0707   2965371.2456   2  23   0.5244   0.9070   0.4883  -0.5620   0.5472  -0.3774   0.50    1.9
2020/06/29 08:16:47.000  -2191127.9155   5198848.1294   2965371.3918   2  23   0.5244   0.9070   0.4883  -0.5620   0.5471  -0.3774   0.00    1.2
2020/06/29 08:16:47.500  -2191127.8409   5198847.9346   2965371.3819   2  23   0.5244   0.9070   0.4883  -0.5620   0.5471  -0.3774   0.50    1.1
2020/06/29 08:16:48.000  -2191127.7940   5198847.7598   2965371.3950   2  23   0.5244   0.9069   0.4882  -0.5620   0.5471  -0.3774   0.00    1.2
2020/06/29 08:16:48.500  -2191127.8146   5198847.8716   2965371.4929   2  23   0.5244   0.9069   0.4882  -0.5619   0.5471  -0.3773   0.50    1.1
2020/06/29 08:16:49.000  -2191127.8786   5198847.9917   2965371.5503   2  23   0.5244   0.9068   0.4882  -0.5619   0.5470  -0.3773   0.00    1.3
2020/06/29 08:16:49.500  -2191127.9424   5198847.9569   2965371.5330   2  23   0.5244   0.9068   0.4882  -0.5619   0.5470  -0.3773   0.50    1.1
2020/06/29 08:16:50.000  -2191127.8183   5198847.7777   2965371.5408   2  23   0.5244   0.9068   0.4882  -0.5619   0.5470  -0.3773   0.00    1.3
2020/06/29 08:16:50.500  -2191127.9708   5198847.8725   2965371.5352   2  23   0.5244   0.9067   0.4882  -0.5619   0.5469  -0.3773   0.50    1.0
