% program   : RTKPOST ver.2.4.3 b33
% inp file  : D:\Documents\Visual Studio 2019\rtklib_portToVS\rtklib_2.4.3\data\7.obs
% inp file  : D:\Documents\Visual Studio 2019\rtklib_portToVS\rtklib_2.4.3\data\8.obs
% inp file  : D:\Documents\Visual Studio 2019\rtklib_portToVS\rtklib_2.4.3\data\8.nav
% obs start : 2020/06/29 08:13:15.5 GPST (week2112 115995.5s)
% obs end   : 2020/06/29 08:38:11.0 GPST (week2112 117491.0s)
% pos mode  : kinematic
% freqs     : L1
% solution  : forward
% elev mask : 15.0 deg
% dynamics  : on
% tidecorr  : off
% ionos opt : broadcast
% tropo opt : saastamoinen
% ephemeris : broadcast
% navi sys  : gps beidou
% amb res   : fix and hold
% val thres : 3.0
% antenna1  :                       ( 0.0000  0.0000  0.0000)
% antenna2  :                       ( 0.0000  0.0000  0.0000)
% ref pos   : -2191136.5960   5198839.0050   2965370.9860
%
% (x/y/z-ecef=WGS84,Q=1:fix,2:float,3:sbas,4:dgps,5:single,6:ppp,ns=# of satellites)
%  GPST                      x-ecef(m)      y-ecef(m)      z-ecef(m)   Q  ns   sdx(m)   sdy(m)   sdz(m)  sdxy(m)  sdyz(m)  sdzx(m) age(s)  ratio
2020/06/29 08:13:15.500  -2191126.6464   5198841.8300   2965369.3042   2  22   0.5667   0.9843   0.5065  -0.6310   0.5911  -0.4126  -0.50    1.3
2020/06/29 08:13:16.000  -2191126.7155   5198841.9268   2965369.3081   2  22   0.4109   0.7639   0.3886  -0.4589   0.4625  -0.3047   0.00    1.2
2020/06/29 08:13:16.500  -2191126.7645   5198841.9378   2965369.3471   2  22   0.3343   0.6049   0.3093  -0.3728   0.3653  -0.2462   0.50    1.1
2020/06/29 08:13:17.000  -2191126.8084   5198841.9729   2965369.3797   2  22   0.2890   0.5167   0.2647  -0.3221   0.3117  -0.2122   0.00    1.1
2020/06/29 08:13:17.500  -2191126.8647   5198842.0118   2965369.4189   2  22   0.2582   0.4585   0.2352  -0.2877   0.2764  -0.1893   0.50    1.1
2020/06/29 08:13:18.000  -2191126.9032   5198842.0451   2965369.4606   2  22   0.2356   0.4164   0.2137  -0.2624   0.2509  -0.1724   0.00    1.0
2020/06/29 08:13:18.500  -2191126.9290   5198842.0526   2965369.4858   2  22   0.2180   0.3841   0.1972  -0.2427   0.2314  -0.1594   0.50    1.0
2020/06/29 08:13:19.000  -2191126.9578   5198842.0658   2965369.5140   2  22   0.2038   0.3584   0.1840  -0.2269   0.2158  -0.1490   0.00    1.2
2020/06/29 08:13:19.500  -2191126.9796   5198842.0627   2965369.5389   2  22   0.1921   0.3372   0.1732  -0.2139   0.2030  -0.1403   0.50    1.3
2020/06/29 08:13:20.000  -2191127.0137   5198842.1023   2965369.5690   2  22   0.1822   0.3193   0.1641  -0.2028   0.1922  -0.1330   0.00    1.4
2020/06/29 08:13:20.500  -2191127.0507   5198842.1439   2965369.5956   2  22   0.1737   0.3040   0.1562  -0.1933   0.1829  -0.1268   0.50    1.5
2020/06/29 08:13:21.000  -2191127.0936   5198842.1968   2965369.6185   2  22   0.1662   0.2907   0.1494  -0.1850   0.1749  -0.1213   0.00    1.5
2020/06/29 08:13:21.500  -2191127.1273   5198842.2408   2965369.6360   2  22   0.1597   0.2790   0.1434  -0.1777   0.1679  -0.1165   0.50    1.5
2020/06/29 08:13:22.000  -2191127.1539   5198842.2578   2965369.6421   2  22   0.1538   0.2686   0.1381  -0.1712   0.1616  -0.1122   0.00    1.6
2020/06/29 08:13:22.500  -2191127.1809   5198842.2728   2965369.6531   2  22   0.1486   0.2593   0.1333  -0.1653   0.1560  -0.1083   0.50    1.6
2020/06/29 08:13:23.000  -2191127.2047   5198842.3072   2965369.6696   2  22   0.1439   0.2509   0.1290  -0.1600   0.1509  -0.1048   0.00    1.7
2020/06/29 08:13:23.500  -2191127.2145   5198842.3260   2965369.6808   2  22   0.1395   0.2432   0.1251  -0.1552   0.1463  -0.1017   0.50    1.7
2020/06/29 08:13:24.000  -2191127.2286   5198842.3494   2965369.6933   2  22   0.1356   0.2362   0.1215  -0.1508   0.1420  -0.0988   0.00    1.7
2020/06/29 08:13:24.500  -2191127.2383   5198842.3716   2965369.7040   2  22   0.1319   0.2298   0.1182  -0.1467   0.1381  -0.0961   0.50    1.7
2020/06/29 08:13:25.000  -2191127.2550   5198842.3964   2965369.7112   2  22   0.1286   0.2238   0.1151  -0.1429   0.1346  -0.0936   0.00    1.7
2020/06/29 08:13:25.500  -2191127.2669   5198842.4216   2965369.7171   2  22   0.1255   0.2183   0.1123  -0.1395   0.1312  -0.0913   0.50    1.7
2020/06/29 08:13:26.000  -2191127.2859   5198842.4544   2965369.7243   2  22   0.1225   0.2132   0.1097  -0.1362   0.1281  -0.0892   0.00    1.7
2020/06/29 08:13:26.500  -2191127.3012   5198842.4769   2965369.7287   2  22   0.1198   0.2084   0.1072  -0.1332   0.1252  -0.0872   0.50    1.7
2020/06/29 08:13:27.000  -2191127.3132   5198842.5013   2965369.7370   2  22   0.1173   0.2039   0.1049  -0.1303   0.1225  -0.0853   0.00    1.7
2020/06/29 08:13:27.500  -2191127.3261   5198842.5213   2965369.7449   2  22   0.1149   0.1997   0.1027  -0.1276   0.1200  -0.0836   0.50    1.7
2020/06/29 08:13:28.000  -2191127.3333   5198842.5326   2965369.7545   2  22   0.1126   0.1957   0.1007  -0.1251   0.1176  -0.0819   0.00    1.7
2020/06/29 08:13:28.500  -2191127.3366   5198842.5389   2965369.7602   2  22   0.1105   0.1920   0.0988  -0.1227   0.1153  -0.0803   0.50    1.8
2020/06/29 08:13:29.000  -2191127.3449   5198842.5497   2965369.7729   2  22   0.1085   0.1884   0.0969  -0.1205   0.1132  -0.0789   0.00    1.8
2020/06/29 08:13:29.500  -2191127.3511   5198842.5570   2965369.7802   2  22   0.1066   0.1850   0.0952  -0.1183   0.1111  -0.0774   0.50    1.8
2020/06/29 08:13:30.000  -2191127.3626   5198842.5874   2965369.7934   2  22   0.1048   0.1818   0.0936  -0.1163   0.1092  -0.0761   0.00    1.8
2020/06/29 08:13:30.500  -2191127.3727   5198842.6147   2965369.8023   2  22   0.1030   0.1788   0.0920  -0.1143   0.1074  -0.0748   0.50    1.8
2020/06/29 08:13:31.000  -2191127.3879   5198842.6428   2965369.8140   2  22   0.1014   0.1759   0.0905  -0.1125   0.1056  -0.0736   0.00    1.8
2020/06/29 08:13:31.500  -2191127.4005   5198842.6712   2965369.8230   2  22   0.0998   0.1731   0.0891  -0.1107   0.1040  -0.0725   0.50    1.8
2020/06/29 08:13:32.000  -2191127.4214   5198842.7124   2965369.8372   2  22   0.0983   0.1705   0.0878  -0.1090   0.1024  -0.0714   0.00    1.9
2020/06/29 08:13:32.500  -2191127.4370   5198842.7469   2965369.8472   2  22   0.0969   0.1679   0.0865  -0.1074   0.1008  -0.0703   0.50    1.9
2020/06/29 08:13:33.000  -2191127.4522   5198842.7798   2965369.8590   2  22   0.0955   0.1655   0.0852  -0.1058   0.0994  -0.0693   0.00    1.8
2020/06/29 08:13:33.500  -2191127.4631   5198842.8024   2965369.8654   2  22   0.0941   0.1632   0.0840  -0.1044   0.0979  -0.0683   0.50    1.8
2020/06/29 08:13:34.000  -2191127.4741   5198842.8209   2965369.8711   2  22   0.0929   0.1609   0.0829  -0.1029   0.0966  -0.0673   0.00    1.8
2020/06/29 08:13:34.500  -2191127.4806   5198842.8317   2965369.8733   2  22   0.0916   0.1588   0.0818  -0.1015   0.0953  -0.0664   0.50    1.8
2020/06/29 08:13:35.000  -2191127.4884   5198842.8446   2965369.8744   2  22   0.0905   0.1567   0.0807  -0.1002   0.0940  -0.0656   0.00    1.8
2020/06/29 08:13:35.500  -2191127.4925   5198842.8559   2965369.8781   2  22   0.0893   0.1547   0.0797  -0.0989   0.0928  -0.0647   0.50    1.8
2020/06/29 08:13:36.000  -2191127.5004   5198842.8665   2965369.8843   2  22   0.0882   0.1527   0.0787  -0.0977   0.0916  -0.0639   0.00    1.8
2020/06/29 08:13:36.500  -2191127.5111   5198842.8852   2965369.8925   2  22   0.0872   0.1509   0.0777  -0.0965   0.0905  -0.0631   0.50    1.8
2020/06/29 08:13:37.000  -2191127.5190   5198842.8947   2965369.8967   2  22   0.0861   0.1491   0.0768  -0.0953   0.0894  -0.0624   0.00    1.8
2020/06/29 08:13:37.500  -2191127.5307   5198842.9132   2965369.9055   2  22   0.0851   0.1473   0.0759  -0.0942   0.0884  -0.0616   0.50    1.8
2020/06/29 08:13:38.000  -2191127.5380   5198842.9334   2965369.9135   2  22   0.0842   0.1456   0.0750  -0.0931   0.0873  -0.0609   0.00    1.9
2020/06/29 08:13:38.500  -2191127.5491   5198842.9550   2965369.9235   2  22   0.0832   0.1440   0.0742  -0.0920   0.0863  -0.0602   0.50    1.9
2020/06/29 08:13:39.000  -2191127.5544   5198842.9693   2965369.9312   2  22   0.0823   0.1424   0.0734  -0.0910   0.0854  -0.0596   0.00    1.9
2020/06/29 08:13:39.500  -2191127.5627   5198842.9903   2965369.9400   2  22   0.0815   0.1408   0.0726  -0.0900   0.0844  -0.0589   0.50    1.9
2020/06/29 08:13:40.000  -2191127.5728   5198843.0121   2965369.9489   2  22   0.0806   0.1393   0.0718  -0.0891   0.0835  -0.0583   0.00    1.9
2020/06/29 08:13:40.500  -2191127.5828   5198843.0246   2965369.9547   2  22   0.0798   0.1379   0.0711  -0.0881   0.0827  -0.0577   0.50    1.9
2020/06/29 08:13:41.000  -2191127.5926   5198843.0280   2965369.9610   2  22   0.0790   0.1365   0.0704  -0.0872   0.0818  -0.0571   0.00    1.9
2020/06/29 08:13:41.500  -2191127.5999   5198843.0310   2965369.9667   2  22   0.0782   0.1351   0.0697  -0.0863   0.0810  -0.0565   0.50    1.9
2020/06/29 08:13:42.000  -2191127.6084   5198843.0412   2965369.9727   2  22   0.0774   0.1337   0.0690  -0.0854   0.0801  -0.0559   0.00    2.0
2020/06/29 08:13:42.500  -2191127.6152   5198843.0457   2965369.9761   2  22   0.0767   0.1324   0.0683  -0.0846   0.0794  -0.0554   0.50    2.0
2020/06/29 08:13:43.000  -2191127.6152   5198843.0391   2965369.9759   2  22   0.0760   0.1311   0.0677  -0.0838   0.0786  -0.0548   0.00    2.0
2020/06/29 08:13:43.500  -2191127.6160   5198843.0346   2965369.9757   2  22   0.0753   0.1299   0.0670  -0.0830   0.0778  -0.0543   0.50    2.0
2020/06/29 08:13:44.000  -2191127.6161   5198843.0381   2965369.9799   2  22   0.0746   0.1287   0.0664  -0.0822   0.0771  -0.0538   0.00    2.0
2020/06/29 08:13:44.500  -2191127.6178   5198843.0368   2965369.9813   2  22   0.0739   0.1275   0.0658  -0.0814   0.0764  -0.0533   0.50    2.0
2020/06/29 08:13:45.000  -2191127.6197   5198843.0372   2965369.9789   2  22   0.0732   0.1264   0.0652  -0.0807   0.0757  -0.0528   0.00    2.0
2020/06/29 08:13:45.500  -2191127.6233   5198843.0344   2965369.9769   2  22   0.0726   0.1252   0.0647  -0.0800   0.0750  -0.0523   0.50    2.0
2020/06/29 08:13:46.000  -2191127.6253   5198843.0381   2965369.9807   2  22   0.0720   0.1241   0.0641  -0.0792   0.0743  -0.0519   0.00    2.0
2020/06/29 08:13:46.500  -2191127.6268   5198843.0376   2965369.9806   2  22   0.0714   0.1230   0.0635  -0.0785   0.0737  -0.0514   0.50    2.0
2020/06/29 08:13:47.000  -2191127.6288   5198843.0333   2965369.9772   2  22   0.0708   0.1220   0.0630  -0.0779   0.0730  -0.0510   0.00    2.0
2020/06/29 08:13:47.500  -2191127.6319   5198843.0342   2965369.9772   2  22   0.0702   0.1210   0.0625  -0.0772   0.0724  -0.0505   0.50    2.0
2020/06/29 08:13:48.000  -2191127.6358   5198843.0367   2965369.9798   2  22   0.0696   0.1199   0.0620  -0.0765   0.0718  -0.0501   0.00    2.0
2020/06/29 08:13:48.500  -2191127.6395   5198843.0368   2965369.9793   2  22   0.0691   0.1190   0.0615  -0.0759   0.0712  -0.0497   0.50    2.0
2020/06/29 08:13:49.000  -2191127.6420   5198843.0363   2965369.9811   2  22   0.0685   0.1180   0.0610  -0.0753   0.0706  -0.0493   0.00    2.0
2020/06/29 08:13:49.500  -2191127.6472   5198843.0388   2965369.9823   2  22   0.0680   0.1170   0.0605  -0.0746   0.0700  -0.0489   0.50    2.0
2020/06/29 08:13:50.000  -2191127.6518   5198843.0400   2965369.9841   2  22   0.0675   0.1161   0.0600  -0.0740   0.0694  -0.0485   0.00    2.0
2020/06/29 08:13:50.500  -2191127.6528   5198843.0375   2965369.9849   2  22   0.0669   0.1152   0.0596  -0.0734   0.0689  -0.0481   0.50    2.1
2020/06/29 08:13:51.000  -2191127.6555   5198843.0380   2965369.9893   2  22   0.0664   0.1143   0.0591  -0.0729   0.0684  -0.0477   0.00    2.1
2020/06/29 08:13:51.500  -2191127.6573   5198843.0347   2965369.9909   2  22   0.0659   0.1134   0.0587  -0.0723   0.0678  -0.0473   0.50    2.1
2020/06/29 08:13:52.000  -2191127.6565   5198843.0238   2965369.9885   2  22   0.0655   0.1126   0.0582  -0.0717   0.0673  -0.0470   0.00    2.1
2020/06/29 08:13:52.500  -2191127.6559   5198843.0204   2965369.9899   2  22   0.0650   0.1117   0.0578  -0.0712   0.0668  -0.0466   0.50    2.1
2020/06/29 08:13:53.000  -2191127.6532   5198843.0114   2965369.9879   2  22   0.0645   0.1109   0.0574  -0.0706   0.0663  -0.0462   0.00    2.2
2020/06/29 08:13:53.500  -2191127.6528   5198843.0068   2965369.9871   2  22   0.0641   0.1101   0.0570  -0.0701   0.0658  -0.0459   0.50    2.2
2020/06/29 08:13:54.000  -2191127.6490   5198842.9939   2965369.9838   2  22   0.0636   0.1093   0.0566  -0.0696   0.0653  -0.0456   0.00    2.2
2020/06/29 08:13:54.500  -2191127.6496   5198842.9922   2965369.9826   2  22   0.0632   0.1085   0.0562  -0.0691   0.0648  -0.0452   0.50    2.2
2020/06/29 08:13:55.000  -2191127.6479   5198842.9858   2965369.9783   2  22   0.0627   0.1077   0.0558  -0.0686   0.0643  -0.0449   0.00    2.2
2020/06/29 08:13:55.500  -2191127.6444   5198842.9764   2965369.9716   2  22   0.0623   0.1069   0.0554  -0.0681   0.0639  -0.0446   0.50    2.2
2020/06/29 08:13:56.000  -2191127.6426   5198842.9735   2965369.9683   2  22   0.0619   0.1062   0.0550  -0.0676   0.0634  -0.0442   0.00    2.1
2020/06/29 08:13:56.500  -2191127.6413   5198842.9649   2965369.9657   2  22   0.0615   0.1055   0.0546  -0.0671   0.0630  -0.0439   0.50    2.1
2020/06/29 08:13:57.000  -2191127.6411   5198842.9607   2965369.9638   2  22   0.0610   0.1047   0.0543  -0.0666   0.0625  -0.0436   0.00    2.1
2020/06/29 08:13:57.500  -2191127.6410   5198842.9501   2965369.9601   2  22   0.0607   0.1040   0.0539  -0.0662   0.0621  -0.0433   0.50    2.1
2020/06/29 08:13:58.000  -2191127.6446   5198842.9463   2965369.9603   2  21   0.0604   0.1034   0.0536  -0.0658   0.0618  -0.0431   0.00    2.2
2020/06/29 08:13:58.500  -2191127.6481   5198842.9420   2965369.9580   2  21   0.0601   0.1028   0.0533  -0.0654   0.0614  -0.0429   0.50    2.2
2020/06/29 08:13:59.000  -2191127.6492   5198842.9316   2965369.9561   2  22   0.0597   0.1021   0.0529  -0.0650   0.0610  -0.0426   0.00    2.2
2020/06/29 08:13:59.500  -2191127.6504   5198842.9232   2965369.9540   2  22   0.0593   0.1014   0.0526  -0.0645   0.0605  -0.0423   0.50    2.2
2020/06/29 08:14:00.000  -2191127.6535   5198842.9204   2965369.9551   2  22   0.0589   0.1007   0.0522  -0.0641   0.0601  -0.0420   0.00    2.2
2020/06/29 08:14:00.500  -2191127.6496   5198842.9070   2965369.9514   2  22   0.0585   0.1001   0.0519  -0.0636   0.0597  -0.0417   0.50    2.2
2020/06/29 08:14:01.000  -2191127.6525   5198842.9017   2965369.9541   2  22   0.0581   0.0994   0.0516  -0.0632   0.0593  -0.0414   0.00    2.3
2020/06/29 08:14:01.500  -2191127.6526   5198842.8945   2965369.9549   2  22   0.0578   0.0988   0.0513  -0.0628   0.0589  -0.0412   0.50    2.3
2020/06/29 08:14:02.000  -2191127.6520   5198842.8880   2965369.9534   2  22   0.0574   0.0982   0.0510  -0.0624   0.0585  -0.0409   0.00    2.3
2020/06/29 08:14:02.500  -2191127.6531   5198842.8845   2965369.9552   2  22   0.0571   0.0976   0.0506  -0.0620   0.0582  -0.0406   0.50    2.3
2020/06/29 08:14:03.000  -2191127.6505   5198842.8733   2965369.9524   2  22   0.0567   0.0969   0.0503  -0.0616   0.0578  -0.0404   0.00    2.3
2020/06/29 08:14:03.500  -2191127.6498   5198842.8668   2965369.9510   2  22   0.0564   0.0963   0.0500  -0.0612   0.0574  -0.0401   0.50    2.4
2020/06/29 08:14:04.000  -2191127.6489   5198842.8630   2965369.9506   2  22   0.0561   0.0957   0.0497  -0.0608   0.0571  -0.0398   0.00    2.4
2020/06/29 08:14:04.500  -2191127.6481   5198842.8571   2965369.9480   2  22   0.0557   0.0952   0.0494  -0.0604   0.0567  -0.0396   0.50    2.4
2020/06/29 08:14:05.000  -2191127.6475   5198842.8558   2965369.9459   2  22   0.0554   0.0946   0.0492  -0.0600   0.0564  -0.0393   0.00    2.4
2020/06/29 08:14:05.500  -2191127.6413   5198842.8451   2965369.9418   2  22   0.0551   0.0940   0.0489  -0.0596   0.0560  -0.0391   0.50    2.4
2020/06/29 08:14:06.000  -2191127.6347   5198842.8334   2965369.9382   2  22   0.0548   0.0935   0.0486  -0.0593   0.0557  -0.0389   0.00    2.4
2020/06/29 08:14:06.500  -2191127.6308   5198842.8304   2965369.9377   2  22   0.0545   0.0929   0.0483  -0.0589   0.0553  -0.0386   0.50    2.4
2020/06/29 08:14:07.000  -2191127.6256   5198842.8240   2965369.9361   2  22   0.0542   0.0924   0.0480  -0.0585   0.0550  -0.0384   0.00    2.4
2020/06/29 08:14:07.500  -2191127.6205   5198842.8148   2965369.9336   2  22   0.0539   0.0918   0.0478  -0.0582   0.0547  -0.0381   0.50    2.4
2020/06/29 08:14:08.000  -2191127.6161   5198842.8082   2965369.9281   2  22   0.0536   0.0913   0.0475  -0.0578   0.0543  -0.0379   0.00    2.4
2020/06/29 08:14:08.500  -2191127.6105   5198842.7983   2965369.9252   2  22   0.0533   0.0908   0.0472  -0.0575   0.0540  -0.0377   0.50    2.4
2020/06/29 08:14:09.000  -2191127.6022   5198842.7876   2965369.9207   2  22   0.0530   0.0902   0.0470  -0.0571   0.0537  -0.0375   0.00    2.3
2020/06/29 08:14:09.500  -2191127.5974   5198842.7830   2965369.9179   2  22   0.0527   0.0897   0.0467  -0.0568   0.0534  -0.0372   0.50    2.3
2020/06/29 08:14:10.000  -2191127.5903   5198842.7697   2965369.9131   2  22   0.0524   0.0892   0.0465  -0.0564   0.0531  -0.0370   0.00    2.3
2020/06/29 08:14:10.500  -2191127.5848   5198842.7619   2965369.9104   2  22   0.0521   0.0887   0.0462  -0.0561   0.0528  -0.0368   0.50    2.3
2020/06/29 08:14:11.000  -2191127.5769   5198842.7525   2965369.9071   2  22   0.0519   0.0882   0.0460  -0.0558   0.0524  -0.0366   0.00    2.3
2020/06/29 08:14:11.500  -2191127.5707   5198842.7425   2965369.9029   2  22   0.0516   0.0877   0.0457  -0.0555   0.0521  -0.0364   0.50    2.3
2020/06/29 08:14:12.000  -2191127.5624   5198842.7362   2965369.9002   2  22   0.0513   0.0872   0.0455  -0.0551   0.0518  -0.0362   0.00    2.3
2020/06/29 08:14:12.500  -2191127.5554   5198842.7276   2965369.8996   2  22   0.0511   0.0868   0.0452  -0.0548   0.0516  -0.0360   0.50    2.3
2020/06/29 08:14:13.000  -2191127.5488   5198842.7215   2965369.8954   2  22   0.0508   0.0863   0.0450  -0.0545   0.0513  -0.0358   0.00    2.3
2020/06/29 08:14:13.500  -2191127.5424   5198842.7132   2965369.8922   2  22   0.0505   0.0858   0.0448  -0.0542   0.0510  -0.0356   0.50    2.3
2020/06/29 08:14:14.000  -2191127.5377   5198842.7061   2965369.8901   2  22   0.0503   0.0854   0.0445  -0.0539   0.0507  -0.0354   0.00    2.3
2020/06/29 08:14:14.500  -2191127.5309   5198842.6955   2965369.8874   2  22   0.0500   0.0849   0.0443  -0.0536   0.0504  -0.0352   0.50    2.3
2020/06/29 08:14:15.000  -2191127.5227   5198842.6888   2965369.8836   2  22   0.0498   0.0845   0.0441  -0.0533   0.0501  -0.0350   0.00    2.3
2020/06/29 08:14:15.500  -2191127.5205   5198842.6845   2965369.8845   2  22   0.0495   0.0840   0.0438  -0.0530   0.0499  -0.0348   0.50    2.3
2020/06/29 08:14:16.000  -2191127.5159   5198842.6748   2965369.8814   2  22   0.0493   0.0836   0.0436  -0.0527   0.0496  -0.0346   0.00    2.3
2020/06/29 08:14:16.500  -2191127.5126   5198842.6701   2965369.8820   2  22   0.0490   0.0831   0.0434  -0.0524   0.0493  -0.0344   0.50    2.3
2020/06/29 08:14:17.000  -2191127.5086   5198842.6657   2965369.8791   2  22   0.0488   0.0827   0.0432  -0.0521   0.0490  -0.0342   0.00    2.3
2020/06/29 08:14:17.500  -2191127.5038   5198842.6589   2965369.8772   2  22   0.0485   0.0823   0.0430  -0.0518   0.0488  -0.0340   0.50    2.3
2020/06/29 08:14:18.000  -2191127.4998   5198842.6522   2965369.8767   2  22   0.0483   0.0818   0.0428  -0.0515   0.0485  -0.0338   0.00    2.3
2020/06/29 08:14:18.500  -2191127.4962   5198842.6493   2965369.8759   2  22   0.0481   0.0814   0.0426  -0.0512   0.0483  -0.0337   0.50    2.3
2020/06/29 08:14:19.000  -2191127.4920   5198842.6425   2965369.8757   2  22   0.0478   0.0810   0.0423  -0.0510   0.0480  -0.0335   0.00    2.3
2020/06/29 08:14:19.500  -2191127.4894   5198842.6396   2965369.8761   2  22   0.0476   0.0806   0.0421  -0.0507   0.0478  -0.0333   0.50    2.3
2020/06/29 08:14:20.000  -2191127.4869   5198842.6413   2965369.8792   2  22   0.0474   0.0802   0.0419  -0.0504   0.0475  -0.0331   0.00    2.3
2020/06/29 08:14:20.500  -2191127.4856   5198842.6415   2965369.8817   2  22   0.0472   0.0798   0.0417  -0.0501   0.0472  -0.0329   0.50    2.3
2020/06/29 08:14:21.000  -2191127.4818   5198842.6389   2965369.8811   2  22   0.0469   0.0794   0.0415  -0.0499   0.0470  -0.0328   0.00    2.3
2020/06/29 08:14:21.500  -2191127.4798   5198842.6362   2965369.8804   2  22   0.0467   0.0790   0.0413  -0.0496   0.0468  -0.0326   0.50    2.3
2020/06/29 08:14:22.000  -2191127.4766   5198842.6330   2965369.8808   2  22   0.0465   0.0786   0.0411  -0.0493   0.0465  -0.0324   0.00    2.4
2020/06/29 08:14:22.500  -2191127.4739   5198842.6334   2965369.8817   2  22   0.0463   0.0782   0.0409  -0.0491   0.0463  -0.0323   0.50    2.4
2020/06/29 08:14:23.000  -2191127.4710   5198842.6300   2965369.8804   2  22   0.0461   0.0778   0.0407  -0.0488   0.0460  -0.0321   0.00    2.4
2020/06/29 08:14:23.500  -2191127.4690   5198842.6278   2965369.8800   2  22   0.0459   0.0774   0.0406  -0.0486   0.0458  -0.0319   0.50    2.4
2020/06/29 08:14:24.000  -2191127.4666   5198842.6264   2965369.8823   2  22   0.0457   0.0770   0.0404  -0.0483   0.0456  -0.0318   0.00    2.4
2020/06/29 08:14:24.500  -2191127.4612   5198842.6180   2965369.8805   2  22   0.0455   0.0767   0.0402  -0.0481   0.0453  -0.0316   0.50    2.4
2020/06/29 08:14:25.000  -2191127.4572   5198842.6114   2965369.8795   2  22   0.0452   0.0763   0.0400  -0.0478   0.0451  -0.0314   0.00    2.4
2020/06/29 08:14:25.500  -2191127.4510   5198842.6066   2965369.8785   2  22   0.0450   0.0759   0.0398  -0.0476   0.0449  -0.0313   0.50    2.4
2020/06/29 08:14:26.000  -2191127.4459   5198842.5980   2965369.8759   2  22   0.0448   0.0756   0.0396  -0.0473   0.0447  -0.0311   0.00    2.4
2020/06/29 08:14:26.500  -2191127.4424   5198842.5942   2965369.8756   2  22   0.0446   0.0752   0.0395  -0.0471   0.0444  -0.0310   0.50    2.4
2020/06/29 08:14:27.000  -2191127.4383   5198842.5946   2965369.8789   2  22   0.0444   0.0748   0.0393  -0.0468   0.0442  -0.0308   0.00    2.4
2020/06/29 08:14:27.500  -2191127.4301   5198842.5852   2965369.8777   2  22   0.0442   0.0745   0.0391  -0.0466   0.0440  -0.0306   0.50    2.4
2020/06/29 08:14:28.000  -2191127.4254   5198842.5812   2965369.8777   2  22   0.0441   0.0741   0.0389  -0.0463   0.0438  -0.0305   0.00    2.4
2020/06/29 08:14:28.500  -2191127.4211   5198842.5808   2965369.8791   2  22   0.0439   0.0738   0.0388  -0.0461   0.0436  -0.0303   0.50    2.4
2020/06/29 08:14:29.000  -2191127.4186   5198842.5795   2965369.8818   2  22   0.0437   0.0734   0.0386  -0.0459   0.0433  -0.0302   0.00    2.4
2020/06/29 08:14:29.500  -2191127.4155   5198842.5788   2965369.8838   2  22   0.0435   0.0731   0.0384  -0.0456   0.0431  -0.0300   0.50    2.4
2020/06/29 08:14:30.000  -2191127.4094   5198842.5759   2965369.8834   2  22   0.0433   0.0728   0.0382  -0.0454   0.0429  -0.0299   0.00    2.4
2020/06/29 08:14:30.500  -2191127.4052   5198842.5757   2965369.8832   2  22   0.0431   0.0724   0.0381  -0.0452   0.0427  -0.0297   0.50    2.4
2020/06/29 08:14:31.000  -2191127.4035   5198842.5740   2965369.8840   2  22   0.0429   0.0721   0.0379  -0.0450   0.0425  -0.0296   0.00    2.4
2020/06/29 08:14:31.500  -2191127.4004   5198842.5717   2965369.8861   2  22   0.0427   0.0718   0.0377  -0.0447   0.0423  -0.0295   0.50    2.4
2020/06/29 08:14:32.000  -2191127.3977   5198842.5737   2965369.8881   2  22   0.0426   0.0714   0.0376  -0.0445   0.0421  -0.0293   0.00    2.4
2020/06/29 08:14:32.500  -2191127.3968   5198842.5764   2965369.8911   2  22   0.0424   0.0711   0.0374  -0.0443   0.0419  -0.0292   0.50    2.5
2020/06/29 08:14:33.000  -2191127.3951   5198842.5781   2965369.8925   2  22   0.0422   0.0708   0.0373  -0.0441   0.0417  -0.0290   0.00    2.5
2020/06/29 08:14:33.500  -2191127.3943   5198842.5847   2965369.8959   2  22   0.0420   0.0705   0.0371  -0.0439   0.0415  -0.0289   0.50    2.5
2020/06/29 08:14:34.000  -2191127.3906   5198842.5818   2965369.8966   2  22   0.0419   0.0701   0.0369  -0.0436   0.0413  -0.0288   0.00    2.5
2020/06/29 08:14:34.500  -2191127.3887   5198842.5833   2965369.8989   2  22   0.0417   0.0698   0.0368  -0.0434   0.0411  -0.0286   0.50    2.5
2020/06/29 08:14:35.000  -2191127.3909   5198842.5888   2965369.9043   2  22   0.0415   0.0695   0.0366  -0.0432   0.0409  -0.0285   0.00    2.5
2020/06/29 08:14:35.500  -2191127.3902   5198842.5897   2965369.9062   2  22   0.0413   0.0692   0.0365  -0.0430   0.0407  -0.0283   0.50    2.5
2020/06/29 08:14:36.000  -2191127.3855   5198842.5865   2965369.9084   2  22   0.0412   0.0689   0.0363  -0.0428   0.0405  -0.0282   0.00    2.6
2020/06/29 08:14:36.500  -2191127.3859   5198842.5885   2965369.9113   2  22   0.0410   0.0686   0.0362  -0.0426   0.0404  -0.0281   0.50    2.6
2020/06/29 08:14:37.000  -2191127.3844   5198842.5907   2965369.9135   2  22   0.0408   0.0683   0.0360  -0.0424   0.0402  -0.0279   0.00    2.6
2020/06/29 08:14:37.500  -2191127.3854   5198842.5943   2965369.9170   2  22   0.0407   0.0680   0.0359  -0.0422   0.0400  -0.0278   0.50    2.6
2020/06/29 08:14:38.000  -2191127.3818   5198842.5925   2965369.9190   2  22   0.0405   0.0677   0.0357  -0.0420   0.0398  -0.0277   0.00    2.6
2020/06/29 08:14:38.500  -2191127.3789   5198842.5913   2965369.9213   2  22   0.0404   0.0674   0.0356  -0.0418   0.0396  -0.0276   0.50    2.6
2020/06/29 08:14:39.000  -2191127.3764   5198842.5910   2965369.9203   2  22   0.0402   0.0671   0.0354  -0.0416   0.0394  -0.0274   0.00    2.6
2020/06/29 08:14:39.500  -2191127.3758   5198842.5909   2965369.9232   2  22   0.0400   0.0668   0.0353  -0.0414   0.0393  -0.0273   0.50    2.6
2020/06/29 08:14:40.000  -2191127.3763   5198842.5945   2965369.9270   2  22   0.0399   0.0665   0.0351  -0.0412   0.0391  -0.0272   0.00    2.7
2020/06/29 08:14:40.500  -2191127.3728   5198842.5913   2965369.9269   2  22   0.0397   0.0662   0.0350  -0.0410   0.0389  -0.0271   0.50    2.7
2020/06/29 08:14:41.000  -2191127.3705   5198842.5878   2965369.9295   2  22   0.0396   0.0660   0.0349  -0.0408   0.0387  -0.0269   0.00    2.7
2020/06/29 08:14:41.500  -2191127.3700   5198842.5925   2965369.9338   2  22   0.0394   0.0657   0.0347  -0.0406   0.0385  -0.0268   0.50    2.7
2020/06/29 08:14:42.000  -2191127.3669   5198842.5902   2965369.9345   2  22   0.0393   0.0654   0.0346  -0.0404   0.0384  -0.0267   0.00    2.7
2020/06/29 08:14:42.500  -2191127.3654   5198842.5920   2965369.9373   2  22   0.0391   0.0651   0.0344  -0.0402   0.0382  -0.0266   0.50    2.7
2020/06/29 08:14:43.000  -2191127.3621   5198842.5920   2965369.9381   2  22   0.0390   0.0648   0.0343  -0.0400   0.0380  -0.0264   0.00    2.8
2020/06/29 08:14:43.500  -2191127.3611   5198842.5938   2965369.9389   2  22   0.0388   0.0646   0.0342  -0.0399   0.0379  -0.0263   0.50    2.8
2020/06/29 08:14:44.000  -2191127.3603   5198842.5949   2965369.9426   2  22   0.0387   0.0643   0.0340  -0.0397   0.0377  -0.0262   0.00    2.8
2020/06/29 08:14:44.500  -2191127.3584   5198842.5952   2965369.9431   2  22   0.0385   0.0640   0.0339  -0.0395   0.0375  -0.0261   0.50    2.8
2020/06/29 08:14:45.000  -2191127.3575   5198842.5970   2965369.9471   2  22   0.0384   0.0638   0.0338  -0.0393   0.0374  -0.0260   0.00    2.8
2020/06/29 08:14:45.500  -2191127.3568   5198842.5953   2965369.9486   2  22   0.0382   0.0635   0.0336  -0.0391   0.0372  -0.0259   0.50    2.8
2020/06/29 08:14:46.000  -2191127.3563   5198842.5969   2965369.9507   2  22   0.0381   0.0632   0.0335  -0.0389   0.0370  -0.0257   0.00    2.8
2020/06/29 08:14:46.500  -2191127.3564   5198842.5982   2965369.9525   2  22   0.0379   0.0630   0.0334  -0.0388   0.0369  -0.0256   0.50    2.8
2020/06/29 08:14:47.000  -2191127.3566   5198842.6053   2965369.9552   2  22   0.0378   0.0627   0.0332  -0.0386   0.0367  -0.0255   0.00    2.8
2020/06/29 08:14:47.500  -2191127.3559   5198842.6067   2965369.9577   2  22   0.0377   0.0625   0.0331  -0.0384   0.0365  -0.0254   0.50    2.8
2020/06/29 08:14:48.000  -2191127.3551   5198842.6101   2965369.9607   2  22   0.0375   0.0622   0.0330  -0.0382   0.0364  -0.0253   0.00    2.9
2020/06/29 08:14:48.500  -2191127.3525   5198842.6120   2965369.9623   2  22   0.0374   0.0619   0.0329  -0.0381   0.0362  -0.0252   0.50    2.9
2020/06/29 08:14:49.000  -2191127.3495   5198842.6111   2965369.9642   2  22   0.0372   0.0617   0.0327  -0.0379   0.0361  -0.0251   0.00    2.9
2020/06/29 08:14:49.500  -2191127.3463   5198842.6096   2965369.9645   2  22   0.0371   0.0614   0.0326  -0.0377   0.0359  -0.0250   0.50    2.9
2020/06/29 08:14:50.000  -2191127.3487   5198842.6155   2965369.9711   2  22   0.0370   0.0612   0.0325  -0.0375   0.0358  -0.0248   0.00    2.9
2020/06/29 08:14:50.500  -2191127.3480   5198842.6197   2965369.9735   2  22   0.0368   0.0609   0.0324  -0.0374   0.0356  -0.0247   0.50    2.9
2020/06/29 08:14:51.000  -2191127.3455   5198842.6203   2965369.9753   2  22   0.0367   0.0607   0.0322  -0.0372   0.0355  -0.0246   0.00    2.9
2020/06/29 08:14:51.500  -2191127.3423   5198842.6197   2965369.9755   2  22   0.0366   0.0605   0.0321  -0.0370   0.0353  -0.0245   0.50    2.9
2020/06/29 08:14:52.000  -2191127.3417   5198842.6216   2965369.9768   2  22   0.0364   0.0602   0.0320  -0.0369   0.0352  -0.0244   0.00    3.0
2020/06/29 08:14:52.500  -2191127.3407   5198842.6225   2965369.9788   2  22   0.0363   0.0600   0.0319  -0.0367   0.0350  -0.0243   0.50    3.0
2020/06/29 08:14:53.000  -2191127.3398   5198842.6280   2965369.9823   2  22   0.0362   0.0597   0.0318  -0.0365   0.0349  -0.0242   0.00    3.0
2020/06/29 08:14:53.500  -2191127.7295   5198842.9321   2965370.5667   1  22   0.0058   0.0100   0.0051  -0.0064   0.0060  -0.0042   0.50    3.0
2020/06/29 08:14:54.000  -2191127.7277   5198842.9360   2965370.5683   1  22   0.0058   0.0099   0.0051  -0.0064   0.0060  -0.0042   0.00    3.0
2020/06/29 08:14:54.500  -2191127.7275   5198842.9339   2965370.5684   1  22   0.0058   0.0100   0.0051  -0.0064   0.0060  -0.0042   0.50    3.0
2020/06/29 08:14:55.000  -2191127.7303   5198842.9336   2965370.5689   1  22   0.0058   0.0099   0.0051  -0.0064   0.0060  -0.0042   0.00    3.1
2020/06/29 08:14:55.500  -2191127.7291   5198842.9361   2965370.5694   1  22   0.0058   0.0100   0.0051  -0.0064   0.0060  -0.0042   0.50    3.1
2020/06/29 08:14:56.000  -2191127.7289   5198842.9352   2965370.5688   1  22   0.0058   0.0099   0.0051  -0.0064   0.0060  -0.0042   0.00    3.1
2020/06/29 08:14:56.500  -2191127.7303   5198842.9385   2965370.5704   1  22   0.0058   0.0100   0.0051  -0.0064   0.0060  -0.0042   0.50    3.1
2020/06/29 08:14:57.000  -2191127.7282   5198842.9340   2965370.5685   1  22   0.0058   0.0099   0.0051  -0.0064   0.0060  -0.0042   0.00    3.1
2020/06/29 08:14:57.500  -2191127.7292   5198842.9357   2965370.5682   1  22   0.0058   0.0100   0.0051  -0.0064   0.0060  -0.0042   0.50    3.1
2020/06/29 08:14:58.000  -2191127.7283   5198842.9333   2965370.5695   1  22   0.0058   0.0099   0.0051  -0.0064   0.0060  -0.0042   0.00    3.1
2020/06/29 08:14:58.500  -2191127.7272   5198842.9328   2965370.5695   1  22   0.0058   0.0100   0.0051  -0.0064   0.0060  -0.0042   0.50  430.8
2020/06/29 08:14:59.000  -2191127.7303   5198842.9397   2965370.5720   1  22   0.0058   0.0099   0.0051  -0.0064   0.0060  -0.0042   0.00  895.7
2020/06/29 08:14:59.500  -2191127.7291   5198842.9389   2965370.5713   1  22   0.0058   0.0100   0.0051  -0.0064   0.0060  -0.0042   0.50  999.9
2020/06/29 08:15:00.000  -2191127.7296   5198842.9355   2965370.5681   1  22   0.0058   0.0099   0.0051  -0.0064   0.0060  -0.0042   0.00  999.9
2020/06/29 08:15:00.500  -2191127.7300   5198842.9366   2965370.5672   1  22   0.0058   0.0100   0.0051  -0.0064   0.0060  -0.0042   0.50  999.9
2020/06/29 08:15:01.000  -2191127.7296   5198842.9361   2965370.5699   1  22   0.0058   0.0099   0.0051  -0.0064   0.0060  -0.0042   0.00  999.9
2020/06/29 08:15:01.500  -2191127.7299   5198842.9353   2965370.5678   1  22   0.0058   0.0100   0.0051  -0.0064   0.0060  -0.0042   0.50  999.9
2020/06/29 08:15:02.000  -2191127.7283   5198842.9355   2965370.5689   1  22   0.0058   0.0099   0.0051  -0.0064   0.0060  -0.0042   0.00  999.9
2020/06/29 08:15:02.500  -2191127.7296   5198842.9355   2965370.5677   1  22   0.0058   0.0100   0.0051  -0.0064   0.0060  -0.0042   0.50  999.9
2020/06/29 08:15:03.000  -2191127.7292   5198842.9362   2965370.5699   1  22   0.0058   0.0099   0.0051  -0.0064   0.0059  -0.0042   0.00  999.9
2020/06/29 08:15:03.500  -2191127.7289   5198842.9368   2965370.5704   1  22   0.0058   0.0100   0.0051  -0.0064   0.0060  -0.0042   0.50  999.9
2020/06/29 08:15:04.000  -2191127.7285   5198842.9360   2965370.5707   1  22   0.0058   0.0099   0.0051  -0.0064   0.0059  -0.0042   0.00  999.9
2020/06/29 08:15:04.500  -2191127.7285   5198842.9358   2965370.5698   1  22   0.0058   0.0100   0.0051  -0.0064   0.0060  -0.0042   0.50  999.9
2020/06/29 08:15:05.000  -2191127.7283   5198842.9361   2965370.5682   1  22   0.0058   0.0099   0.0051  -0.0064   0.0059  -0.0042   0.00  999.9
2020/06/29 08:15:05.500  -2191127.7293   5198842.9361   2965370.5696   1  22   0.0058   0.0100   0.0051  -0.0064   0.0060  -0.0042   0.50  999.9
2020/06/29 08:15:06.000  -2191127.7294   5198842.9367   2965370.5696   1  22   0.0058   0.0099   0.0051  -0.0064   0.0059  -0.0042   0.00  999.9
2020/06/29 08:15:06.500  -2191127.7298   5198842.9375   2965370.5687   1  22   0.0058   0.0100   0.0051  -0.0064   0.0060  -0.0042   0.50  999.9
2020/06/29 08:15:07.000  -2191127.7300   5198842.9349   2965370.5696   1  22   0.0058   0.0099   0.0051  -0.0064   0.0059  -0.0042   0.00  999.9
2020/06/29 08:15:07.500  -2191127.7296   5198842.9358   2965370.5697   1  22   0.0058   0.0100   0.0051  -0.0064   0.0060  -0.0042   0.50  999.9
2020/06/29 08:15:08.000  -2191127.7289   5198842.9355   2965370.5706   1  22   0.0058   0.0099   0.0051  -0.0064   0.0059  -0.0042   0.00  999.9
2020/06/29 08:15:08.500  -2191127.7267   5198842.9321   2965370.5702   1  22   0.0058   0.0100   0.0051  -0.0064   0.0060  -0.0042   0.50  999.9
2020/06/29 08:15:09.000  -2191127.7287   5198842.9327   2965370.5682   1  22   0.0058   0.0099   0.0051  -0.0064   0.0059  -0.0042   0.00  999.9
2020/06/29 08:15:09.500  -2191127.7265   5198842.9344   2965370.5683   1  22   0.0058   0.0100   0.0051  -0.0064   0.0060  -0.0042   0.50  999.9
2020/06/29 08:15:10.000  -2191127.7267   5198842.9345   2965370.5689   1  22   0.0058   0.0099   0.0051  -0.0064   0.0059  -0.0042   0.00  999.9
2020/06/29 08:15:10.500  -2191127.7269   5198842.9336   2965370.5683   1  22   0.0058   0.0100   0.0051  -0.0064   0.0060  -0.0042   0.50  999.9
2020/06/29 08:15:11.000  -2191127.7283   5198842.9343   2965370.5680   1  22   0.0058   0.0099   0.0051  -0.0064   0.0059  -0.0042   0.00  999.9
2020/06/29 08:15:11.500  -2191127.7280   5198842.9323   2965370.5679   1  22   0.0058   0.0100   0.0051  -0.0064   0.0060  -0.0042   0.50  999.9
2020/06/29 08:15:12.000  -2191127.7285   5198842.9347   2965370.5693   1  22   0.0058   0.0099   0.0051  -0.0064   0.0059  -0.0042   0.00  999.9
2020/06/29 08:15:12.500  -2191127.7290   5198842.9353   2965370.5690   1  22   0.0058   0.0100   0.0051  -0.0064   0.0060  -0.0042   0.50  999.9
2020/06/29 08:15:13.000  -2191127.7274   5198842.9342   2965370.5685   1  22   0.0058   0.0099   0.0051  -0.0064   0.0059  -0.0042   0.00  999.9
2020/06/29 08:15:13.500  -2191127.7275   5198842.9342   2965370.5681   1  22   0.0058   0.0100   0.0051  -0.0064   0.0060  -0.0042   0.50  999.9
2020/06/29 08:15:14.000  -2191127.7283   5198842.9318   2965370.5670   1  22   0.0058   0.0099   0.0051  -0.0064   0.0059  -0.0042   0.00  999.9
2020/06/29 08:15:14.500  -2191127.7287   5198842.9354   2965370.5690   1  22   0.0058   0.0100   0.0051  -0.0064   0.0060  -0.0042   0.50  999.9
2020/06/29 08:15:15.000  -2191127.7289   5198842.9359   2965370.5700   1  22   0.0058   0.0099   0.0051  -0.0064   0.0059  -0.0042   0.00  999.9
2020/06/29 08:15:15.500  -2191127.7274   5198842.9347   2965370.5694   1  22   0.0058   0.0100   0.0051  -0.0064   0.0060  -0.0042   0.50  999.9
2020/06/29 08:15:16.000  -2191127.7280   5198842.9342   2965370.5683   1  22   0.0058   0.0099   0.0051  -0.0064   0.0059  -0.0042   0.00  999.9
2020/06/29 08:15:16.500  -2191127.7290   5198842.9333   2965370.5687   1  22   0.0058   0.0100   0.0051  -0.0064   0.0060  -0.0042   0.50  999.9
2020/06/29 08:15:17.000  -2191127.7289   5198842.9359   2965370.5690   1  22   0.0058   0.0099   0.0051  -0.0064   0.0059  -0.0042   0.00  999.9
2020/06/29 08:15:17.500  -2191127.7263   5198842.9330   2965370.5670   1  22   0.0058   0.0100   0.0051  -0.0064   0.0060  -0.0042   0.50  999.9
2020/06/29 08:15:18.000  -2191127.7285   5198842.9348   2965370.5694   1  22   0.0058   0.0099   0.0051  -0.0064   0.0059  -0.0042   0.00  999.9
2020/06/29 08:15:18.500  -2191127.7279   5198842.9340   2965370.5675   1  22   0.0058   0.0100   0.0051  -0.0064   0.0060  -0.0042   0.50  999.9
2020/06/29 08:15:19.000  -2191127.7284   5198842.9343   2965370.5680   1  22   0.0058   0.0099   0.0051  -0.0064   0.0059  -0.0042   0.00  999.9
2020/06/29 08:15:19.500  -2191127.7275   5198842.9334   2965370.5666   1  22   0.0058   0.0100   0.0051  -0.0064   0.0060  -0.0042   0.50  999.9
2020/06/29 08:15:20.000  -2191127.7261   5198842.9330   2965370.5662   1  22   0.0058   0.0099   0.0051  -0.0064   0.0059  -0.0042   0.00  999.9
2020/06/29 08:15:20.500  -2191127.7266   5198842.9356   2965370.5670   1  22   0.0058   0.0100   0.0051  -0.0064   0.0060  -0.0042   0.50  999.9
2020/06/29 08:15:21.000  -2191127.7274   5198842.9350   2965370.5672   1  22   0.0058   0.0099   0.0051  -0.0064   0.0059  -0.0042   0.00  999.9
2020/06/29 08:15:21.500  -2191127.7258   5198842.9316   2965370.5651   1  22   0.0058   0.0100   0.0051  -0.0064   0.0060  -0.0042   0.50  999.9
2020/06/29 08:15:22.000  -2191127.7282   5198842.9351   2965370.5685   1  22   0.0058   0.0099   0.0051  -0.0064   0.0059  -0.0042   0.00  999.9
2020/06/29 08:15:22.500  -2191127.7269   5198842.9348   2965370.5690   1  22   0.0058   0.0100   0.0051  -0.0064   0.0060  -0.0042   0.50  999.9
2020/06/29 08:15:23.000  -2191127.7278   5198842.9331   2965370.5670   1  22   0.0058   0.0099   0.0051  -0.0064   0.0059  -0.0042   0.00  999.9
2020/06/29 08:15:23.500  -2191127.7264   5198842.9321   2965370.5661   1  22   0.0058   0.0100   0.0051  -0.0064   0.0060  -0.0042   0.50  999.9
2020/06/29 08:15:24.000  -2191127.7282   5198842.9351   2965370.5683   1  21   0.0064   0.0104   0.0054  -0.0071   0.0064  -0.0047   0.00  999.9
2020/06/29 08:15:24.500  -2191127.7307   5198842.9379   2965370.5700   1  22   0.0065   0.0105   0.0054  -0.0071   0.0064  -0.0047   0.50  999.9
2020/06/29 08:15:25.000  -2191127.7288   5198842.9338   2965370.5679   1  22   0.0061   0.0102   0.0053  -0.0067   0.0062  -0.0045   0.00  999.9
2020/06/29 08:15:25.500  -2191127.7280   5198842.9337   2965370.5668   1  22   0.0060   0.0101   0.0052  -0.0066   0.0061  -0.0044   0.50  999.9
2020/06/29 08:15:26.000  -2191127.7276   5198842.9354   2965370.5694   1  22   0.0059   0.0100   0.0052  -0.0066   0.0060  -0.0043   0.00  999.9
2020/06/29 08:15:26.500  -2191127.7301   5198842.9354   2965370.5698   1  22   0.0059   0.0101   0.0052  -0.0066   0.0060  -0.0043   0.50  999.9
2020/06/29 08:15:27.000  -2191127.7270   5198842.9356   2965370.5687   1  21   0.0064   0.0104   0.0054  -0.0071   0.0064  -0.0047   0.00  999.9
2020/06/29 08:15:27.500  -2191127.7274   5198842.9348   2965370.5686   1  21   0.0065   0.0105   0.0054  -0.0071   0.0064  -0.0047   0.50  999.9
2020/06/29 08:15:28.000  -2191127.7306   5198842.9377   2965370.5704   1  22   0.0064   0.0104   0.0054  -0.0071   0.0064  -0.0047   0.00  999.9
2020/06/29 08:15:28.500  -2191127.7293   5198842.9356   2965370.5685   1  22   0.0061   0.0102   0.0053  -0.0068   0.0062  -0.0045   0.50  999.9
2020/06/29 08:15:29.000  -2191127.7275   5198842.9326   2965370.5677   1  22   0.0060   0.0101   0.0052  -0.0066   0.0061  -0.0044   0.00  999.9
2020/06/29 08:15:29.500  -2191127.7286   5198842.9350   2965370.5705   1  22   0.0060   0.0101   0.0052  -0.0066   0.0061  -0.0043   0.50  999.9
2020/06/29 08:15:30.000  -2191127.7288   5198842.9359   2965370.5704   1  22   0.0059   0.0100   0.0052  -0.0065   0.0060  -0.0043   0.00  999.9
2020/06/29 08:15:30.500  -2191127.7286   5198842.9357   2965370.5691   1  22   0.0059   0.0100   0.0052  -0.0065   0.0060  -0.0043   0.50  999.9
2020/06/29 08:15:31.000  -2191127.7273   5198842.9336   2965370.5681   1  22   0.0059   0.0100   0.0051  -0.0065   0.0060  -0.0042   0.00  999.9
2020/06/29 08:15:31.500  -2191127.7268   5198842.9334   2965370.5690   1  22   0.0059   0.0100   0.0052  -0.0065   0.0060  -0.0042   0.50  999.9
2020/06/29 08:15:32.000  -2191127.7292   5198842.9366   2965370.5696   1  22   0.0058   0.0100   0.0051  -0.0065   0.0060  -0.0042   0.00  999.9
2020/06/29 08:15:32.500  -2191127.7272   5198842.9323   2965370.5682   1  22   0.0059   0.0100   0.0052  -0.0065   0.0060  -0.0042   0.50  999.9
2020/06/29 08:15:33.000  -2191127.7274   5198842.9343   2965370.5686   1  22   0.0058   0.0100   0.0051  -0.0064   0.0060  -0.0042   0.00  999.9
2020/06/29 08:15:33.500  -2191127.7266   5198842.9330   2965370.5675   1  22   0.0058   0.0100   0.0051  -0.0065   0.0060  -0.0042   0.50  999.9
2020/06/29 08:15:34.000  -2191127.7264   5198842.9329   2965370.5686   1  22   0.0058   0.0099   0.0051  -0.0064   0.0060  -0.0042   0.00  999.9
2020/06/29 08:15:34.500  -2191127.7295   5198842.9384   2965370.5709   1  22   0.0058   0.0100   0.0051  -0.0065   0.0060  -0.0042   0.50  999.9
2020/06/29 08:15:35.000  -2191127.7264   5198842.9336   2965370.5685   1  22   0.0058   0.0099   0.0051  -0.0064   0.0060  -0.0042   0.00  999.9
2020/06/29 08:15:35.500  -2191127.7246   5198842.9302   2965370.5671   1  22   0.0058   0.0100   0.0051  -0.0064   0.0060  -0.0042   0.50  999.9
2020/06/29 08:15:36.000  -2191127.7274   5198842.9354   2965370.5687   1  22   0.0058   0.0099   0.0051  -0.0064   0.0059  -0.0042   0.00  999.9
2020/06/29 08:15:36.500  -2191127.7276   5198842.9360   2965370.5692   1  22   0.0058   0.0100   0.0051  -0.0064   0.0060  -0.0042   0.50  999.9
2020/06/29 08:15:37.000  -2191127.7266   5198842.9338   2965370.5680   1  22   0.0058   0.0099   0.0051  -0.0064   0.0059  -0.0042   0.00  999.9
2020/06/29 08:15:37.500  -2191127.7285   5198842.9379   2965370.5698   1  22   0.0058   0.0100   0.0051  -0.0064   0.0060  -0.0042   0.50  999.9
2020/06/29 08:15:38.000  -2191127.7297   5198842.9395   2965370.5703   1  22   0.0058   0.0099   0.0051  -0.0064   0.0059  -0.0042   0.00  999.9
2020/06/29 08:15:38.500  -2191127.7277   5198842.9354   2965370.5691   1  22   0.0058   0.0100   0.0051  -0.0064   0.0060  -0.0042   0.50  999.9
2020/06/29 08:15:39.000  -2191127.7279   5198842.9354   2965370.5696   1  22   0.0058   0.0099   0.0051  -0.0064   0.0059  -0.0042   0.00  999.9
2020/06/29 08:15:39.500  -2191127.7280   5198842.9348   2965370.5675   1  22   0.0058   0.0100   0.0051  -0.0064   0.0060  -0.0042   0.50  999.9
2020/06/29 08:15:40.000  -2191127.7267   5198842.9339   2965370.5681   1  22   0.0058   0.0099   0.0051  -0.0064   0.0059  -0.0042   0.00  999.9
2020/06/29 08:15:40.500  -2191127.7260   5198842.9335   2965370.5688   1  22   0.0058   0.0100   0.0051  -0.0064   0.0060  -0.0042   0.50  999.9
2020/06/29 08:15:41.000  -2191127.7259   5198842.9342   2965370.5692   1  22   0.0058   0.0099   0.0051  -0.0064   0.0059  -0.0042   0.00  999.9
2020/06/29 08:15:41.500  -2191127.7274   5198842.9324   2965370.5686   1  22   0.0058   0.0100   0.0051  -0.0064   0.0060  -0.0042   0.50  999.9
2020/06/29 08:15:42.000  -2191127.7278   5198842.9351   2965370.5689   1  22   0.0058   0.0099   0.0051  -0.0064   0.0059  -0.0042   0.00  999.9
2020/06/29 08:15:42.500  -2191127.7258   5198842.9336   2965370.5678   1  22   0.0058   0.0100   0.0051  -0.0064   0.0060  -0.0042   0.50  999.9
2020/06/29 08:15:43.000  -2191127.7267   5198842.9321   2965370.5670   1  22   0.0058   0.0099   0.0051  -0.0064   0.0059  -0.0042   0.00  999.9
2020/06/29 08:15:43.500  -2191127.7272   5198842.9337   2965370.5679   1  22   0.0058   0.0100   0.0051  -0.0064   0.0060  -0.0042   0.50  999.9
2020/06/29 08:15:44.000  -2191127.7275   5198842.9357   2965370.5694   1  22   0.0058   0.0099   0.0051  -0.0064   0.0059  -0.0042   0.00  999.9
2020/06/29 08:15:44.500  -2191127.7274   5198842.9335   2965370.5679   1  22   0.0058   0.0100   0.0051  -0.0064   0.0060  -0.0042   0.50  999.9
2020/06/29 08:15:45.000  -2191127.7293   5198842.9385   2965370.5712   1  22   0.0058   0.0099   0.0051  -0.0064   0.0059  -0.0042   0.00  999.9
2020/06/29 08:15:45.500  -2191127.7297   5198842.9369   2965370.5690   1  22   0.0058   0.0100   0.0051  -0.0064   0.0060  -0.0042   0.50  999.9
2020/06/29 08:15:46.000  -2191127.7284   5198842.9342   2965370.5695   1  22   0.0058   0.0099   0.0051  -0.0064   0.0059  -0.0042   0.00  999.9
2020/06/29 08:15:46.500  -2191127.7266   5198842.9348   2965370.5695   1  22   0.0058   0.0100   0.0051  -0.0064   0.0059  -0.0042   0.50  999.9
2020/06/29 08:15:47.000  -2191127.7275   5198842.9309   2965370.5677   1  22   0.0058   0.0099   0.0051  -0.0064   0.0059  -0.0042   0.00  999.9
2020/06/29 08:15:47.500  -2191127.7289   5198842.9344   2965370.5694   1  22   0.0058   0.0100   0.0051  -0.0064   0.0059  -0.0042   0.50  999.9
2020/06/29 08:15:48.000  -2191127.7295   5198842.9361   2965370.5691   1  22   0.0058   0.0099   0.0051  -0.0064   0.0059  -0.0042   0.00  999.9
2020/06/29 08:15:48.500  -2191127.7285   5198842.9351   2965370.5689   1  22   0.0058   0.0100   0.0051  -0.0064   0.0059  -0.0042   0.50  999.9
2020/06/29 08:15:49.000  -2191127.7294   5198842.9375   2965370.5688   1  22   0.0058   0.0099   0.0051  -0.0064   0.0059  -0.0042   0.00  999.9
2020/06/29 08:15:49.500  -2191127.7290   5198842.9370   2965370.5683   1  22   0.0058   0.0100   0.0051  -0.0064   0.0059  -0.0042   0.50  999.9
2020/06/29 08:15:50.000  -2191127.7265   5198842.9330   2965370.5679   1  22   0.0058   0.0099   0.0051  -0.0064   0.0059  -0.0042   0.00  999.9
2020/06/29 08:15:50.500  -2191127.7277   5198842.9342   2965370.5691   1  22   0.0058   0.0099   0.0051  -0.0064   0.0059  -0.0042   0.50  999.9
2020/06/29 08:15:51.000  -2191127.7293   5198842.9352   2965370.5686   1  22   0.0058   0.0099   0.0051  -0.0064   0.0059  -0.0042   0.00  999.9
2020/06/29 08:15:51.500  -2191127.7304   5198842.9360   2965370.5697   1  22   0.0058   0.0099   0.0051  -0.0064   0.0059  -0.0042   0.50  999.9
2020/06/29 08:15:52.000  -2191127.7285   5198842.9343   2965370.5686   1  22   0.0058   0.0099   0.0051  -0.0064   0.0059  -0.0042   0.00  999.9
2020/06/29 08:15:52.500  -2191127.7275   5198842.9320   2965370.5677   1  22   0.0058   0.0099   0.0051  -0.0064   0.0059  -0.0042   0.50  999.9
2020/06/29 08:15:53.000  -2191127.7258   5198842.9307   2965370.5680   1  22   0.0058   0.0099   0.0051  -0.0064   0.0059  -0.0042   0.00  999.9
2020/06/29 08:15:53.500  -2191127.7256   5198842.9303   2965370.5676   1  22   0.0058   0.0099   0.0051  -0.0064   0.0059  -0.0042   0.50  999.9
2020/06/29 08:15:54.000  -2191127.7269   5198842.9333   2965370.5685   1  22   0.0058   0.0099   0.0051  -0.0064   0.0059  -0.0042   0.00  999.9
2020/06/29 08:15:54.500  -2191127.7265   5198842.9293   2965370.5667   1  22   0.0058   0.0099   0.0051  -0.0064   0.0059  -0.0042   0.50  999.9
2020/06/29 08:15:55.000  -2191127.7277   5198842.9329   2965370.5669   1  22   0.0058   0.0099   0.0051  -0.0064   0.0059  -0.0042   0.00  999.9
2020/06/29 08:15:55.500  -2191127.7267   5198842.9294   2965370.5668   1  22   0.0058   0.0099   0.0051  -0.0064   0.0059  -0.0042   0.50  999.9
2020/06/29 08:15:56.000  -2191127.7271   5198842.9322   2965370.5664   1  22   0.0058   0.0099   0.0051  -0.0064   0.0059  -0.0042   0.00  999.9
2020/06/29 08:15:56.500  -2191127.7256   5198842.9310   2965370.5663   1  22   0.0058   0.0099   0.0051  -0.0064   0.0059  -0.0042   0.50  999.9
2020/06/29 08:15:57.000  -2191127.7263   5198842.9305   2965370.5661   1  22   0.0058   0.0099   0.0051  -0.0064   0.0059  -0.0042   0.00  999.9
2020/06/29 08:15:57.500  -2191127.7266   5198842.9321   2965370.5673   1  22   0.0058   0.0099   0.0051  -0.0064   0.0059  -0.0042   0.50  999.9
2020/06/29 08:15:58.000  -2191127.7263   5198842.9316   2965370.5660   1  22   0.0058   0.0099   0.0051  -0.0064   0.0059  -0.0041   0.00  999.9
2020/06/29 08:15:58.500  -2191127.7263   5198842.9312   2965370.5660   1  22   0.0058   0.0099   0.0051  -0.0064   0.0059  -0.0042   0.50  999.9
2020/06/29 08:15:59.000  -2191127.7267   5198842.9320   2965370.5663   1  22   0.0058   0.0099   0.0051  -0.0064   0.0059  -0.0041   0.00  999.9
2020/06/29 08:15:59.500  -2191127.7243   5198842.9294   2965370.5660   1  22   0.0058   0.0099   0.0051  -0.0064   0.0059  -0.0042   0.50  999.9
2020/06/29 08:16:00.000  -2191127.7273   5198842.9330   2965370.5684   1  22   0.0058   0.0099   0.0051  -0.0064   0.0059  -0.0041   0.00  999.9
2020/06/29 08:16:00.500  -2191127.7285   5198842.9330   2965370.5674   1  22   0.0058   0.0099   0.0051  -0.0064   0.0059  -0.0042   0.50  999.9
2020/06/29 08:16:01.000  -2191127.7255   5198842.9312   2965370.5672   1  22   0.0058   0.0099   0.0051  -0.0064   0.0059  -0.0041   0.00  999.9
2020/06/29 08:16:01.500  -2191127.7238   5198842.9308   2965370.5663   1  22   0.0058   0.0099   0.0051  -0.0064   0.0059  -0.0042   0.50  999.9
2020/06/29 08:16:02.000  -2191127.7239   5198842.9287   2965370.5660   1  22   0.0058   0.0099   0.0051  -0.0064   0.0059  -0.0041   0.00  999.9
2020/06/29 08:16:02.500  -2191127.7244   5198842.9284   2965370.5650   1  22   0.0058   0.0099   0.0051  -0.0064   0.0059  -0.0042   0.50  999.9
2020/06/29 08:16:03.000  -2191127.7279   5198842.9328   2965370.5677   1  22   0.0058   0.0099   0.0051  -0.0064   0.0059  -0.0041   0.00  999.9
2020/06/29 08:16:03.500  -2191127.7279   5198842.9335   2965370.5678   1  22   0.0058   0.0099   0.0051  -0.0064   0.0059  -0.0042   0.50  999.9
2020/06/29 08:16:04.000  -2191127.7276   5198842.9357   2965370.5696   1  22   0.0058   0.0099   0.0051  -0.0064   0.0059  -0.0041   0.00  999.9
2020/06/29 08:16:04.500  -2191127.7286   5198842.9378   2965370.5704   1  22   0.0058   0.0099   0.0051  -0.0064   0.0059  -0.0042   0.50  999.9
2020/06/29 08:16:05.000  -2191127.7261   5198842.9302   2965370.5667   1  22   0.0058   0.0099   0.0051  -0.0064   0.0059  -0.0041   0.00  999.9
2020/06/29 08:16:05.500  -2191127.7258   5198842.9295   2965370.5665   1  22   0.0058   0.0099   0.0051  -0.0064   0.0059  -0.0042   0.50  999.9
2020/06/29 08:16:06.000  -2191127.7263   5198842.9321   2965370.5677   1  22   0.0058   0.0099   0.0051  -0.0064   0.0059  -0.0041   0.00  999.9
2020/06/29 08:16:06.500  -2191127.7255   5198842.9303   2965370.5674   1  22   0.0058   0.0099   0.0051  -0.0064   0.0059  -0.0042   0.50  999.9
2020/06/29 08:16:07.000  -2191127.7251   5198842.9301   2965370.5662   1  22   0.0058   0.0099   0.0051  -0.0064   0.0059  -0.0041   0.00  999.9
2020/06/29 08:16:07.500  -2191127.7266   5198842.9305   2965370.5677   1  22   0.0058   0.0099   0.0051  -0.0064   0.0059  -0.0042   0.50  999.9
2020/06/29 08:16:08.000  -2191127.7274   5198842.9327   2965370.5676   1  22   0.0058   0.0099   0.0051  -0.0064   0.0059  -0.0041   0.00  999.9
2020/06/29 08:16:08.500  -2191127.7284   5198842.9314   2965370.5692   1  22   0.0058   0.0099   0.0051  -0.0064   0.0059  -0.0042   0.50  999.9
2020/06/29 08:16:09.000  -2191127.7245   5198842.9306   2965370.5660   1  22   0.0058   0.0099   0.0051  -0.0064   0.0059  -0.0041   0.00  999.9
2020/06/29 08:16:09.500  -2191127.7270   5198842.9310   2965370.5678   1  22   0.0058   0.0099   0.0051  -0.0064   0.0059  -0.0042   0.50  999.9
2020/06/29 08:16:10.000  -2191127.7246   5198842.9309   2965370.5659   1  22   0.0058   0.0099   0.0051  -0.0064   0.0059  -0.0041   0.00  999.9
2020/06/29 08:16:10.500  -2191127.7257   5198842.9314   2965370.5659   1  22   0.0058   0.0099   0.0051  -0.0064   0.0059  -0.0042   0.50  999.9
2020/06/29 08:16:11.000  -2191127.7260   5198842.9320   2965370.5671   1  22   0.0058   0.0099   0.0051  -0.0064   0.0059  -0.0041   0.00  999.9
2020/06/29 08:16:11.500  -2191127.7246   5198842.9280   2965370.5649   1  22   0.0058   0.0099   0.0051  -0.0064   0.0059  -0.0042   0.50  999.9
2020/06/29 08:16:12.000  -2191127.7245   5198842.9302   2965370.5653   1  22   0.0058   0.0099   0.0051  -0.0064   0.0059  -0.0041   0.00  999.9
2020/06/29 08:16:12.500  -2191127.7253   5198842.9317   2965370.5663   1  22   0.0058   0.0099   0.0051  -0.0064   0.0059  -0.0042   0.50  999.9
2020/06/29 08:16:13.000  -2191127.7251   5198842.9294   2965370.5661   1  22   0.0058   0.0099   0.0051  -0.0064   0.0059  -0.0041   0.00  999.9
2020/06/29 08:16:13.500  -2191127.7261   5198842.9318   2965370.5665   1  22   0.0058   0.0099   0.0051  -0.0064   0.0059  -0.0042   0.50  999.9
2020/06/29 08:16:14.000  -2191127.7261   5198842.9318   2965370.5681   1  22   0.0058   0.0099   0.0051  -0.0064   0.0059  -0.0041   0.00  999.9
2020/06/29 08:16:14.500  -2191127.7273   5198842.9328   2965370.5673   1  22   0.0058   0.0099   0.0051  -0.0064   0.0059  -0.0042   0.50  999.9
2020/06/29 08:16:15.000  -2191127.7297   5198842.9349   2965370.5687   1  22   0.0058   0.0099   0.0051  -0.0064   0.0059  -0.0041   0.00  999.9
2020/06/29 08:16:15.500  -2191127.7291   5198842.9365   2965370.5685   1  22   0.0058   0.0099   0.0051  -0.0064   0.0059  -0.0042   0.50  999.9
2020/06/29 08:16:16.000  -2191127.7255   5198842.9337   2965370.5666   1  22   0.0058   0.0099   0.0051  -0.0064   0.0059  -0.0041   0.00  999.9
2020/06/29 08:16:16.500  -2191127.7270   5198842.9336   2965370.5678   1  22   0.0058   0.0099   0.0051  -0.0064   0.0059  -0.0042   0.50  999.9
2020/06/29 08:16:17.000  -2191127.7255   5198842.9305   2965370.5662   1  22   0.0058   0.0099   0.0051  -0.0064   0.0059  -0.0041   0.00  999.9
2020/06/29 08:16:17.500  -2191127.7247   5198842.9282   2965370.5652   1  22   0.0058   0.0099   0.0051  -0.0064   0.0059  -0.0042   0.50  999.9
2020/06/29 08:16:18.000  -2191127.7268   5198842.9308   2965370.5663   1  22   0.0058   0.0099   0.0051  -0.0064   0.0059  -0.0041   0.00  999.9
2020/06/29 08:16:18.500  -2191127.7257   5198842.9312   2965370.5665   1  22   0.0058   0.0099   0.0051  -0.0064   0.0059  -0.0042   0.50  999.9
2020/06/29 08:16:19.000  -2191127.7270   5198842.9337   2965370.5692   1  22   0.0058   0.0099   0.0051  -0.0064   0.0059  -0.0041   0.00  999.9
2020/06/29 08:16:19.500  -2191127.7262   5198842.9336   2965370.5683   1  22   0.0058   0.0099   0.0051  -0.0064   0.0059  -0.0042   0.50  999.9
2020/06/29 08:16:20.000  -2191127.7244   5198842.9294   2965370.5656   1  22   0.0058   0.0099   0.0051  -0.0064   0.0059  -0.0041   0.00  999.9
2020/06/29 08:16:20.500  -2191127.7240   5198842.9312   2965370.5667   1  22   0.0058   0.0099   0.0051  -0.0064   0.0059  -0.0042   0.50  999.9
2020/06/29 08:16:21.000  -2191127.7279   5198842.9340   2965370.5685   1  22   0.0058   0.0099   0.0051  -0.0064   0.0059  -0.0041   0.00  999.9
2020/06/29 08:16:21.500  -2191127.7290   5198842.9346   2965370.5691   1  22   0.0058   0.0099   0.0051  -0.0064   0.0059  -0.0041   0.50  999.9
2020/06/29 08:16:22.000  -2191127.7248   5198842.9307   2965370.5659   1  22   0.0058   0.0099   0.0051  -0.0064   0.0059  -0.0041   0.00  999.9
2020/06/29 08:16:22.500  -2191127.7266   5198842.9316   2965370.5667   1  22   0.0058   0.0099   0.0051  -0.0064   0.0059  -0.0041   0.50  999.9
2020/06/29 08:16:23.000  -2191127.7255   5198842.9313   2965370.5667   1  22   0.0058   0.0099   0.0051  -0.0064   0.0059  -0.0041   0.00  999.9
2020/06/29 08:16:23.500  -2191127.7259   5198842.9316   2965370.5671   1  22   0.0058   0.0099   0.0051  -0.0064   0.0059  -0.0041   0.50  999.9
2020/06/29 08:16:24.000  -2191127.7269   5198842.9335   2965370.5660   1  22   0.0058   0.0099   0.0051  -0.0064   0.0059  -0.0041   0.00  999.9
2020/06/29 08:16:24.500  -2191127.7257   5198842.9317   2965370.5671   1  22   0.0058   0.0099   0.0051  -0.0064   0.0059  -0.0041   0.50  999.9
2020/06/29 08:16:25.000  -2191127.7292   5198842.9357   2965370.5692   1  22   0.0058   0.0099   0.0051  -0.0064   0.0059  -0.0041   0.00  999.9
2020/06/29 08:16:25.500  -2191127.7290   5198842.9364   2965370.5695   1  22   0.0058   0.0099   0.0051  -0.0064   0.0059  -0.0041   0.50  999.9
2020/06/29 08:16:26.000  -2191127.7285   5198842.9373   2965370.5688   1  22   0.0058   0.0099   0.0051  -0.0064   0.0059  -0.0041   0.00  999.9
2020/06/29 08:16:26.500  -2191127.7276   5198842.9330   2965370.5670   1  22   0.0058   0.0099   0.0051  -0.0064   0.0059  -0.0041   0.50  999.9
2020/06/29 08:16:27.000  -2191127.7269   5198842.9322   2965370.5666   1  22   0.0058   0.0099   0.0051  -0.0064   0.0059  -0.0041   0.00  999.9
2020/06/29 08:16:27.500  -2191127.7274   5198842.9334   2965370.5684   1  22   0.0058   0.0099   0.0051  -0.0064   0.0059  -0.0041   0.50  999.9
2020/06/29 08:16:28.000  -2191127.7269   5198842.9307   2965370.5663   1  22   0.0058   0.0099   0.0051  -0.0064   0.0059  -0.0041   0.00  999.9
2020/06/29 08:16:28.500  -2191127.7270   5198842.9311   2965370.5661   1  22   0.0058   0.0099   0.0051  -0.0064   0.0059  -0.0041   0.50  999.9
2020/06/29 08:16:29.000  -2191127.7263   5198842.9325   2965370.5669   1  22   0.0058   0.0099   0.0051  -0.0064   0.0059  -0.0041   0.00  999.9
2020/06/29 08:16:29.500  -2191127.7264   5198842.9344   2965370.5681   1  22   0.0058   0.0099   0.0051  -0.0064   0.0059  -0.0041   0.50  999.9
2020/06/29 08:16:30.000  -2191127.7256   5198842.9308   2965370.5669   1  22   0.0058   0.0099   0.0051  -0.0064   0.0059  -0.0041   0.00  999.9
2020/06/29 08:16:30.500  -2191127.7245   5198842.9277   2965370.5655   1  22   0.0058   0.0099   0.0051  -0.0064   0.0059  -0.0041   0.50  999.9
2020/06/29 08:16:31.000  -2191127.7273   5198842.9331   2965370.5667   1  22   0.0064   0.0104   0.0054  -0.0071   0.0064  -0.0047   0.00  999.9
2020/06/29 08:16:31.500  -2191127.7268   5198842.9324   2965370.5672   1  22   0.0061   0.0102   0.0052  -0.0067   0.0061  -0.0044   0.50  999.9
2020/06/29 08:16:32.000  -2191127.7284   5198842.9338   2965370.5679   1  22   0.0060   0.0100   0.0052  -0.0066   0.0060  -0.0043   0.00  999.9
2020/06/29 08:16:32.500  -2191127.7276   5198842.9319   2965370.5673   1  22   0.0060   0.0100   0.0052  -0.0066   0.0060  -0.0043   0.50  999.9
2020/06/29 08:16:33.000  -2191127.7300   5198842.9346   2965370.5681   1  22   0.0059   0.0100   0.0051  -0.0065   0.0060  -0.0042   0.00  999.9
2020/06/29 08:16:33.500  -2191127.7286   5198842.9305   2965370.5666   1  22   0.0059   0.0100   0.0051  -0.0065   0.0060  -0.0042   0.50  999.9
2020/06/29 08:16:34.000  -2191127.7273   5198842.9320   2965370.5664   1  22   0.0059   0.0099   0.0051  -0.0065   0.0059  -0.0042   0.00  999.9
2020/06/29 08:16:34.500  -2191127.7277   5198842.9308   2965370.5661   1  22   0.0059   0.0100   0.0051  -0.0065   0.0060  -0.0042   0.50  999.9
2020/06/29 08:16:35.000  -2191127.7284   5198842.9348   2965370.5682   1  22   0.0058   0.0099   0.0051  -0.0064   0.0059  -0.0042   0.00  999.9
2020/06/29 08:16:35.500  -2191127.7265   5198842.9330   2965370.5673   1  22   0.0059   0.0100   0.0051  -0.0065   0.0060  -0.0042   0.50  999.9
2020/06/29 08:16:36.000  -2191127.7282   5198842.9353   2965370.5685   1  22   0.0058   0.0099   0.0051  -0.0064   0.0059  -0.0042   0.00  999.9
2020/06/29 08:16:36.500  -2191127.7262   5198842.9305   2965370.5689   1  22   0.0058   0.0100   0.0051  -0.0064   0.0059  -0.0042   0.50  999.9
2020/06/29 08:16:37.000  -2191127.7277   5198842.9321   2965370.5675   1  22   0.0058   0.0099   0.0051  -0.0064   0.0059  -0.0042   0.00  999.9
2020/06/29 08:16:37.500  -2191127.7278   5198842.9329   2965370.5676   1  22   0.0058   0.0099   0.0051  -0.0064   0.0059  -0.0042   0.50  999.9
2020/06/29 08:16:38.000  -2191127.7288   5198842.9350   2965370.5681   1  22   0.0058   0.0099   0.0051  -0.0064   0.0059  -0.0042   0.00  999.9
