     3.02           OBSERVATION DATA    M: Mixed            RINEX VERSION / TYPE
RTKCONV 2.4.3 b33                       20200629 085147 UTC PGM / RUN BY / DATE 
log: D:\Documents\测试数据\单个方向水平移动天线位置\base_2  COMMENT             
format: u-blox                                              COMMENT             
                                                            MARKER NAME         
                                                            MARKER NUMBER       
                                                            MARKER TYPE         
                                                            OBSERVER / AGENCY   
                                                            REC # / TYPE / VERS 
                                                            ANT # / TYPE        
 -2191132.3079  5198841.0324  2965376.2915                  APPROX POSITION XYZ 
        0.0000        0.0000        0.0000                  ANTENNA: DELTA H/E/N
G    4 C1C L1C D1C S1C                                      SYS / # / OBS TYPES 
C    4 C1I L1I D1I S1I                                      SYS / # / OBS TYPES 
  2020     6    29     8    13   16.0000000     GPS         TIME OF FIRST OBS   
  2020     6    29     8    38   11.0000000     GPS         TIME OF LAST OBS    
G                                                           SYS / PHASE SHIFT   
C                                                           SYS / PHASE SHIFT   
  0                                                         GLONASS SLOT / FRQ #
 C1C    0.000 C1P    0.000 C2C    0.000 C2P    0.000        GLONASS COD/PHS/BIS 
                                                            END OF HEADER       
> 2020  6 29  8 13 16.0000000  0 23                     
C21  22003839.547   -16277953.5352       1489.814          48.000  
C16  38765382.110   -16327899.1812       2032.900          38.250  
G17  22879236.587    -4827329.069       -2430.801          39.500  
G 9  23324053.369   -16992462.845       -1318.105          42.250  
C 6  38098277.971   -17299981.2532       1896.543          37.000  
C11  25966908.359    -5795255.3512       3105.771          38.500  
G25  23787919.550    -7634969.537         967.881          38.250  
C 8  37062401.440    -2394827.1812        486.699          44.750  
C 7  38928212.944     9192300.9652      -1253.955          33.500  
C10  37970051.930     2657205.8862      -1275.088          36.750  
C 3  36304503.011    -6888999.0222        342.939          42.500  
C13  37078520.856    -6719597.5152        449.854          44.750  
C 2  37300448.895    -7342754.2632        383.535          38.250  
C 1  37738745.595    -6488658.5612        348.291          41.250  
C 4  38677278.107    -6496003.8022        332.539          38.250  
G 2  21796472.349   -22970730.524        1026.768          47.750  
C 5  39355324.465    -7110688.8622        373.369          35.750  
C12  22069730.082   -25812106.5742       1826.523          47.000  
G19  21633562.744   -18618559.543       -2050.381          43.250  
G 6  21900761.757   -21354235.248        -577.139          46.500  
C22  22816082.648   -27454582.2252      -1503.467          50.000  
G12  22385470.094   -17294024.687        -444.941          43.000  
G 5  20705656.215   -27995101.601        1507.363          45.000  
> 2020  6 29  8 13 17.0000000  0 23                     
C21  22003553.220   -16279442.9592       1489.219          48.000  
C16  38764991.831   -16329931.9942       2032.715          38.250  
G17  22879699.331    -4824897.954       -2431.260          39.750  
G 9  23324304.045   -16991144.317       -1318.779          42.250  
C 6  38097913.846   -17301877.6762       1896.309          37.000  
C11  25966311.836    -5798361.1522       3105.762          38.500  
G25  23787735.324    -7635936.945         967.188          38.000  
C 8  37062307.967    -2395313.9222        486.689          44.750  
C 7  38928453.596     9193554.8372      -1253.887          33.750  
C10  37970296.831     2658481.1502      -1275.264          36.750  
C 3  36304437.355    -6889341.8902        342.803          42.500  
C13  37078434.560    -6720047.3712        449.785          44.750  
C 2  37300375.346    -7343137.7692        383.447          38.250  
C 1  37738678.773    -6489006.7912        348.174          41.500  
C 4  38677214.296    -6496336.2662        332.334          38.250  
G 2  21796277.016   -22971757.234        1026.650          47.750  
C 5  39355252.522    -7111062.2542        373.281          35.750  
C12  22069379.332   -25813932.8822       1826.191          47.000  
G19  21633952.805   -18616508.847       -2050.898          43.250  
G 6  21900871.706   -21353658.016        -577.324          46.500  
C22  22816371.431   -27453078.4482      -1503.955          50.000  
G12  22385554.981   -17293579.317        -445.605          43.000  
G 5  20705369.347   -27996608.548        1506.738          45.250  
> 2020  6 29  8 13 18.0000000  0 23                     
C21  22003267.328   -16280931.7832       1488.633          47.750  
C16  38764601.775   -16331964.6592       2032.695          38.250  
G17  22880161.993    -4822466.378       -2431.748          39.500  
G 9  23324555.193   -16989825.145       -1319.395          42.250  
C 6  38097549.604   -17303773.9272       1896.230          37.000  
C11  25965715.493    -5801466.9182       3105.752          38.500  
G25  23787551.106    -7636903.643         966.514          38.000  
C 8  37062214.674    -2395800.6302        486.729          44.750  
C 7  38928694.357     9194808.8222      -1253.945          33.750  
C10  37970541.579     2659756.6192      -1275.488          36.750  
C 3  36304371.362    -6889684.6552        342.695          42.500  
C13  37078348.308    -6720497.1682        449.795          44.750  
C 2  37300301.654    -7343521.1282        383.301          38.500  
C 1  37738611.887    -6489354.9122        348.076          41.250  
C 4  38677150.367    -6496668.6252        332.334          38.250  
G 2  21796081.526   -22972783.780        1026.484          47.750  
C 5  39355180.767    -7111435.4842        373.174          35.750  
C12  22069028.574   -25815758.8292       1825.830          46.750  
G19  21634343.227   -18614457.584       -2051.465          43.250  
G 6  21900981.450   -21353080.536        -577.578          46.500  
C22  22816660.477   -27451574.2022      -1504.395          50.000  
G12  22385639.815   -17293133.248        -446.270          42.750  
G 5  20705082.805   -27998114.894        1506.191          45.250  
> 2020  6 29  8 13 19.0000000  0 23                     
C21  22002981.590   -16282420.1392       1488.311          47.750  
C16  38764211.292   -16333997.2982       2032.744          38.250  
G17  22880624.856    -4820034.454       -2431.885          39.750  
G 9  23324806.507   -16988505.428       -1319.785          42.250  
C 6  38097185.361   -17305670.1292       1896.299          37.000  
C11  25965118.896    -5804572.7632       3105.986          38.500  
G25  23787366.810    -7637869.769         966.094          37.500  
C 8  37062121.137    -2396287.4372        486.953          44.750  
C 7  38928935.235     9196062.7782      -1253.779          33.750  
C10  37970786.550     2661032.0862      -1275.430          36.750  
C 3  36304305.597    -6890027.4172        342.900          42.500  
C13  37078262.056    -6720947.0942        450.059          44.750  
C 2  37300228.119    -7343904.5182        383.467          38.500  
C 1  37738544.965    -6489703.0222        348.232          41.250  
C 4  38677086.490    -6497000.9962        332.500          38.250  
G 2  21795886.118   -22973810.310        1026.631          47.500  
C 5  39355109.199    -7111808.7612        373.340          36.000  
C12  22068678.056   -25817584.5412       1825.762          46.750  
G19  21634733.876   -18612405.896       -2051.670          43.250  
G 6  21901091.204   -21352502.976        -577.471          46.500  
C22  22816949.247   -27450069.5922      -1504.580          50.000  
G12  22385724.575   -17292686.615        -446.621          42.750  
G 5  20704796.343   -27999620.767        1505.859          45.250  
> 2020  6 29  8 13 20.0000000  0 23                     
C21  22002695.755   -16283908.0082       1487.773          47.750  
C16  38763820.865   -16336029.9122       2032.676          38.000  
G17  22881087.505    -4817602.169       -2432.295          39.750  
G 9  23325057.476   -16987185.132       -1320.400          42.250  
C 6  38096821.214   -17307566.2952       1896.172          37.000  
C11  25964522.513    -5807678.6612       3105.977          38.500  
G25  23787183.125    -7638835.297         965.371          37.500  
C 8  37062027.809    -2396774.3432        486.982          44.500  
C 7  38929176.039     9197316.7312      -1253.828          33.750  
C10  37971031.468     2662307.6672      -1275.586          36.750  
C 3  36304239.927    -6890370.1702        342.812          42.500  
C13  37078175.494    -6721397.1072        450.039          44.750  
C 2  37300154.466    -7344287.8442        383.428          38.250  
C 1  37738478.057    -6490051.1292        348.164          41.250  
C 4  38677022.574    -6497333.3412        332.363          38.000  
G 2  21795690.806   -22974836.781        1026.504          47.500  
C 5  39355037.618    -7112181.9962        373.359          36.000  
C12  22068327.499   -25819409.9972       1825.410          47.000  
G19  21635124.626   -18610353.741       -2052.236          43.250  
G 6  21901201.009   -21351925.279        -577.676          46.500  
C22  22817238.293   -27448564.6042      -1505.039          50.000  
G12  22385809.505   -17292239.390        -447.295          42.500  
G 5  20704510.150   -28001126.148        1505.283          45.250  
> 2020  6 29  8 13 21.0000000  0 23                     
C21  22002410.073   -16285395.5072       1487.432          47.750  
C16  38763430.355   -16338062.5872       2032.695          38.000  
G17  22881550.542    -4815169.662       -2432.490          39.750  
G 9  23325308.654   -16985864.427       -1320.820          42.000  
C 6  38096457.194   -17309462.5432       1896.270          37.000  
C11  25963926.095    -5810784.7342       3106.221          38.250  
G25  23786999.605    -7639800.366         964.902          37.500  
C 8  37061934.319    -2397261.4492        487.217          44.750  
C 7  38929416.957     9198570.5432      -1253.789          33.750  
C10  37971276.286     2663583.1512      -1275.498          36.500  
C 3  36304173.983    -6890713.0252        342.871          42.500  
C13  37078088.958    -6721847.2962        450.273          44.750  
C 2  37300080.931    -7344671.3232        383.486          38.250  
C 1  37738411.288    -6490399.3682        348.320          41.250  
C 4  38676958.624    -6497665.8062        332.559          38.000  
G 2  21795495.582   -22975863.336        1026.602          47.750  
C 5  39354965.728    -7112555.4002        373.506          35.750  
C12  22067976.985   -25821235.3452       1825.342          46.750  
G19  21635515.358   -18608301.261       -2052.549          43.500  
G 6  21901310.705   -21351347.576        -577.666          46.500  
C22  22817527.421   -27447059.3712      -1505.283          50.000  
G12  22385894.357   -17291791.692        -447.803          42.500  
G 5  20704223.862   -28002631.165        1504.951          45.250  
> 2020  6 29  8 13 22.0000000  0 23                     
C21  22002124.422   -16286882.5492       1486.934          47.750  
C16  38763040.020   -16340095.2632       2032.686          38.250  
G17  22882013.523    -4812736.807       -2432.920          39.750  
G 9  23325560.182   -16984543.190       -1321.387          42.000  
C 6  38096092.973   -17311358.7372       1896.230          37.000  
C11  25963329.738    -5813890.9132       3106.201          38.500  
G25  23786816.011    -7640764.867         964.414          37.500  
C 8  37061840.563    -2397748.6672        487.314          44.750  
C 7  38929657.713     9199824.2992      -1253.623          34.000  
C10  37971521.226     2664858.6582      -1275.459          36.500  
C 3  36304108.135    -6891055.9142        342.930          42.500  
C13  37078002.405    -6722297.5992        450.342          44.750  
C 2  37300007.064    -7345054.8292        383.525          38.250  
C 1  37738344.405    -6490747.6152        348.301          41.250  
C 4  38676894.738    -6497998.2902        332.588          37.750  
G 2  21795299.956   -22976889.873        1026.582          47.500  
C 5  39354893.955    -7112928.7572        373.428          35.750  
C12  22067626.432   -25823060.4742       1825.117          47.000  
G19  21635905.964   -18606248.364       -2052.979          43.250  
G 6  21901420.747   -21350769.814        -577.725          46.500  
C22  22817816.602   -27445553.7972      -1505.645          50.000  
G12  22385979.479   -17291343.462        -448.369          42.500  
G 5  20703937.299   -28004135.714        1504.453          45.250  
> 2020  6 29  8 13 23.0000000  0 23                     
C21  22001839.120   -16288369.0822       1486.416          47.750  
C16  38762649.615   -16342127.8582       2032.500          38.000  
G17  22882476.368    -4810303.577       -2433.311          39.750  
G 9  23325811.705   -16983221.388       -1321.982          42.000  
C 6  38095728.774   -17313254.8942       1896.162          36.750  
C11  25962733.281    -5816997.1182       3106.260          38.250  
G25  23786632.453    -7641728.743         963.701          37.500  
C 8  37061747.035    -2398235.9472        487.344          44.500  
C 7  38929898.383     9201078.1212      -1253.643          34.000  
C10  37971766.279     2666134.2812      -1275.615          36.500  
C 3  36304042.461    -6891398.7612        342.861          42.500  
C13  37077915.909    -6722747.9482        450.400          44.750  
C 2  37299933.350    -7345438.2872        383.486          38.250  
C 1  37738277.532    -6491095.8432        348.262          41.250  
C 4  38676830.871    -6498330.7362        332.432          38.000  
G 2  21795104.593   -22977916.342        1026.484          47.500  
C 5  39354822.069    -7113302.1002        373.369          35.750  
C12  22067275.708   -25824885.3302       1824.795          47.000  
G19  21636296.556   -18604194.988       -2053.486          43.250  
G 6  21901530.709   -21350191.887        -577.939          46.250  
C22  22818105.717   -27444047.8302      -1506.064          50.000  
G12  22386065.085   -17290894.611        -448.994          42.500  
G 5  20703651.085   -28005639.759        1503.906          45.250  
> 2020  6 29  8 13 24.0000000  0 23                     
C21  22001553.595   -16289855.0742       1485.781          47.750  
C16  38762259.332   -16344160.3912       2032.471          38.250  
G17  22882939.514    -4807869.952       -2433.818          39.750  
G 9  23326063.363   -16981898.977       -1322.656          42.000  
C 6  38095364.753   -17315150.9082       1896.006          36.750  
C11  25962136.793    -5820103.3432       3106.191          38.500  
G25  23786449.016    -7642691.999         963.027          37.750  
C 8  37061653.301    -2398723.2652        487.295          44.750  
C 7  38930138.990     9202331.9282      -1253.945          34.000  
C10  37972011.053     2667409.9662      -1275.781          36.500  
C 3  36303976.704    -6891741.5592        342.744          42.500  
C13  37077829.557    -6723198.3342        450.322          44.750  
C 2  37299859.736    -7345821.6822        383.340          38.500  
C 1  37738210.628    -6491443.9862        348.145          41.250  
C 4  38676767.138    -6498663.1292        332.334          38.000  
G 2  21794909.107   -22978942.727        1026.318          47.750  
C 5  39354750.462    -7113675.4082        373.184          36.000  
C12  22066925.513   -25826709.8982       1824.424          47.000  
G19  21636686.996   -18602141.116       -2054.033          43.500  
G 6  21901640.624   -21349613.806        -578.145          46.250  
C22  22818395.028   -27442541.4402      -1506.533          50.000  
G12  22386150.605   -17290445.124        -449.707          42.500  
G 5  20703365.028   -28007143.269        1503.330          45.250  
> 2020  6 29  8 13 25.0000000  0 23                     
C21  22001268.196   -16291340.4552       1485.332          47.750  
C16  38761869.132   -16346192.7512       2032.412          38.250  
G17  22883402.839    -4805435.835       -2434.121          39.750  
G 9  23326315.196   -16980575.890       -1323.105          42.000  
C 6  38095000.498   -17317046.7562       1895.898          36.750  
C11  25961540.262    -5823209.5222       3106.318          38.500  
G25  23786265.653    -7643654.527         962.510          37.500  
C 8  37061559.641    -2399210.5382        487.402          44.750  
C 7  38930379.878     9203585.8792      -1253.965          34.000  
C10  37972256.024     2668685.8552      -1275.781          36.500  
C 3  36303910.869    -6892084.1952        342.715          42.500  
C13  37077742.938    -6723648.6582        450.420          44.750  
C 2  37299786.092    -7346204.9592        383.398          38.500  
C 1  37738143.942    -6491792.0132        348.086          41.500  
C 4  38676703.384    -6498995.3682        332.314          38.250  
G 2  21794713.983   -22979968.929        1026.270          47.500  
C 5  39354678.877    -7114048.5532        373.223          36.000  
C12  22066575.370   -25828534.0902       1824.180          46.750  
G19  21637078.047   -18600086.671       -2054.492          43.500  
G 6  21901750.403   -21349035.471        -578.271          46.250  
C22  22818684.379   -27441034.5552      -1506.914          50.000  
G12  22386236.250   -17289994.942        -450.264          42.500  
G 5  20703079.049   -28008646.154        1502.822          45.000  
> 2020  6 29  8 13 26.0000000  0 23                     
C21  22000983.165   -16292825.6212       1484.951          47.750  
C16  38761478.662   -16348225.3412       2032.490          38.250  
G17  22883866.334    -4803001.627       -2434.385          39.750  
G 9  23326567.046   -16979252.508       -1323.623          41.750  
C 6  38094636.185   -17318942.8212       1895.977          36.750  
C11  25960943.700    -5826315.9982       3106.416          38.500  
G25  23786082.413    -7644616.736         961.904          37.250  
C 8  37061465.981    -2399698.1902        487.598          44.750  
C 7  38930620.625     9204839.5132      -1253.701          33.750  
C10  37972501.138     2669961.5452      -1275.723          36.500  
C 3  36303845.073    -6892427.1112        342.871          42.500  
C13  37077656.559    -6724099.3282        450.615          44.750  
C 2  37299712.652    -7346588.4892        383.477          38.250  
C 1  37738077.216    -6492140.3022        348.193          41.250  
C 4  38676639.385    -6499327.9002        332.441          38.250  
G 2  21794518.645   -22980995.369        1026.348          47.500  
C 5  39354607.183    -7114421.9962        373.369          36.000  
C12  22066225.066   -25830358.3042       1824.023          46.750  
G19  21637469.172   -18598032.040       -2054.854          43.250  
G 6  21901860.566   -21348457.289        -578.311          46.250  
C22  22818973.730   -27439527.5682      -1507.148          50.000  
G12  22386322.053   -17289544.441        -450.771          42.500  
G 5  20702793.088   -28010148.829        1502.451          45.250  
> 2020  6 29  8 13 27.0000000  0 23                     
C21  22000697.993   -16294310.2332       1484.541          47.750  
C16  38761088.213   -16350257.8332       2032.520          38.250  
G17  22884329.546    -4800566.993       -2434.648          39.750  
G 9  23326818.936   -16977928.519       -1324.092          42.000  
C 6  38094272.322   -17320838.7742       1896.055          36.750  
C11  25960347.151    -5829422.4922       3106.611          38.500  
G25  23785899.604    -7645578.294         961.406          37.250  
C 8  37061372.317    -2400185.8512        487.744          44.750  
C 7  38930861.377     9206093.2392      -1253.604          34.000  
C10  37972746.074     2671237.3602      -1275.752          36.500  
C 3  36303779.263    -6892769.9352        342.861          42.500  
C13  37077569.884    -6724549.9922        450.771          44.750  
C 2  37299639.239    -7346971.9392        383.555          38.500  
C 1  37738010.295    -6492488.5212        348.262          41.250  
C 4  38676575.674    -6499660.3192        332.529          38.250  
G 2  21794323.338   -22982021.701        1026.377          47.500  
C 5  39354535.406    -7114795.3212        373.486          36.000  
C12  22065874.757   -25832182.2132       1823.887          46.750  
G19  21637860.048   -18595976.917       -2055.156          43.250  
G 6  21901970.660   -21347878.928        -578.350          46.250  
C22  22819263.347   -27438020.1472      -1507.471          50.250  
G12  22386407.978   -17289093.306        -451.230          42.500  
G 5  20702507.463   -28011650.941        1502.061          45.500  
> 2020  6 29  8 13 28.0000000  0 23                     
C21  22000412.573   -16295794.4622       1484.131          47.750  
C16  38760698.035   -16352290.3992       2032.607          38.250  
G17  22884792.876    -4798132.125       -2434.941          39.750  
G 9  23327071.092   -16976604.081       -1324.502          42.000  
C 6  38093907.918   -17322734.7782       1896.064          37.000  
C11  25959750.655    -5832529.1362       3106.768          38.750  
G25  23785716.931    -7646539.369         960.967          37.250  
C 8  37061278.684    -2400673.7052        487.959          44.500  
C 7  38931102.059     9207346.8022      -1253.545          34.000  
C10  37972990.996     2672513.1112      -1275.664          36.500  
C 3  36303713.354    -6893112.8782        342.979          42.500  
C13  37077483.309    -6725000.8612        450.986          44.750  
C 2  37299565.791    -7347355.4832        383.525          38.500  
C 1  37737943.273    -6492836.8432        348.389          41.250  
C 4  38676511.911    -6499992.8672        332.578          38.250  
G 2  21794127.991   -22983048.089        1026.426          47.500  
C 5  39354463.607    -7115168.7572        373.535          35.750  
C12  22065524.501   -25834005.9802       1823.730          46.750  
G19  21638251.173   -18593921.423       -2055.596          43.250  
G 6  21902080.871   -21347300.565        -578.340          46.250  
C22  22819552.815   -27436512.4692      -1507.725          50.000  
G12  22386493.929   -17288641.679        -451.729          42.500  
G 5  20702221.803   -28013152.671        1501.631          45.500  
> 2020  6 29  8 13 29.0000000  0 23                     
C21  22000127.938   -16297278.1122       1483.516          47.750  
C16  38760307.608   -16354322.8182       2032.402          38.250  
G17  22885256.380    -4795696.797       -2435.459          39.750  
G 9  23327323.238   -16975279.002       -1325.234          41.750  
C 6  38093543.823   -17324630.6672       1895.908          36.750  
C11  25959154.111    -5835635.7602       3106.709          38.500  
G25  23785534.014    -7647499.772         960.254          37.250  
C 8  37061185.068    -2401161.5342        487.852          44.500  
C 7  38931342.890     9208600.4942      -1253.662          34.000  
C10  37973235.849     2673789.0562      -1276.006          36.500  
C 3  36303647.366    -6893455.7012        342.783          42.500  
C13  37077396.752    -6725451.7082        450.859          44.750  
C 2  37299491.916    -7347738.9352        383.389          38.250  
C 1  37737876.456    -6493185.0532        348.184          41.250  
C 4  38676448.170    -6500325.2932        332.432          38.250  
G 2  21793932.514   -22984074.332        1026.221          47.500  
C 5  39354391.974    -7115542.1132        373.340          35.750  
C12  22065174.515   -25835829.3902       1823.320          46.750  
G19  21638642.446   -18591865.405       -2056.221          43.250  
G 6  21902191.012   -21346721.976        -578.633          46.250  
C22  22819842.345   -27435004.3222      -1508.281          50.250  
G12  22386580.133   -17288189.385        -452.471          42.500  
G 5  20701936.243   -28014653.835        1501.025          45.500  
> 2020  6 29  8 13 30.0000000  0 23                     
C21  21999843.194   -16298761.2252       1482.959          47.750  
C16  38759917.264   -16356355.1542       2032.363          38.000  
G17  22885719.617    -4793261.077       -2435.801          39.750  
G 9  23327575.381   -16973953.322       -1325.781          41.750  
C 6  38093179.916   -17326526.3932       1895.664          36.750  
C11  25958557.697    -5838742.4012       3106.641          38.750  
G25  23785351.371    -7648459.510         959.541          37.500  
C 8  37061091.251    -2401649.3972        487.871          44.500  
C 7  38931583.607     9209854.1762      -1253.594          34.250  
C10  37973480.959     2675065.0962      -1276.084          36.500  
C 3  36303581.570    -6893798.4692        342.764          42.500  
C13  37077310.164    -6725902.5952        450.928          44.750  
C 2  37299418.333    -7348122.3152        383.379          38.250  
C 1  37737809.521    -6493533.2272        348.184          41.250  
C 4  38676384.224    -6500657.6962        332.422          38.250  
G 2  21793737.303   -22985100.489        1026.133          47.500  
C 5  39354320.388    -7115915.3902        373.330          35.750  
C12  22064824.184   -25837652.5102       1823.047          47.000  
G19  21639033.885   -18589808.880       -2056.680          43.250  
G 6  21902301.101   -21346143.217        -578.799          46.250  
C22  22820132.088   -27433495.7542      -1508.672          50.250  
G12  22386666.228   -17287736.456        -453.086          42.500  
G 5  20701650.980   -28016154.438        1500.439          45.500  
> 2020  6 29  8 13 31.0000000  0 23                     
C21  21999558.481   -16300243.8512       1482.529          47.750  
C16  38759526.933   -16358387.4222       2032.314          38.250  
G17  22886183.217    -4790824.980       -2436.162          39.750  
G 9  23327827.650   -16972627.053       -1326.328          41.750  
C 6  38092815.822   -17328422.1432       1895.830          36.750  
C11  25957960.869    -5841849.0582       3106.768          38.750  
G25  23785168.737    -7649418.670         958.984          37.250  
C 8  37060997.504    -2402137.3212        488.027          44.500  
C 7  38931824.507     9211107.9092      -1253.701          34.250  
C10  37973726.004     2676341.1712      -1276.025          36.750  
C 3  36303515.874    -6894141.2262        342.764          42.500  
C13  37077223.742    -6726353.5412        451.045          45.000  
C 2  37299344.745    -7348505.6912        383.467          38.500  
C 1  37737742.713    -6493881.3532        348.145          41.500  
C 4  38676320.299    -6500990.0372        332.344          38.250  
G 2  21793541.882   -22986126.591        1026.152          47.500  
C 5  39354248.655    -7116288.6152        373.301          35.750  
C12  22064474.237   -25839475.3942       1822.861          47.000  
G19  21639425.538   -18587751.904       -2057.012          43.250  
G 6  21902411.203   -21345564.334        -578.877          46.250  
C22  22820422.107   -27431986.8092      -1509.004          50.250  
G12  22386752.493   -17287282.915        -453.682          42.250  
G 5  20701365.290   -28017654.560        1500.029          45.250  
> 2020  6 29  8 13 32.0000000  0 23                     
C21  21999273.876   -16301725.9412       1481.982          47.750  
C16  38759136.755   -16360419.6222       2032.266          38.250  
G17  22886646.883    -4788388.511       -2436.514          39.750  
G 9  23328080.111   -16971300.211       -1327.002          41.750  
C 6  38092451.758   -17330317.7272       1895.537          36.750  
C11  25957364.224    -5844955.7792       3106.768          38.750  
G25  23784986.025    -7650377.165         958.242          37.500  
C 8  37060903.866    -2402625.3472        488.076          44.500  
C 7  38932065.346     9212361.6162      -1253.623          34.250  
C10  37973971.053     2677617.3792      -1276.221          36.750  
C 3  36303450.052    -6894483.9142        342.695          42.500  
C13  37077137.071    -6726804.5302        451.035          44.750  
C 2  37299271.048    -7348889.0222        383.389          38.500  
C 1  37737675.966    -6494229.4642        348.105          41.250  
C 4  38676256.575    -6501322.3752        332.402          38.250  
G 2  21793346.745   -22987152.612        1026.035          47.500  
C 5  39354177.122    -7116661.8342        373.223          35.750  
C12  22064124.160   -25841297.9792       1822.510          47.000  
G19  21639817.086   -18585694.425       -2057.598          43.500  
G 6  21902521.432   -21344985.294        -579.053          46.250  
C22  22820711.929   -27430477.4592      -1509.414          50.250  
G12  22386838.933   -17286828.792        -454.258          42.250  
G 5  20701079.987   -28019154.155        1499.482          45.250  
> 2020  6 29  8 13 33.0000000  0 23                     
C21  21998989.434   -16303207.5232       1481.436          47.750  
C16  38758746.346   -16362451.8002       2032.168          38.250  
G17  22887110.696    -4785951.649       -2436.914          39.750  
G 9  23328332.467   -16969972.812       -1327.529          41.750  
C 6  38092087.746   -17332213.2592       1895.537          36.750  
C11  25956767.409    -5848062.5222       3106.768          38.750  
G25  23784803.866    -7651335.077         957.842          37.500  
C 8  37060810.189    -2403113.3922        488.096          44.500  
C 7  38932306.015     9213615.3632      -1253.652          34.000  
C10  37974216.063     2678893.6452      -1276.279          36.500  
C 3  36303384.238    -6894826.5922        342.686          42.500  
C13  37077050.535    -6727255.5722        451.064          44.750  
C 2  37299197.609    -7349272.2972        383.223          38.250  
C 1  37737609.097    -6494577.5302        348.086          41.250  
C 4  38676192.777    -6501654.6612        332.334          38.250  
G 2  21793151.490   -22988178.573        1025.977          47.500  
C 5  39354105.454    -7117035.0342        373.242          36.000  
C12  22063774.261   -25843120.3032       1822.275          46.750  
G19  21640208.708   -18583636.492       -2058.037          43.500  
G 6  21902631.552   -21344406.128        -579.150          46.250  
C22  22821001.999   -27428967.7162      -1509.854          50.250  
G12  22386925.377   -17286374.026        -454.912          42.250  
G 5  20700794.480   -28020653.253        1498.975          45.250  
> 2020  6 29  8 13 34.0000000  0 23                     
C21  21998705.021   -16304688.6312       1480.889          48.000  
C16  38758356.102   -16364483.9142       2032.070          38.250  
G17  22887574.514    -4783514.434       -2437.373          39.750  
G 9  23328585.064   -16968644.861       -1328.164          41.750  
C 6  38091723.469   -17334108.7822       1895.400          36.750  
C11  25956170.699    -5851169.3372       3106.738          38.750  
G25  23784621.729    -7652292.389         957.002          37.500  
C 8  37060716.486    -2403601.5622        488.145          44.750  
C 7  38932546.854     9214869.0752      -1253.799          34.000  
C10  37974461.042     2680169.9792      -1276.396          36.500  
C 3  36303318.050    -6895169.2552        342.588          42.500  
C13  37076963.904    -6727706.7202        451.074          44.750  
C 2  37299123.886    -7349655.5932        383.203          38.250  
C 1  37737542.276    -6494925.6202        348.057          41.250  
C 4  38676128.901    -6501986.9402        332.227          38.250  
G 2  21792956.279   -22989204.481        1025.820          47.500  
C 5  39354033.921    -7117408.2362        373.125          35.750  
C12  22063424.253   -25844942.3782       1821.924          47.000  
G19  21640600.469   -18581578.113       -2058.584          43.500  
G 6  21902741.855   -21343826.836        -579.365          46.250  
C22  22821291.773   -27427457.6092      -1510.283          50.250  
G12  22387011.720   -17285918.711        -455.557          42.250  
G 5  20700509.278   -28022151.845        1498.359          45.250  
> 2020  6 29  8 13 35.0000000  0 23                     
C21  21998420.748   -16306169.2062       1480.430          48.000  
C16  38757966.007   -16366515.9362       2032.061          38.250  
G17  22888038.075    -4781076.823       -2437.744          39.750  
G 9  23328837.904   -16967316.310       -1328.672          41.750  
C 6  38091359.492   -17336004.1782       1895.371          36.500  
C11  25955574.521    -5854276.2092       3106.875          38.750  
G25  23784439.505    -7653249.101         956.572          37.500  
C 8  37060622.730    -2404089.7692        488.301          44.500  
C 7  38932787.807     9216122.8472      -1253.779          34.250  
C10  37974706.309     2681446.4082      -1276.504          36.500  
C 3  36303252.402    -6895511.8702        342.637          42.500  
C13  37076877.215    -6728157.9032        451.230          44.750  
C 2  37299050.229    -7350038.8172        383.203          38.250  
C 1  37737475.420    -6495273.6312        348.018          41.250  
C 4  38676065.059    -6502319.1812        332.236          38.250  
G 2  21792761.133   -22990230.320        1025.820          47.500  
C 5  39353962.236    -7117781.3492        373.164          35.750  
C12  22063074.333   -25846764.1772       1821.729          47.000  
G19  21640992.318   -18579519.240       -2058.994          43.500  
G 6  21902851.778   -21343247.376        -579.482          46.250  
C22  22821581.861   -27425947.0922      -1510.625          50.250  
G12  22387098.500   -17285462.761        -456.084          42.250  
G 5  20700224.050   -28023649.909        1497.910          45.250  
> 2020  6 29  8 13 36.0000000  0 23                     
C21  21998136.541   -16307649.3042       1480.029          48.000  
C16  38757575.615   -16368547.9542       2032.119          38.250  
G17  22888501.684    -4778638.862       -2438.037          39.750  
G 9  23329090.688   -16965987.228       -1329.131          41.750  
C 6  38090995.459   -17337899.5462       1895.469          36.750  
C11  25954977.972    -5857383.1212       3107.012          38.750  
G25  23784257.801    -7654205.208         956.074          37.500  
C 8  37060528.905    -2404578.0682        488.398          44.500  
C 7  38933028.699     9217376.5422      -1253.721          34.000  
C10  37974951.297     2682722.9102      -1276.426          36.500  
C 3  36303186.392    -6895854.4872        342.695          42.500  
C13  37076790.475    -6728609.1852        451.377          44.750  
C 2  37298976.650    -7350422.0612        383.271          38.500  
C 1  37737408.585    -6495621.6552        348.135          41.250  
C 4  38676001.383    -6502651.4142        332.305          38.250  
G 2  21792566.053   -22991256.130        1025.879          47.500  
C 5  39353890.533    -7118154.4842        373.271          36.000  
C12  22062724.609   -25848585.7182       1821.553          47.000  
G19  21641384.320   -18577459.923       -2059.395          43.500  
G 6  21902962.059   -21342667.808        -579.580          46.250  
C22  22821872.128   -27424436.2222      -1510.908          50.250  
G12  22387185.381   -17285006.236        -456.602          42.250  
G 5  20699939.070   -28025147.506        1497.520          45.250  
> 2020  6 29  8 13 37.0000000  0 23                     
C21  21997852.233   -16309129.1562       1479.727          48.000  
C16  38757185.398   -16370580.1472       2032.188          38.250  
G17  22888965.716    -4776200.773       -2438.242          39.750  
G 9  23329343.681   -16964657.803       -1329.541          41.750  
C 6  38090631.247   -17339795.0722       1895.557          36.500  
C11  25954381.123    -5860490.3152       3107.314          38.750  
G25  23784075.891    -7655160.966         955.557          37.500  
C 8  37060435.118    -2405066.7012        488.682          44.500  
C 7  38933269.328     9218630.0502      -1253.525          34.000  
C10  37975196.368     2683999.2192      -1276.279          36.750  
C 3  36303120.649    -6896197.3262        342.871          42.500  
C13  37076703.743    -6729060.7602        451.631          44.750  
C 2  37298903.250    -7350805.5372        383.516          38.250  
C 1  37737341.637    -6495969.8962        348.281          41.250  
C 4  38675937.385    -6502983.8602        332.471          38.000  
G 2  21792370.706   -22992282.114        1026.016          47.500  
C 5  39353818.708    -7118527.8412        373.408          35.750  
C12  22062374.684   -25850407.2542       1821.475          47.000  
G19  21641776.296   -18575400.399       -2059.619          43.500  
G 6  21903072.327   -21342088.373        -579.453          46.000  
C22  22822162.290   -27422925.2052      -1511.084          50.250  
G12  22387272.335   -17284549.357        -457.012          42.250  
G 5  20699654.230   -28026644.834        1497.217          45.500  
> 2020  6 29  8 13 38.0000000  0 23                     
C21  21997568.384   -16310608.2882       1478.975          48.000  
C16  38756795.364   -16372612.0732       2031.846          38.250  
G17  22889429.695    -4773762.122       -2438.740          39.750  
G 9  23329596.731   -16963327.622       -1330.342          41.750  
C 6  38090267.104   -17341690.3282       1895.312          36.500  
C11  25953784.417    -5863597.3672       3107.080          38.500  
G25  23783894.330    -7656115.916         954.795          37.750  
C 8  37060341.367    -2405555.1822        488.486          44.500  
C 7  38933510.024     9219883.7002      -1253.633          34.000  
C10  37975441.696     2685275.8502      -1276.719          36.500  
C 3  36303054.935    -6896539.9252        342.578          42.500  
C13  37076617.085    -6729512.2012        451.494          44.750  
C 2  37298829.798    -7351188.7602        383.232          38.250  
C 1  37737274.781    -6496317.9162        348.018          41.250  
C 4  38675873.595    -6503316.0952        332.168          38.250  
G 2  21792175.342   -22993307.838        1025.684          47.500  
C 5  39353747.114    -7118900.9952        373.125          35.750  
C12  22062025.012   -25852228.3312       1821.006          47.000  
G19  21642168.293   -18573340.212       -2060.342          43.500  
G 6  21903182.355   -21341508.594        -579.805          46.000  
C22  22822452.378   -27421413.6072      -1511.709          50.250  
G12  22387359.342   -17284091.699        -457.861          42.250  
G 5  20699369.504   -28028141.468        1496.484          45.500  
> 2020  6 29  8 13 39.0000000  0 23                     
C21  21997284.438   -16312086.8852       1478.428          48.000  
C16  38756405.181   -16374643.9332       2031.826          38.500  
G17  22889894.024    -4771323.060       -2439.229          39.750  
G 9  23329849.930   -16961996.822       -1330.967          41.750  
C 6  38089903.097   -17343585.4782       1895.166          36.500  
C11  25953187.781    -5866704.4202       3107.051          38.750  
G25  23783712.599    -7657070.199         954.082          37.750  
C 8  37060247.651    -2406043.6842        488.525          44.750  
C 7  38933750.902     9221137.4622      -1253.740          34.000  
C10  37975686.902     2686552.5592      -1276.768          36.500  
C 3  36302989.222    -6896882.4702        342.520          42.500  
C13  37076530.248    -6729963.6532        451.426          44.750  
C 2  37298756.127    -7351571.9472        383.135          38.250  
C 1  37737207.703    -6496665.8822        347.949          41.250  
C 4  38675809.741    -6503648.2712        332.148          38.250  
G 2  21791980.057   -22994333.465        1025.576          47.500  
C 5  39353675.376    -7119274.0292        373.057          35.750  
C12  22061675.366   -25854049.1042       1820.684          47.000  
G19  21642560.316   -18571279.509       -2060.879          43.500  
G 6  21903292.736   -21340928.631        -580.010          46.000  
C22  22822742.689   -27419901.5772      -1512.188          50.250  
G12  22387446.414   -17283633.367        -458.535          42.250  
G 5  20699084.913   -28029637.551        1495.938          45.500  
> 2020  6 29  8 13 40.0000000  0 23                     
C21  21997000.641   -16313564.8572       1477.881          48.000  
C16  38756015.047   -16376675.5932       2031.689          38.500  
G17  22890358.300    -4768883.516       -2439.609          39.750  
G 9  23330103.206   -16960665.360       -1331.543          41.750  
C 6  38089539.107   -17345480.4682       1895.068          36.750  
C11  25952591.284    -5869811.4082       3107.109          38.750  
G25  23783531.353    -7658023.796         953.506          37.750  
C 8  37060153.703    -2406532.1362        488.535          44.500  
C 7  38933991.798     9222391.3232      -1253.643          34.000  
C10  37975931.977     2687829.4842      -1276.934          36.500  
C 3  36302923.688    -6897224.8502        342.402          42.500  
C13  37076443.630    -6730415.0122        451.396          45.000  
C 2  37298682.426    -7351954.9452        383.037          38.250  
C 1  37737141.025    -6497013.7202        347.910          41.250  
C 4  38675746.117    -6503980.2872        332.100          38.500  
G 2  21791785.016   -22995358.907        1025.498          47.500  
C 5  39353603.786    -7119646.9692        372.988          36.000  
C12  22061325.900   -25855869.5092       1820.391          47.000  
G19  21642952.698   -18569218.240       -2061.357          43.500  
G 6  21903403.366   -21340348.428        -580.176          46.000  
C22  22823033.148   -27418389.0522      -1512.598          50.250  
G12  22387533.744   -17283174.358        -459.111          42.250  
G 5  20698800.125   -28031132.998        1495.322          45.500  
> 2020  6 29  8 13 41.0000000  0 23                     
C21  21996716.822   -16315042.5192       1477.520          48.000  
C16  38755624.943   -16378707.3962       2031.777          38.250  
G17  22890822.707    -4766443.763       -2439.814          39.750  
G 9  23330356.867   -16959333.508       -1331.963          41.750  
C 6  38089175.035   -17347375.5642       1895.078          36.750  
C11  25951994.674    -5872918.6222       3107.246          38.750  
G25  23783350.014    -7658976.947         952.959          38.000  
C 8  37060059.921    -2407020.8482        488.721          44.500  
C 7  38934232.367     9223644.9572      -1253.506          34.000  
C10  37976177.096     2689106.2612      -1276.768          36.500  
C 3  36302857.857    -6897567.4362        342.568          42.500  
C13  37076356.924    -6730866.6722        451.650          45.000  
C 2  37298608.708    -7352338.1202        383.057          38.250  
C 1  37737074.470    -6497361.6982        348.027          41.250  
C 4  38675682.393    -6504312.4812        332.158          38.500  
G 2  21791589.888   -22996384.486        1025.576          47.500  
C 5  39353532.214    -7120020.0352        373.008          36.000  
C12  22060976.429   -25857689.8112       1820.234          47.000  
G19  21643345.009   -18567156.690       -2061.680          43.750  
G 6  21903513.843   -21339768.268        -580.166          46.000  
C22  22823323.860   -27416876.3272      -1512.832          50.250  
G12  22387621.165   -17282714.922        -459.648          42.250  
G 5  20698515.399   -28032628.143        1495.010          45.500  
> 2020  6 29  8 13 42.0000000  0 23                     
C21  21996433.138   -16316519.7552       1477.090          48.000  
C16  38755234.555   -16380739.2562       2031.855          38.250  
G17  22891287.122    -4764003.753       -2440.137          40.000  
G 9  23330610.694   -16958001.167       -1332.520          41.750  
C 6  38088811.032   -17349270.6802       1895.127          36.500  
C11  25951398.012    -5876025.9642       3107.363          38.750  
G25  23783168.654    -7659929.575         952.402          38.000  
C 8  37059965.904    -2407509.7422        488.887          44.500  
C 7  38934473.184     9224898.5582      -1253.633          34.250  
C10  37976422.564     2690383.0262      -1276.738          36.500  
C 3  36302792.157    -6897910.0352        342.588          42.500  
C13  37076270.144    -6731318.4682        451.826          44.750  
C 2  37298535.330    -7352721.3982        383.252          38.250  
C 1  37737007.549    -6497709.7432        348.066          41.250  
C 4  38675618.648    -6504644.7342        332.275          38.250  
G 2  21791394.720   -22997410.088        1025.576          47.500  
C 5  39353460.634    -7120393.1972        373.115          36.000  
C12  22060626.949   -25859509.9532       1820.068          47.000  
G19  21643737.268   -18565094.752       -2062.100          43.500  
G 6  21903624.002   -21339188.073        -580.234          46.000  
C22  22823614.371   -27415363.3082      -1513.145          50.250  
G12  22387708.298   -17282254.986        -460.117          42.000  
G 5  20698230.890   -28034122.864        1494.580          45.250  
> 2020  6 29  8 13 43.0000000  0 23                     
C21  21996149.624   -16317996.5122       1476.641          48.000  
C16  38754844.468   -16382771.0332       2031.787          38.250  
G17  22891751.551    -4761563.367       -2440.479          40.000  
G 9  23330864.141   -16956668.264       -1333.047          41.750  
C 6  38088446.994   -17351165.7062       1895.010          36.500  
C11  25950801.114    -5879133.3542       3107.432          38.500  
G25  23782987.905    -7660881.613         951.875          38.000  
C 8  37059871.908    -2407998.7062        489.004          44.500  
C 7  38934713.993     9226152.1712      -1253.477          34.000  
C10  37976667.810     2691659.8922      -1276.934          36.500  
C 3  36302726.221    -6898252.6412        342.627          42.500  
C13  37076183.539    -6731770.3292        451.914          45.000  
C 2  37298461.760    -7353104.6242        383.301          38.250  
C 1  37736940.810    -6498057.7672        348.057          41.250  
C 4  38675555.011    -6504976.9512        332.285          38.250  
G 2  21791199.535   -22998435.631        1025.576          47.500  
C 5  39353389.096    -7120766.3122        373.125          35.750  
C12  22060277.456   -25861329.8362       1819.863          47.000  
G19  21644129.789   -18563032.365       -2062.471          43.500  
G 6  21903734.519   -21338607.732        -580.342          46.000  
C22  22823905.070   -27413849.9032      -1513.477          50.250  
G12  22387796.003   -17281794.442        -460.684          42.000  
G 5  20697946.574   -28035617.090        1494.131          45.250  
> 2020  6 29  8 13 44.0000000  0 23                     
C21  21995866.150   -16319472.8192       1476.211          48.000  
C16  38754454.264   -16384802.8442       2031.855          38.250  
G17  22892216.006    -4759122.683       -2440.762          40.000  
G 9  23331117.893   -16955334.862       -1333.535          41.750  
C 6  38088083.052   -17353060.7582       1895.068          36.500  
C11  25950204.313    -5882240.8652       3107.529          38.500  
G25  23782806.929    -7661833.103         951.348          38.250  
C 8  37059777.900    -2408487.7882        489.111          44.500  
C 7  38934954.640     9227405.6792      -1253.408          34.000  
C10  37976913.138     2692936.7332      -1276.758          36.750  
C 3  36302660.425    -6898595.2842        342.695          42.500  
C13  37076096.737    -6732222.3362        452.021          45.000  
C 2  37298388.163    -7353487.9072        383.242          38.500  
C 1  37736874.107    -6498405.8592        348.057          41.250  
C 4  38675491.082    -6505309.2532        332.344          38.250  
G 2  21791004.468   -22999461.182        1025.576          47.500  
C 5  39353317.476    -7121139.4912        373.154          36.000  
C12  22059928.146   -25863149.5182       1819.648          47.000  
G19  21644522.244   -18560969.573       -2062.900          43.500  
G 6  21903844.896   -21338027.336        -580.400          46.000  
C22  22824195.577   -27412336.1882      -1513.799          50.250  
G12  22387883.782   -17281333.370        -461.221          42.000  
G 5  20697662.397   -28037110.883        1493.662          45.250  
> 2020  6 29  8 13 45.0000000  0 23                     
C21  21995582.793   -16320948.5852       1475.498          48.000  
C16  38754064.029   -16386834.5632       2031.680          38.250  
G17  22892680.754    -4756681.590       -2441.309          40.000  
G 9  23331371.789   -16954000.865       -1334.277          41.750  
C 6  38087719.255   -17354955.6922       1894.814          36.500  
C11  25949607.432    -5885348.3772       3107.441          38.500  
G25  23782625.931    -7662783.959         950.518          38.250  
C 8  37059684.109    -2408976.9012        489.033          44.500  
C 7  38935195.326     9228659.2492      -1253.643          34.000  
C10  37977158.422     2694213.7412      -1277.158          36.500  
C 3  36302594.655    -6898937.8692        342.500          42.500  
C13  37076009.939    -6732674.3862        451.973          45.000  
C 2  37298314.620    -7353871.0992        383.125          38.250  
C 1  37736807.281    -6498753.8752        347.891          41.500  
C 4  38675427.284    -6505641.4562        332.070          38.250  
G 2  21790809.169   -23000486.637        1025.332          47.250  
C 5  39353245.948    -7121512.5962        372.959          36.000  
C12  22059578.666   -25864968.8962       1819.180          47.000  
G19  21644914.931   -18558906.275       -2063.555          43.500  
G 6  21903955.412   -21337446.763        -580.732          46.000  
C22  22824486.489   -27410822.0462      -1514.346          50.250  
G12  22387971.570   -17280871.667        -461.992          42.000  
G 5  20697378.491   -28038604.137        1493.018          45.250  
> 2020  6 29  8 13 46.0000000  0 23                     
C21  21995299.332   -16322423.9432       1475.283          48.000  
C16  38753673.712   -16388866.2952       2031.816          38.250  
G17  22893145.243    -4754240.194       -2441.416          40.000  
G 9  23331625.585   -16952666.367       -1334.590          41.750  
C 6  38087355.457   -17356850.6902       1895.117          36.750  
C11  25949010.744    -5888456.0222       3107.783          38.750  
G25  23782445.111    -7663734.305         950.195          38.250  
C 8  37059590.022    -2409466.1832        489.355          44.500  
C 7  38935436.104     9229912.7032      -1253.301          34.000  
C10  37977403.746     2695490.6962      -1276.934          36.500  
C 3  36302528.920    -6899280.4892        342.666          42.500  
C13  37075922.976    -6733126.5312        452.217          45.000  
C 2  37298241.045    -7354254.3682        383.359          38.250  
C 1  37736740.429    -6499101.9492        348.105          41.250  
C 4  38675363.233    -6505973.7492        332.354          38.250  
G 2  21790614.220   -23001512.104        1025.518          47.500  
C 5  39353174.223    -7121885.7742        373.223          36.000  
C12  22059229.369   -25866788.0922       1819.209          47.000  
G19  21645307.622   -18556842.594       -2063.760          43.500  
G 6  21904065.755   -21336866.147        -580.576          46.000  
C22  22824777.367   -27409307.5962      -1514.502          50.250  
G12  22388059.423   -17280409.443        -462.324          42.000  
G 5  20697094.353   -28040096.951        1492.744          45.500  
> 2020  6 29  8 13 47.0000000  0 23                     
C21  21995016.154   -16323898.8052       1474.824          48.000  
C16  38753283.455   -16390897.9802       2031.826          38.250  
G17  22893610.034    -4751798.456       -2441.748          40.000  
G 9  23331879.979   -16951331.335       -1335.127          41.750  
C 6  38086991.528   -17358745.5712       1895.000          36.750  
C11  25948414.104    -5891563.7262       3107.832          38.500  
G25  23782264.680    -7664684.039         949.639          38.500  
C 8  37059496.057    -2409955.5472        489.473          44.500  
C 7  38935676.795     9231166.1842      -1253.271          34.000  
C10  37977648.883     2696767.7452      -1277.080          36.500  
C 3  36302463.107    -6899623.1212        342.734          42.500  
C13  37075836.253    -6733578.7942        452.373          45.000  
C 2  37298167.540    -7354637.6412        383.379          38.250  
C 1  37736673.634    -6499450.0312        348.203          41.250  
C 4  38675299.370    -6506305.9992        332.412          38.250  
G 2  21790419.091   -23002537.532        1025.508          47.500  
C 5  39353102.607    -7122258.9142        373.242          36.000  
C12  22058880.064   -25868607.0422       1818.965          47.000  
G19  21645700.317   -18554778.475       -2064.150          43.500  
G 6  21904176.306   -21336285.403        -580.664          46.000  
C22  22825068.258   -27407792.7902      -1514.824          50.250  
G12  22388147.263   -17279946.656        -462.871          42.000  
G 5  20696810.368   -28041589.295        1492.295          45.500  
> 2020  6 29  8 13 48.0000000  0 23                     
C21  21994733.003   -16325373.2102       1474.219          48.000  
C16  38752893.268   -16392929.6802       2031.670          38.000  
G17  22894074.782    -4749356.391       -2442.227          40.000  
G 9  23332134.259   -16949995.770       -1335.840          41.750  
C 6  38086627.477   -17360640.4612       1894.805          36.500  
C11  25947817.258    -5894671.5302       3107.822          38.500  
G25  23782084.389    -7665633.221         948.955          38.250  
C 8  37059402.018    -2410445.0302        489.473          44.500  
C 7  38935917.429     9232419.6032      -1253.535          34.000  
C10  37977894.246     2698044.7862      -1277.139          36.250  
C 3  36302397.267    -6899965.7572        342.578          42.500  
C13  37075749.373    -6734031.1492        452.354          45.000  
C 2  37298094.057    -7355020.9272        383.252          38.250  
C 1  37736606.534    -6499798.1152        348.008          41.250  
C 4  38675235.602    -6506638.2612        332.295          38.250  
G 2  21790223.858   -23003562.944        1025.361          47.500  
C 5  39353030.747    -7122632.0842        373.135          36.000  
C12  22058530.842   -25870425.7782       1818.613          47.000  
G19  21646093.091   -18552713.926       -2064.717          43.500  
G 6  21904286.940   -21335704.570        -580.898          46.000  
C22  22825359.262   -27406277.6382      -1515.312          50.250  
G12  22388235.426   -17279483.292        -463.584          42.000  
G 5  20696526.645   -28043081.172        1491.650          45.500  
> 2020  6 29  8 13 49.0000000  0 23                     
C21  21994450.126   -16326846.9262       1473.594          48.000  
C16  38752503.003   -16394961.1272       2031.426          38.000  
G17  22894539.673    -4746913.767       -2442.773          40.000  
G 9  23332388.583   -16948659.461       -1336.484          41.750  
C 6  38086263.741   -17362535.0862       1894.619          36.750  
C11  25947220.212    -5897779.1772       3107.666          38.500  
G25  23781904.107    -7666581.595         948.164          38.500  
C 8  37059308.127    -2410934.4072        489.434          44.500  
C 7  38936158.225     9233673.2152      -1253.525          34.000  
C10  37978139.408     2699322.1202      -1277.305          36.500  
C 3  36302331.711    -6900308.1822        342.402          42.500  
C13  37075662.383    -6734483.3732        452.275          45.000  
C 2  37298020.592    -7355403.9762        383.057          38.250  
C 1  37736539.708    -6500146.0002        347.881          41.250  
C 4  38675171.778    -6506970.3392        332.100          38.250  
G 2  21790028.939   -23004588.109        1025.186          47.500  
C 5  39352959.223    -7123005.0512        372.900          35.750  
C12  22058181.737   -25872244.0642       1818.223          47.000  
G19  21646486.092   -18550648.745       -2065.264          43.500  
G 6  21904397.549   -21335123.421        -581.172          46.000  
C22  22825650.305   -27404761.9112      -1515.820          50.000  
G12  22388323.815   -17279019.155        -464.287          41.750  
G 5  20696242.892   -28044572.372        1491.084          45.500  
> 2020  6 29  8 13 50.0000000  0 23                     
C21  21994167.210   -16328320.2572       1473.203          48.000  
C16  38752112.855   -16396992.6202       2031.475          38.000  
G17  22895004.228    -4744470.889       -2442.979          40.000  
G 9  23332643.055   -16947322.693       -1336.943          41.750  
C 6  38085899.747   -17364429.7742       1894.648          36.750  
C11  25946623.606    -5900886.9902       3107.861          38.500  
G25  23781723.820    -7667529.504         947.754          38.500  
C 8  37059214.266    -2411423.9502        489.600          44.500  
C 7  38936399.016     9234926.7102      -1253.525          34.000  
C10  37978384.387     2700599.4062      -1277.305          36.250  
C 3  36302266.011    -6900650.7192        342.607          42.500  
C13  37075575.700    -6734935.8022        452.471          45.000  
C 2  37297946.786    -7355787.1482        383.262          38.250  
C 1  37736472.957    -6500493.9732        347.959          41.500  
C 4  38675108.054    -6507302.5192        332.217          38.250  
G 2  21789833.842   -23005613.337        1025.234          47.500  
C 5  39352887.455    -7123378.1022        373.076          36.000  
C12  22057832.414   -25874062.2172       1818.105          47.000  
G19  21646879.263   -18548583.200       -2065.615          43.500  
G 6  21904508.139   -21334542.246        -581.191          46.000  
C22  22825941.397   -27403245.9262      -1516.104          50.250  
G12  22388412.266   -17278554.533        -464.756          41.750  
G 5  20695959.129   -28046063.172        1490.664          45.500  
> 2020  6 29  8 13 51.0000000  0 23                     
C21  21993884.337   -16329793.0842       1472.705          48.000  
C16  38751722.590   -16399024.0802       2031.475          38.250  
G17  22895469.167    -4742027.637       -2443.340          40.000  
G 9  23332897.475   -16945985.351       -1337.490          42.000  
C 6  38085535.857   -17366324.3772       1894.580          36.500  
C11  25946026.848    -5903994.8442       3107.969          38.500  
G25  23781543.712    -7668476.778         947.158          38.500  
C 8  37059120.149    -2411913.5612        489.678          44.500  
C 7  38936639.812     9236180.2322      -1253.359          34.000  
C10  37978629.589     2701876.7322      -1277.334          36.500  
C 3  36302199.931    -6900993.1992        342.539          42.500  
C13  37075488.889    -6735388.2862        452.510          45.000  
C 2  37297873.016    -7356170.2732        383.135          38.250  
C 1  37736406.153    -6500841.9402        347.998          41.500  
C 4  38675044.457    -6507634.6452        332.158          38.250  
G 2  21789638.761   -23006638.505        1025.195          47.500  
C 5  39352815.739    -7123751.1142        372.988          36.000  
C12  22057483.357   -25875880.0862       1817.842          47.000  
G19  21647272.233   -18546517.179       -2066.133          43.500  
G 6  21904618.796   -21333960.952        -581.279          46.000  
C22  22826232.684   -27401729.5512      -1516.455          50.250  
G12  22388500.826   -17278089.297        -465.400          42.000  
