% program   : RTKPOST ver.2.4.3 b33
% inp file  : D:\Documents\Visual Studio 2019\rtklib_portToVS\rtklib_2.4.3\data\7.obs
% inp file  : D:\Documents\Visual Studio 2019\rtklib_portToVS\rtklib_2.4.3\data\8.obs
% inp file  : D:\Documents\Visual Studio 2019\rtklib_portToVS\rtklib_2.4.3\data\8.nav
% obs start : 2020/06/29 08:13:15.5 GPST (week2112 115995.5s)
% obs end   : 2020/06/29 08:38:11.0 GPST (week2112 117491.0s)
% pos mode  : kinematic
% freqs     : L1
% solution  : forward
% elev mask : 10.0 deg
% dynamics  : on
% tidecorr  : off
% ionos opt : broadcast
% tropo opt : saastamoinen
% ephemeris : broadcast
% navi sys  : gps beidou
% amb res   : fix and hold
% val thres : 3.0
% antenna1  :                       ( 0.0000  0.0000  0.0000)
% antenna2  :                       ( 0.0000  0.0000  0.0000)
% ref pos   : -2191136.5960   5198843.8105   2965370.9859
%
% (x/y/z-ecef=WGS84,Q=1:fix,2:float,3:sbas,4:dgps,5:single,6:ppp,ns=# of satellites)
%  GPST                      x-ecef(m)      y-ecef(m)      z-ecef(m)   Q  ns   sdx(m)   sdy(m)   sdz(m)  sdxy(m)  sdyz(m)  sdzx(m) age(s)  ratio
2020/06/29 08:13:15.500  -2191126.6439   5198846.6296   2965369.3016   2  22   0.5667   0.9843   0.5065  -0.6310   0.5911  -0.4126  -0.50    1.2
2020/06/29 08:13:16.000  -2191126.6155   5198846.7824   2965369.2995   2  22   0.4065   0.7299   0.3633  -0.4537   0.4290  -0.2974   0.00    1.2
2020/06/29 08:13:16.500  -2191126.7044   5198846.7881   2965369.3493   2  22   0.3319   0.5884   0.2964  -0.3701   0.3486  -0.2425   0.50    1.1
2020/06/29 08:13:17.000  -2191126.7613   5198846.8066   2965369.3787   2  22   0.2875   0.5065   0.2566  -0.3204   0.3013  -0.2098   0.00    1.1
2020/06/29 08:13:17.500  -2191126.8264   5198846.8387   2965369.4176   2  22   0.2571   0.4515   0.2294  -0.2865   0.2691  -0.1876   0.50    1.1
2020/06/29 08:13:18.000  -2191126.8704   5198846.8662   2965369.4582   2  22   0.2347   0.4112   0.2094  -0.2615   0.2454  -0.1712   0.00    1.0
2020/06/29 08:13:18.500  -2191126.9006   5198846.8709   2965369.4834   2  22   0.2173   0.3800   0.1938  -0.2420   0.2271  -0.1584   0.50    1.0
2020/06/29 08:13:19.000  -2191126.9325   5198846.8816   2965369.5112   2  22   0.2033   0.3550   0.1813  -0.2264   0.2123  -0.1481   0.00    1.2
2020/06/29 08:13:19.500  -2191126.9569   5198846.8772   2965369.5362   2  22   0.1916   0.3344   0.1709  -0.2134   0.2001  -0.1396   0.50    1.3
2020/06/29 08:13:20.000  -2191126.9929   5198846.9150   2965369.5660   2  22   0.1818   0.3170   0.1621  -0.2024   0.1897  -0.1324   0.00    1.4
2020/06/29 08:13:20.500  -2191127.0316   5198846.9554   2965369.5926   2  22   0.1733   0.3020   0.1545  -0.1929   0.1808  -0.1262   0.50    1.4
2020/06/29 08:13:21.000  -2191127.0758   5198847.0075   2965369.6154   2  22   0.1660   0.2890   0.1479  -0.1847   0.1731  -0.1208   0.00    1.5
2020/06/29 08:13:21.500  -2191127.1108   5198847.0507   2965369.6330   2  22   0.1594   0.2775   0.1421  -0.1774   0.1662  -0.1161   0.50    1.5
2020/06/29 08:13:22.000  -2191127.1384   5198847.0677   2965369.6394   2  22   0.1536   0.2673   0.1369  -0.1709   0.1601  -0.1118   0.00    1.5
2020/06/29 08:13:22.500  -2191127.1663   5198847.0824   2965369.6506   2  22   0.1484   0.2581   0.1322  -0.1651   0.1546  -0.1080   0.50    1.6
2020/06/29 08:13:23.000  -2191127.1909   5198847.1162   2965369.6670   2  22   0.1437   0.2498   0.1280  -0.1598   0.1497  -0.1046   0.00    1.7
2020/06/29 08:13:23.500  -2191127.2015   5198847.1345   2965369.6782   2  22   0.1394   0.2422   0.1242  -0.1550   0.1452  -0.1014   0.50    1.7
2020/06/29 08:13:24.000  -2191127.2162   5198847.1575   2965369.6907   2  22   0.1354   0.2353   0.1207  -0.1506   0.1410  -0.0985   0.00    1.7
2020/06/29 08:13:24.500  -2191127.2265   5198847.1793   2965369.7014   2  22   0.1318   0.2289   0.1174  -0.1466   0.1372  -0.0959   0.50    1.7
2020/06/29 08:13:25.000  -2191127.2437   5198847.2038   2965369.7086   2  22   0.1284   0.2230   0.1144  -0.1428   0.1337  -0.0934   0.00    1.7
2020/06/29 08:13:25.500  -2191127.2562   5198847.2288   2965369.7146   2  22   0.1253   0.2176   0.1117  -0.1393   0.1304  -0.0911   0.50    1.7
2020/06/29 08:13:26.000  -2191127.2756   5198847.2614   2965369.7218   2  22   0.1224   0.2125   0.1091  -0.1361   0.1274  -0.0890   0.00    1.7
2020/06/29 08:13:26.500  -2191127.2913   5198847.2838   2965369.7263   2  22   0.1197   0.2078   0.1066  -0.1330   0.1246  -0.0870   0.50    1.7
2020/06/29 08:13:27.000  -2191127.3037   5198847.3080   2965369.7346   2  22   0.1172   0.2033   0.1044  -0.1302   0.1219  -0.0852   0.00    1.7
2020/06/29 08:13:27.500  -2191127.3169   5198847.3278   2965369.7426   2  22   0.1148   0.1991   0.1022  -0.1275   0.1194  -0.0834   0.50    1.7
2020/06/29 08:13:28.000  -2191127.3244   5198847.3390   2965369.7521   2  22   0.1125   0.1952   0.1002  -0.1250   0.1170  -0.0818   0.00    1.7
2020/06/29 08:13:28.500  -2191127.3281   5198847.3450   2965369.7579   2  22   0.1104   0.1915   0.0983  -0.1226   0.1148  -0.0802   0.50    1.8
2020/06/29 08:13:29.000  -2191127.3366   5198847.3557   2965369.7705   2  22   0.1084   0.1879   0.0965  -0.1204   0.1127  -0.0787   0.00    1.8
2020/06/29 08:13:29.500  -2191127.3430   5198847.3628   2965369.7778   2  22   0.1065   0.1846   0.0948  -0.1182   0.1107  -0.0773   0.50    1.8
2020/06/29 08:13:30.000  -2191127.3547   5198847.3931   2965369.7910   2  22   0.1047   0.1814   0.0932  -0.1162   0.1088  -0.0760   0.00    1.8
2020/06/29 08:13:30.500  -2191127.3652   5198847.4202   2965369.7999   2  22   0.1030   0.1784   0.0917  -0.1143   0.1069  -0.0747   0.50    1.8
2020/06/29 08:13:31.000  -2191127.3805   5198847.4481   2965369.8115   2  22   0.1013   0.1755   0.0902  -0.1124   0.1052  -0.0735   0.00    1.8
2020/06/29 08:13:31.500  -2191127.3933   5198847.4764   2965369.8205   2  22   0.0997   0.1727   0.0888  -0.1106   0.1036  -0.0724   0.50    1.8
2020/06/29 08:13:32.000  -2191127.4143   5198847.5174   2965369.8346   2  22   0.0982   0.1701   0.0874  -0.1090   0.1020  -0.0713   0.00    1.9
2020/06/29 08:13:32.500  -2191127.4301   5198847.5518   2965369.8447   2  22   0.0968   0.1676   0.0862  -0.1073   0.1005  -0.0702   0.50    1.9
2020/06/29 08:13:33.000  -2191127.4455   5198847.5847   2965369.8564   2  22   0.0954   0.1652   0.0849  -0.1058   0.0990  -0.0692   0.00    1.8
2020/06/29 08:13:33.500  -2191127.4566   5198847.6071   2965369.8629   2  22   0.0941   0.1629   0.0837  -0.1043   0.0976  -0.0682   0.50    1.8
2020/06/29 08:13:34.000  -2191127.4677   5198847.6256   2965369.8686   2  22   0.0928   0.1606   0.0826  -0.1029   0.0963  -0.0673   0.00    1.8
2020/06/29 08:13:34.500  -2191127.4744   5198847.6364   2965369.8708   2  22   0.0916   0.1585   0.0815  -0.1015   0.0950  -0.0664   0.50    1.8
2020/06/29 08:13:35.000  -2191127.4823   5198847.6493   2965369.8719   2  22   0.0904   0.1564   0.0805  -0.1001   0.0937  -0.0655   0.00    1.8
2020/06/29 08:13:35.500  -2191127.4866   5198847.6605   2965369.8758   2  22   0.0893   0.1544   0.0794  -0.0989   0.0925  -0.0647   0.50    1.8
2020/06/29 08:13:36.000  -2191127.4946   5198847.6712   2965369.8820   2  22   0.0882   0.1525   0.0785  -0.0976   0.0914  -0.0638   0.00    1.8
2020/06/29 08:13:36.500  -2191127.5054   5198847.6898   2965369.8902   2  22   0.0871   0.1506   0.0775  -0.0964   0.0902  -0.0631   0.50    1.8
2020/06/29 08:13:37.000  -2191127.5134   5198847.6994   2965369.8944   2  22   0.0861   0.1488   0.0766  -0.0953   0.0892  -0.0623   0.00    1.8
2020/06/29 08:13:37.500  -2191127.5253   5198847.7177   2965369.9033   2  22   0.0851   0.1471   0.0757  -0.0941   0.0881  -0.0616   0.50    1.8
2020/06/29 08:13:38.000  -2191127.5326   5198847.7379   2965369.9112   2  22   0.0841   0.1454   0.0748  -0.0931   0.0871  -0.0609   0.00    1.9
2020/06/29 08:13:38.500  -2191127.5439   5198847.7594   2965369.9212   2  22   0.0832   0.1438   0.0740  -0.0920   0.0861  -0.0602   0.50    1.9
2020/06/29 08:13:39.000  -2191127.5492   5198847.7737   2965369.9288   2  22   0.0823   0.1422   0.0732  -0.0910   0.0851  -0.0595   0.00    1.9
2020/06/29 08:13:39.500  -2191127.5576   5198847.7945   2965369.9377   2  22   0.0814   0.1406   0.0724  -0.0900   0.0842  -0.0589   0.50    1.9
2020/06/29 08:13:40.000  -2191127.5678   5198847.8164   2965369.9466   2  22   0.0806   0.1391   0.0717  -0.0890   0.0833  -0.0582   0.00    1.9
2020/06/29 08:13:40.500  -2191127.5779   5198847.8289   2965369.9524   2  22   0.0797   0.1377   0.0709  -0.0881   0.0824  -0.0576   0.50    1.9
2020/06/29 08:13:41.000  -2191127.5877   5198847.8323   2965369.9587   2  22   0.0789   0.1363   0.0702  -0.0872   0.0816  -0.0570   0.00    1.9
2020/06/29 08:13:41.500  -2191127.5951   5198847.8352   2965369.9645   2  22   0.0782   0.1349   0.0695  -0.0863   0.0808  -0.0564   0.50    2.0
2020/06/29 08:13:42.000  -2191127.6037   5198847.8455   2965369.9704   2  22   0.0774   0.1336   0.0688  -0.0854   0.0800  -0.0559   0.00    2.0
2020/06/29 08:13:42.500  -2191127.6106   5198847.8500   2965369.9739   2  22   0.0767   0.1323   0.0682  -0.0846   0.0792  -0.0553   0.50    2.0
2020/06/29 08:13:43.000  -2191127.6107   5198847.8434   2965369.9737   2  22   0.0759   0.1310   0.0675  -0.0837   0.0784  -0.0548   0.00    2.0
2020/06/29 08:13:43.500  -2191127.6116   5198847.8389   2965369.9737   2  22   0.0752   0.1297   0.0669  -0.0829   0.0777  -0.0543   0.50    2.0
2020/06/29 08:13:44.000  -2191127.6117   5198847.8424   2965369.9778   2  22   0.0745   0.1285   0.0663  -0.0822   0.0769  -0.0537   0.00    2.0
2020/06/29 08:13:44.500  -2191127.6135   5198847.8411   2965369.9793   2  22   0.0739   0.1274   0.0657  -0.0814   0.0762  -0.0532   0.50    2.0
2020/06/29 08:13:45.000  -2191127.6155   5198847.8416   2965369.9768   2  22   0.0732   0.1262   0.0651  -0.0806   0.0755  -0.0528   0.00    2.0
2020/06/29 08:13:45.500  -2191127.6191   5198847.8388   2965369.9749   2  22   0.0726   0.1251   0.0645  -0.0799   0.0748  -0.0523   0.50    2.0
2020/06/29 08:13:46.000  -2191127.6211   5198847.8425   2965369.9787   2  22   0.0720   0.1240   0.0640  -0.0792   0.0742  -0.0518   0.00    2.0
2020/06/29 08:13:46.500  -2191127.6228   5198847.8420   2965369.9787   2  22   0.0713   0.1229   0.0634  -0.0785   0.0735  -0.0514   0.50    2.0
2020/06/29 08:13:47.000  -2191127.6248   5198847.8377   2965369.9753   2  22   0.0708   0.1219   0.0629  -0.0778   0.0729  -0.0509   0.00    2.0
2020/06/29 08:13:47.500  -2191127.6280   5198847.8387   2965369.9753   2  22   0.0702   0.1208   0.0624  -0.0772   0.0723  -0.0505   0.50    2.0
2020/06/29 08:13:48.000  -2191127.6319   5198847.8412   2965369.9779   2  22   0.0696   0.1198   0.0619  -0.0765   0.0716  -0.0501   0.00    2.0
2020/06/29 08:13:48.500  -2191127.6357   5198847.8412   2965369.9775   2  22   0.0690   0.1188   0.0614  -0.0759   0.0710  -0.0496   0.50    2.0
2020/06/29 08:13:49.000  -2191127.6382   5198847.8408   2965369.9793   2  22   0.0685   0.1179   0.0609  -0.0752   0.0705  -0.0492   0.00    2.0
2020/06/29 08:13:49.500  -2191127.6435   5198847.8433   2965369.9805   2  22   0.0680   0.1169   0.0604  -0.0746   0.0699  -0.0488   0.50    2.0
2020/06/29 08:13:50.000  -2191127.6481   5198847.8446   2965369.9824   2  22   0.0674   0.1160   0.0599  -0.0740   0.0693  -0.0484   0.00    2.1
2020/06/29 08:13:50.500  -2191127.6491   5198847.8420   2965369.9832   2  22   0.0669   0.1151   0.0595  -0.0734   0.0688  -0.0480   0.50    2.1
2020/06/29 08:13:51.000  -2191127.6519   5198847.8426   2965369.9876   2  22   0.0664   0.1142   0.0590  -0.0728   0.0682  -0.0477   0.00    2.1
2020/06/29 08:13:51.500  -2191127.6538   5198847.8392   2965369.9892   2  22   0.0659   0.1133   0.0586  -0.0723   0.0677  -0.0473   0.50    2.1
2020/06/29 08:13:52.000  -2191127.6530   5198847.8284   2965369.9868   2  22   0.0654   0.1124   0.0581  -0.0717   0.0672  -0.0469   0.00    2.1
2020/06/29 08:13:52.500  -2191127.6525   5198847.8250   2965369.9883   2  22   0.0650   0.1116   0.0577  -0.0712   0.0667  -0.0466   0.50    2.2
2020/06/29 08:13:53.000  -2191127.6498   5198847.8161   2965369.9863   2  22   0.0645   0.1108   0.0573  -0.0706   0.0662  -0.0462   0.00    2.2
2020/06/29 08:13:53.500  -2191127.6495   5198847.8115   2965369.9855   2  22   0.0640   0.1100   0.0569  -0.0701   0.0657  -0.0459   0.50    2.2
2020/06/29 08:13:54.000  -2191127.6456   5198847.7986   2965369.9822   2  22   0.0636   0.1092   0.0565  -0.0696   0.0652  -0.0455   0.00    2.2
2020/06/29 08:13:54.500  -2191127.6464   5198847.7969   2965369.9811   2  22   0.0631   0.1084   0.0561  -0.0690   0.0647  -0.0452   0.50    2.2
2020/06/29 08:13:55.000  -2191127.6446   5198847.7906   2965369.9768   2  22   0.0627   0.1076   0.0557  -0.0685   0.0642  -0.0449   0.00    2.2
2020/06/29 08:13:55.500  -2191127.6412   5198847.7812   2965369.9702   2  22   0.0623   0.1069   0.0553  -0.0680   0.0638  -0.0445   0.50    2.2
2020/06/29 08:13:56.000  -2191127.6394   5198847.7783   2965369.9669   2  22   0.0619   0.1061   0.0549  -0.0676   0.0633  -0.0442   0.00    2.1
2020/06/29 08:13:56.500  -2191127.6382   5198847.7697   2965369.9644   2  22   0.0614   0.1054   0.0546  -0.0671   0.0629  -0.0439   0.50    2.1
2020/06/29 08:13:57.000  -2191127.6380   5198847.7656   2965369.9624   2  22   0.0610   0.1046   0.0542  -0.0666   0.0624  -0.0436   0.00    2.1
2020/06/29 08:13:57.500  -2191127.6379   5198847.7549   2965369.9588   2  22   0.0606   0.1039   0.0538  -0.0661   0.0620  -0.0433   0.50    2.1
2020/06/29 08:13:58.000  -2191127.6415   5198847.7512   2965369.9590   2  21   0.0604   0.1033   0.0535  -0.0658   0.0617  -0.0431   0.00    2.2
2020/06/29 08:13:58.500  -2191127.6451   5198847.7469   2965369.9567   2  21   0.0600   0.1027   0.0532  -0.0654   0.0613  -0.0429   0.50    2.2
2020/06/29 08:13:59.000  -2191127.6462   5198847.7366   2965369.9548   2  22   0.0597   0.1020   0.0529  -0.0650   0.0609  -0.0426   0.00    2.2
2020/06/29 08:13:59.500  -2191127.6475   5198847.7281   2965369.9528   2  22   0.0592   0.1013   0.0525  -0.0645   0.0604  -0.0423   0.50    2.2
2020/06/29 08:14:00.000  -2191127.6506   5198847.7254   2965369.9538   2  22   0.0589   0.1006   0.0522  -0.0640   0.0600  -0.0420   0.00    2.2
2020/06/29 08:14:00.500  -2191127.6468   5198847.7120   2965369.9503   2  22   0.0585   0.1000   0.0518  -0.0636   0.0596  -0.0417   0.50    2.2
2020/06/29 08:14:01.000  -2191127.6497   5198847.7067   2965369.9529   2  22   0.0581   0.0993   0.0515  -0.0632   0.0592  -0.0414   0.00    2.3
2020/06/29 08:14:01.500  -2191127.6498   5198847.6995   2965369.9538   2  22   0.0578   0.0987   0.0512  -0.0628   0.0588  -0.0411   0.50    2.3
2020/06/29 08:14:02.000  -2191127.6492   5198847.6931   2965369.9522   2  22   0.0574   0.0981   0.0509  -0.0624   0.0585  -0.0409   0.00    2.3
2020/06/29 08:14:02.500  -2191127.6504   5198847.6895   2965369.9541   2  22   0.0571   0.0975   0.0506  -0.0619   0.0581  -0.0406   0.50    2.3
2020/06/29 08:14:03.000  -2191127.6477   5198847.6784   2965369.9512   2  22   0.0567   0.0969   0.0503  -0.0615   0.0577  -0.0403   0.00    2.4
2020/06/29 08:14:03.500  -2191127.6471   5198847.6719   2965369.9499   2  22   0.0564   0.0963   0.0500  -0.0612   0.0573  -0.0401   0.50    2.4
2020/06/29 08:14:04.000  -2191127.6462   5198847.6681   2965369.9495   2  22   0.0561   0.0957   0.0497  -0.0608   0.0570  -0.0398   0.00    2.4
2020/06/29 08:14:04.500  -2191127.6455   5198847.6622   2965369.9469   2  22   0.0557   0.0951   0.0494  -0.0604   0.0566  -0.0396   0.50    2.4
2020/06/29 08:14:05.000  -2191127.6449   5198847.6609   2965369.9448   2  22   0.0554   0.0945   0.0491  -0.0600   0.0563  -0.0393   0.00    2.4
2020/06/29 08:14:05.500  -2191127.6387   5198847.6502   2965369.9408   2  22   0.0551   0.0940   0.0488  -0.0596   0.0559  -0.0391   0.50    2.4
2020/06/29 08:14:06.000  -2191127.6321   5198847.6386   2965369.9371   2  22   0.0548   0.0934   0.0485  -0.0592   0.0556  -0.0388   0.00    2.4
2020/06/29 08:14:06.500  -2191127.6283   5198847.6355   2965369.9367   2  22   0.0545   0.0928   0.0483  -0.0589   0.0553  -0.0386   0.50    2.4
2020/06/29 08:14:07.000  -2191127.6231   5198847.6291   2965369.9350   2  22   0.0542   0.0923   0.0480  -0.0585   0.0549  -0.0384   0.00    2.4
2020/06/29 08:14:07.500  -2191127.6180   5198847.6199   2965369.9326   2  22   0.0539   0.0918   0.0477  -0.0582   0.0546  -0.0381   0.50    2.4
2020/06/29 08:14:08.000  -2191127.6136   5198847.6134   2965369.9271   2  22   0.0536   0.0912   0.0474  -0.0578   0.0543  -0.0379   0.00    2.4
2020/06/29 08:14:08.500  -2191127.6081   5198847.6034   2965369.9242   2  22   0.0533   0.0907   0.0472  -0.0575   0.0539  -0.0377   0.50    2.4
2020/06/29 08:14:09.000  -2191127.5998   5198847.5928   2965369.9197   2  22   0.0530   0.0902   0.0469  -0.0571   0.0536  -0.0374   0.00    2.4
2020/06/29 08:14:09.500  -2191127.5951   5198847.5882   2965369.9169   2  22   0.0527   0.0897   0.0467  -0.0568   0.0533  -0.0372   0.50    2.3
2020/06/29 08:14:10.000  -2191127.5879   5198847.5749   2965369.9121   2  22   0.0524   0.0892   0.0464  -0.0564   0.0530  -0.0370   0.00    2.3
2020/06/29 08:14:10.500  -2191127.5825   5198847.5671   2965369.9095   2  22   0.0521   0.0887   0.0462  -0.0561   0.0527  -0.0368   0.50    2.3
2020/06/29 08:14:11.000  -2191127.5746   5198847.5577   2965369.9062   2  22   0.0518   0.0882   0.0459  -0.0558   0.0524  -0.0366   0.00    2.3
2020/06/29 08:14:11.500  -2191127.5685   5198847.5477   2965369.9020   2  22   0.0516   0.0877   0.0457  -0.0554   0.0521  -0.0364   0.50    2.3
2020/06/29 08:14:12.000  -2191127.5601   5198847.5415   2965369.8993   2  22   0.0513   0.0872   0.0454  -0.0551   0.0518  -0.0362   0.00    2.3
2020/06/29 08:14:12.500  -2191127.5532   5198847.5328   2965369.8987   2  22   0.0510   0.0867   0.0452  -0.0548   0.0515  -0.0360   0.50    2.3
2020/06/29 08:14:13.000  -2191127.5466   5198847.5267   2965369.8945   2  22   0.0508   0.0862   0.0449  -0.0545   0.0512  -0.0357   0.00    2.3
2020/06/29 08:14:13.500  -2191127.5402   5198847.5184   2965369.8914   2  22   0.0505   0.0858   0.0447  -0.0542   0.0509  -0.0355   0.50    2.3
2020/06/29 08:14:14.000  -2191127.5355   5198847.5114   2965369.8893   2  22   0.0503   0.0853   0.0445  -0.0539   0.0506  -0.0353   0.00    2.3
2020/06/29 08:14:14.500  -2191127.5288   5198847.5007   2965369.8866   2  22   0.0500   0.0849   0.0443  -0.0536   0.0504  -0.0351   0.50    2.3
2020/06/29 08:14:15.000  -2191127.5206   5198847.4941   2965369.8827   2  22   0.0497   0.0844   0.0440  -0.0533   0.0501  -0.0350   0.00    2.3
2020/06/29 08:14:15.500  -2191127.5184   5198847.4898   2965369.8837   2  22   0.0495   0.0840   0.0438  -0.0530   0.0498  -0.0348   0.50    2.3
2020/06/29 08:14:16.000  -2191127.5138   5198847.4800   2965369.8805   2  22   0.0493   0.0835   0.0436  -0.0527   0.0495  -0.0346   0.00    2.3
2020/06/29 08:14:16.500  -2191127.5105   5198847.4753   2965369.8812   2  22   0.0490   0.0831   0.0434  -0.0524   0.0493  -0.0344   0.50    2.3
2020/06/29 08:14:17.000  -2191127.5066   5198847.4709   2965369.8782   2  22   0.0488   0.0826   0.0431  -0.0521   0.0490  -0.0342   0.00    2.3
2020/06/29 08:14:17.500  -2191127.5018   5198847.4642   2965369.8764   2  22   0.0485   0.0822   0.0429  -0.0518   0.0487  -0.0340   0.50    2.3
2020/06/29 08:14:18.000  -2191127.4978   5198847.4575   2965369.8759   2  22   0.0483   0.0818   0.0427  -0.0515   0.0485  -0.0338   0.00    2.3
2020/06/29 08:14:18.500  -2191127.4942   5198847.4546   2965369.8752   2  22   0.0481   0.0814   0.0425  -0.0512   0.0482  -0.0336   0.50    2.3
2020/06/29 08:14:19.000  -2191127.4901   5198847.4478   2965369.8749   2  22   0.0478   0.0809   0.0423  -0.0509   0.0479  -0.0335   0.00    2.3
2020/06/29 08:14:19.500  -2191127.4875   5198847.4448   2965369.8754   2  22   0.0476   0.0805   0.0421  -0.0507   0.0477  -0.0333   0.50    2.3
2020/06/29 08:14:20.000  -2191127.4850   5198847.4466   2965369.8784   2  22   0.0474   0.0801   0.0419  -0.0504   0.0474  -0.0331   0.00    2.3
2020/06/29 08:14:20.500  -2191127.4837   5198847.4468   2965369.8809   2  22   0.0472   0.0797   0.0417  -0.0501   0.0472  -0.0329   0.50    2.4
2020/06/29 08:14:21.000  -2191127.4799   5198847.4442   2965369.8803   2  22   0.0469   0.0793   0.0415  -0.0499   0.0470  -0.0328   0.00    2.4
2020/06/29 08:14:21.500  -2191127.4780   5198847.4415   2965369.8797   2  22   0.0467   0.0789   0.0413  -0.0496   0.0467  -0.0326   0.50    2.4
2020/06/29 08:14:22.000  -2191127.4748   5198847.4383   2965369.8800   2  22   0.0465   0.0785   0.0411  -0.0493   0.0465  -0.0324   0.00    2.4
2020/06/29 08:14:22.500  -2191127.4721   5198847.4387   2965369.8809   2  22   0.0463   0.0781   0.0409  -0.0491   0.0462  -0.0322   0.50    2.4
2020/06/29 08:14:23.000  -2191127.4692   5198847.4353   2965369.8796   2  22   0.0461   0.0778   0.0407  -0.0488   0.0460  -0.0321   0.00    2.4
2020/06/29 08:14:23.500  -2191127.4672   5198847.4330   2965369.8792   2  22   0.0459   0.0774   0.0405  -0.0486   0.0458  -0.0319   0.50    2.4
2020/06/29 08:14:24.000  -2191127.4648   5198847.4317   2965369.8815   2  22   0.0456   0.0770   0.0403  -0.0483   0.0455  -0.0317   0.00    2.4
2020/06/29 08:14:24.500  -2191127.4595   5198847.4232   2965369.8798   2  22   0.0454   0.0766   0.0402  -0.0480   0.0453  -0.0316   0.50    2.4
2020/06/29 08:14:25.000  -2191127.4554   5198847.4167   2965369.8787   2  22   0.0452   0.0763   0.0400  -0.0478   0.0451  -0.0314   0.00    2.4
2020/06/29 08:14:25.500  -2191127.4493   5198847.4119   2965369.8777   2  22   0.0450   0.0759   0.0398  -0.0475   0.0448  -0.0313   0.50    2.4
2020/06/29 08:14:26.000  -2191127.4442   5198847.4033   2965369.8751   2  22   0.0448   0.0755   0.0396  -0.0473   0.0446  -0.0311   0.00    2.4
2020/06/29 08:14:26.500  -2191127.4408   5198847.3995   2965369.8749   2  22   0.0446   0.0752   0.0394  -0.0471   0.0444  -0.0309   0.50    2.4
2020/06/29 08:14:27.000  -2191127.4366   5198847.3999   2965369.8781   2  22   0.0444   0.0748   0.0392  -0.0468   0.0442  -0.0308   0.00    2.4
2020/06/29 08:14:27.500  -2191127.4285   5198847.3904   2965369.8770   2  22   0.0442   0.0745   0.0391  -0.0466   0.0440  -0.0306   0.50    2.4
2020/06/29 08:14:28.000  -2191127.4237   5198847.3865   2965369.8770   2  22   0.0440   0.0741   0.0389  -0.0463   0.0437  -0.0305   0.00    2.4
2020/06/29 08:14:28.500  -2191127.4195   5198847.3861   2965369.8784   2  22   0.0439   0.0738   0.0387  -0.0461   0.0435  -0.0303   0.50    2.4
2020/06/29 08:14:29.000  -2191127.4170   5198847.3848   2965369.8811   2  22   0.0437   0.0734   0.0385  -0.0459   0.0433  -0.0302   0.00    2.4
2020/06/29 08:14:29.500  -2191127.4139   5198847.3840   2965369.8831   2  22   0.0435   0.0731   0.0384  -0.0456   0.0431  -0.0300   0.50    2.4
2020/06/29 08:14:30.000  -2191127.4078   5198847.3812   2965369.8826   2  22   0.0433   0.0727   0.0382  -0.0454   0.0429  -0.0299   0.00    2.4
2020/06/29 08:14:30.500  -2191127.4037   5198847.3809   2965369.8825   2  22   0.0431   0.0724   0.0380  -0.0452   0.0427  -0.0297   0.50    2.4
2020/06/29 08:14:31.000  -2191127.4019   5198847.3793   2965369.8832   2  22   0.0429   0.0720   0.0379  -0.0450   0.0425  -0.0296   0.00    2.4
2020/06/29 08:14:31.500  -2191127.3989   5198847.3770   2965369.8855   2  22   0.0427   0.0717   0.0377  -0.0447   0.0423  -0.0294   0.50    2.4
2020/06/29 08:14:32.000  -2191127.3961   5198847.3790   2965369.8874   2  22   0.0426   0.0714   0.0375  -0.0445   0.0421  -0.0293   0.00    2.5
2020/06/29 08:14:32.500  -2191127.3953   5198847.3817   2965369.8904   2  22   0.0424   0.0711   0.0374  -0.0443   0.0419  -0.0292   0.50    2.5
2020/06/29 08:14:33.000  -2191127.3936   5198847.3833   2965369.8917   2  22   0.0422   0.0707   0.0372  -0.0441   0.0417  -0.0290   0.00    2.5
2020/06/29 08:14:33.500  -2191127.3928   5198847.3899   2965369.8952   2  22   0.0420   0.0704   0.0371  -0.0439   0.0415  -0.0289   0.50    2.5
2020/06/29 08:14:34.000  -2191127.3891   5198847.3871   2965369.8959   2  22   0.0418   0.0701   0.0369  -0.0436   0.0413  -0.0287   0.00    2.5
2020/06/29 08:14:34.500  -2191127.3873   5198847.3885   2965369.8982   2  22   0.0417   0.0698   0.0368  -0.0434   0.0411  -0.0286   0.50    2.5
2020/06/29 08:14:35.000  -2191127.3894   5198847.3940   2965369.9035   2  22   0.0415   0.0695   0.0366  -0.0432   0.0409  -0.0285   0.00    2.5
2020/06/29 08:14:35.500  -2191127.3887   5198847.3949   2965369.9055   2  22   0.0413   0.0692   0.0364  -0.0430   0.0407  -0.0283   0.50    2.5
2020/06/29 08:14:36.000  -2191127.3840   5198847.3918   2965369.9076   2  22   0.0412   0.0689   0.0363  -0.0428   0.0405  -0.0282   0.00    2.6
2020/06/29 08:14:36.500  -2191127.3845   5198847.3936   2965369.9106   2  22   0.0410   0.0686   0.0361  -0.0426   0.0403  -0.0281   0.50    2.6
2020/06/29 08:14:37.000  -2191127.3829   5198847.3959   2965369.9128   2  22   0.0408   0.0683   0.0360  -0.0424   0.0401  -0.0279   0.00    2.6
2020/06/29 08:14:37.500  -2191127.3840   5198847.3995   2965369.9163   2  22   0.0407   0.0680   0.0358  -0.0422   0.0399  -0.0278   0.50    2.6
2020/06/29 08:14:38.000  -2191127.3803   5198847.3977   2965369.9182   2  22   0.0405   0.0677   0.0357  -0.0420   0.0398  -0.0277   0.00    2.6
2020/06/29 08:14:38.500  -2191127.3775   5198847.3965   2965369.9206   2  22   0.0403   0.0674   0.0356  -0.0418   0.0396  -0.0275   0.50    2.6
2020/06/29 08:14:39.000  -2191127.3750   5198847.3962   2965369.9196   2  22   0.0402   0.0671   0.0354  -0.0416   0.0394  -0.0274   0.00    2.6
2020/06/29 08:14:39.500  -2191127.3745   5198847.3960   2965369.9225   2  22   0.0400   0.0668   0.0353  -0.0414   0.0392  -0.0273   0.50    2.7
2020/06/29 08:14:40.000  -2191127.3750   5198847.3997   2965369.9263   2  22   0.0399   0.0665   0.0351  -0.0412   0.0390  -0.0272   0.00    2.7
2020/06/29 08:14:40.500  -2191127.3715   5198847.3965   2965369.9262   2  22   0.0397   0.0662   0.0350  -0.0410   0.0389  -0.0270   0.50    2.7
2020/06/29 08:14:41.000  -2191127.3691   5198847.3930   2965369.9288   2  22   0.0396   0.0659   0.0348  -0.0408   0.0387  -0.0269   0.00    2.7
2020/06/29 08:14:41.500  -2191127.3687   5198847.3977   2965369.9331   2  22   0.0394   0.0656   0.0347  -0.0406   0.0385  -0.0268   0.50    2.7
2020/06/29 08:14:42.000  -2191127.3655   5198847.3954   2965369.9338   2  22   0.0392   0.0654   0.0346  -0.0404   0.0383  -0.0267   0.00    2.7
2020/06/29 08:14:42.500  -2191127.3641   5198847.3972   2965369.9366   2  22   0.0391   0.0651   0.0344  -0.0402   0.0382  -0.0266   0.50    2.8
2020/06/29 08:14:43.000  -2191127.3608   5198847.3972   2965369.9374   2  22   0.0389   0.0648   0.0343  -0.0400   0.0380  -0.0264   0.00    2.8
2020/06/29 08:14:43.500  -2191127.3598   5198847.3990   2965369.9382   2  22   0.0388   0.0645   0.0341  -0.0398   0.0378  -0.0263   0.50    2.8
2020/06/29 08:14:44.000  -2191127.3590   5198847.4001   2965369.9419   2  22   0.0386   0.0643   0.0340  -0.0397   0.0377  -0.0262   0.00    2.8
2020/06/29 08:14:44.500  -2191127.3572   5198847.4003   2965369.9424   2  22   0.0385   0.0640   0.0339  -0.0395   0.0375  -0.0261   0.50    2.8
2020/06/29 08:14:45.000  -2191127.3562   5198847.4022   2965369.9463   2  22   0.0384   0.0637   0.0337  -0.0393   0.0373  -0.0260   0.00    2.8
2020/06/29 08:14:45.500  -2191127.3556   5198847.4005   2965369.9479   2  22   0.0382   0.0635   0.0336  -0.0391   0.0372  -0.0258   0.50    2.8
2020/06/29 08:14:46.000  -2191127.3550   5198847.4021   2965369.9500   2  22   0.0381   0.0632   0.0335  -0.0389   0.0370  -0.0257   0.00    2.8
2020/06/29 08:14:46.500  -2191127.3552   5198847.4033   2965369.9519   2  22   0.0379   0.0629   0.0334  -0.0387   0.0368  -0.0256   0.50    2.8
2020/06/29 08:14:47.000  -2191127.3553   5198847.4105   2965369.9544   2  22   0.0378   0.0627   0.0332  -0.0386   0.0367  -0.0255   0.00    2.8
2020/06/29 08:14:47.500  -2191127.3547   5198847.4118   2965369.9570   2  22   0.0376   0.0624   0.0331  -0.0384   0.0365  -0.0254   0.50    2.9
2020/06/29 08:14:48.000  -2191127.3538   5198847.4153   2965369.9600   2  22   0.0375   0.0622   0.0330  -0.0382   0.0364  -0.0253   0.00    2.9
2020/06/29 08:14:48.500  -2191127.3514   5198847.4171   2965369.9616   2  22   0.0374   0.0619   0.0328  -0.0380   0.0362  -0.0252   0.50    2.9
2020/06/29 08:14:49.000  -2191127.3483   5198847.4162   2965369.9635   2  22   0.0372   0.0617   0.0327  -0.0379   0.0360  -0.0251   0.00    2.9
2020/06/29 08:14:49.500  -2191127.3451   5198847.4147   2965369.9639   2  22   0.0371   0.0614   0.0326  -0.0377   0.0359  -0.0249   0.50    2.9
2020/06/29 08:14:50.000  -2191127.3475   5198847.4207   2965369.9703   2  22   0.0370   0.0612   0.0325  -0.0375   0.0357  -0.0248   0.00    2.9
2020/06/29 08:14:50.500  -2191127.3468   5198847.4248   2965369.9729   2  22   0.0368   0.0609   0.0323  -0.0374   0.0356  -0.0247   0.50    2.9
2020/06/29 08:14:51.000  -2191127.3443   5198847.4255   2965369.9746   2  22   0.0367   0.0607   0.0322  -0.0372   0.0354  -0.0246   0.00    2.9
2020/06/29 08:14:51.500  -2191127.3412   5198847.4248   2965369.9748   2  22   0.0366   0.0604   0.0321  -0.0370   0.0353  -0.0245   0.50    3.0
2020/06/29 08:14:52.000  -2191127.3406   5198847.4268   2965369.9761   2  22   0.0364   0.0602   0.0320  -0.0369   0.0351  -0.0244   0.00    3.0
2020/06/29 08:14:52.500  -2191127.3396   5198847.4276   2965369.9781   2  22   0.0363   0.0599   0.0319  -0.0367   0.0350  -0.0243   0.50    3.0
2020/06/29 08:14:53.000  -2191127.7292   5198847.7406   2965370.5677   1  22   0.0058   0.0099   0.0051  -0.0064   0.0060  -0.0042   0.00    3.0
2020/06/29 08:14:53.500  -2191127.7296   5198847.7377   2965370.5667   1  22   0.0058   0.0100   0.0051  -0.0064   0.0060  -0.0042   0.50    3.0
2020/06/29 08:14:54.000  -2191127.7277   5198847.7415   2965370.5682   1  22   0.0058   0.0099   0.0051  -0.0064   0.0060  -0.0042   0.00    3.0
2020/06/29 08:14:54.500  -2191127.7276   5198847.7395   2965370.5684   1  22   0.0058   0.0100   0.0051  -0.0064   0.0060  -0.0042   0.50    3.1
2020/06/29 08:14:55.000  -2191127.7305   5198847.7396   2965370.5691   1  22   0.0058   0.0099   0.0051  -0.0064   0.0060  -0.0042   0.00  458.0
2020/06/29 08:14:55.500  -2191127.7294   5198847.7421   2965370.5696   1  22   0.0058   0.0100   0.0051  -0.0064   0.0060  -0.0042   0.50  965.5
2020/06/29 08:14:56.000  -2191127.7291   5198847.7411   2965370.5689   1  22   0.0058   0.0099   0.0051  -0.0064   0.0060  -0.0042   0.00  999.9
2020/06/29 08:14:56.500  -2191127.7306   5198847.7445   2965370.5706   1  22   0.0058   0.0100   0.0051  -0.0064   0.0060  -0.0042   0.50  999.9
2020/06/29 08:14:57.000  -2191127.7284   5198847.7400   2965370.5686   1  22   0.0058   0.0099   0.0051  -0.0064   0.0060  -0.0042   0.00  999.9
2020/06/29 08:14:57.500  -2191127.7295   5198847.7417   2965370.5684   1  22   0.0058   0.0100   0.0051  -0.0064   0.0060  -0.0042   0.50  999.9
2020/06/29 08:14:58.000  -2191127.7285   5198847.7393   2965370.5696   1  22   0.0058   0.0099   0.0051  -0.0064   0.0060  -0.0042   0.00  999.9
2020/06/29 08:14:58.500  -2191127.7274   5198847.7384   2965370.5695   1  22   0.0058   0.0100   0.0051  -0.0064   0.0060  -0.0042   0.50  999.9
2020/06/29 08:14:59.000  -2191127.7304   5198847.7452   2965370.5719   1  22   0.0058   0.0099   0.0051  -0.0064   0.0060  -0.0042   0.00  999.9
2020/06/29 08:14:59.500  -2191127.7293   5198847.7445   2965370.5712   1  22   0.0058   0.0100   0.0051  -0.0064   0.0060  -0.0042   0.50  999.9
2020/06/29 08:15:00.000  -2191127.7296   5198847.7410   2965370.5681   1  22   0.0058   0.0099   0.0051  -0.0064   0.0060  -0.0042   0.00  999.9
2020/06/29 08:15:00.500  -2191127.7301   5198847.7422   2965370.5672   1  22   0.0058   0.0100   0.0051  -0.0064   0.0060  -0.0042   0.50  999.9
2020/06/29 08:15:01.000  -2191127.7296   5198847.7416   2965370.5698   1  22   0.0058   0.0099   0.0051  -0.0064   0.0060  -0.0042   0.00  999.9
2020/06/29 08:15:01.500  -2191127.7300   5198847.7409   2965370.5678   1  22   0.0058   0.0100   0.0051  -0.0064   0.0060  -0.0042   0.50  999.9
2020/06/29 08:15:02.000  -2191127.7283   5198847.7411   2965370.5689   1  22   0.0058   0.0099   0.0051  -0.0064   0.0060  -0.0042   0.00  999.9
2020/06/29 08:15:02.500  -2191127.7297   5198847.7411   2965370.5677   1  22   0.0058   0.0100   0.0051  -0.0064   0.0060  -0.0042   0.50  999.9
2020/06/29 08:15:03.000  -2191127.7292   5198847.7417   2965370.5698   1  22   0.0058   0.0099   0.0051  -0.0064   0.0059  -0.0042   0.00  999.9
2020/06/29 08:15:03.500  -2191127.7291   5198847.7424   2965370.5704   1  22   0.0058   0.0100   0.0051  -0.0064   0.0060  -0.0042   0.50  999.9
2020/06/29 08:15:04.000  -2191127.7286   5198847.7415   2965370.5707   1  22   0.0058   0.0099   0.0051  -0.0064   0.0059  -0.0042   0.00  999.9
2020/06/29 08:15:04.500  -2191127.7287   5198847.7414   2965370.5698   1  22   0.0058   0.0100   0.0051  -0.0064   0.0060  -0.0042   0.50  999.9
2020/06/29 08:15:05.000  -2191127.7283   5198847.7416   2965370.5682   1  22   0.0058   0.0099   0.0051  -0.0064   0.0059  -0.0042   0.00  999.9
2020/06/29 08:15:05.500  -2191127.7295   5198847.7417   2965370.5696   1  22   0.0058   0.0100   0.0051  -0.0064   0.0060  -0.0042   0.50  999.9
2020/06/29 08:15:06.000  -2191127.7294   5198847.7422   2965370.5696   1  22   0.0058   0.0099   0.0051  -0.0064   0.0059  -0.0042   0.00  999.9
2020/06/29 08:15:06.500  -2191127.7299   5198847.7431   2965370.5687   1  22   0.0058   0.0100   0.0051  -0.0064   0.0060  -0.0042   0.50  999.9
2020/06/29 08:15:07.000  -2191127.7300   5198847.7404   2965370.5695   1  22   0.0058   0.0099   0.0051  -0.0064   0.0059  -0.0042   0.00  999.9
2020/06/29 08:15:07.500  -2191127.7297   5198847.7414   2965370.5697   1  22   0.0058   0.0100   0.0051  -0.0064   0.0060  -0.0042   0.50  999.9
2020/06/29 08:15:08.000  -2191127.7289   5198847.7411   2965370.5705   1  22   0.0058   0.0099   0.0051  -0.0064   0.0059  -0.0042   0.00  999.9
2020/06/29 08:15:08.500  -2191127.7268   5198847.7377   2965370.5702   1  22   0.0058   0.0100   0.0051  -0.0064   0.0060  -0.0042   0.50  999.9
2020/06/29 08:15:09.000  -2191127.7287   5198847.7382   2965370.5681   1  22   0.0058   0.0099   0.0051  -0.0064   0.0059  -0.0042   0.00  999.9
2020/06/29 08:15:09.500  -2191127.7266   5198847.7400   2965370.5683   1  22   0.0058   0.0100   0.0051  -0.0064   0.0060  -0.0042   0.50  999.9
2020/06/29 08:15:10.000  -2191127.7267   5198847.7401   2965370.5688   1  22   0.0058   0.0099   0.0051  -0.0064   0.0059  -0.0042   0.00  999.9
2020/06/29 08:15:10.500  -2191127.7271   5198847.7392   2965370.5683   1  22   0.0058   0.0100   0.0051  -0.0064   0.0060  -0.0042   0.50  999.9
2020/06/29 08:15:11.000  -2191127.7284   5198847.7398   2965370.5679   1  22   0.0058   0.0099   0.0051  -0.0064   0.0059  -0.0042   0.00  999.9
2020/06/29 08:15:11.500  -2191127.7281   5198847.7379   2965370.5679   1  22   0.0058   0.0100   0.0051  -0.0064   0.0060  -0.0042   0.50  999.9
2020/06/29 08:15:12.000  -2191127.7286   5198847.7402   2965370.5692   1  22   0.0058   0.0099   0.0051  -0.0064   0.0059  -0.0042   0.00  999.9
2020/06/29 08:15:12.500  -2191127.7291   5198847.7409   2965370.5690   1  22   0.0058   0.0100   0.0051  -0.0064   0.0060  -0.0042   0.50  999.9
2020/06/29 08:15:13.000  -2191127.7275   5198847.7398   2965370.5684   1  22   0.0058   0.0099   0.0051  -0.0064   0.0059  -0.0042   0.00  999.9
2020/06/29 08:15:13.500  -2191127.7276   5198847.7398   2965370.5681   1  22   0.0058   0.0100   0.0051  -0.0064   0.0060  -0.0042   0.50  999.9
2020/06/29 08:15:14.000  -2191127.7283   5198847.7373   2965370.5670   1  22   0.0058   0.0099   0.0051  -0.0064   0.0059  -0.0042   0.00  999.9
2020/06/29 08:15:14.500  -2191127.7289   5198847.7410   2965370.5690   1  22   0.0058   0.0100   0.0051  -0.0064   0.0060  -0.0042   0.50  999.9
2020/06/29 08:15:15.000  -2191127.7290   5198847.7414   2965370.5699   1  22   0.0058   0.0099   0.0051  -0.0064   0.0059  -0.0042   0.00  999.9
2020/06/29 08:15:15.500  -2191127.7275   5198847.7403   2965370.5694   1  22   0.0058   0.0100   0.0051  -0.0064   0.0060  -0.0042   0.50  999.9
2020/06/29 08:15:16.000  -2191127.7281   5198847.7397   2965370.5682   1  22   0.0058   0.0099   0.0051  -0.0064   0.0059  -0.0042   0.00  999.9
2020/06/29 08:15:16.500  -2191127.7291   5198847.7389   2965370.5687   1  22   0.0058   0.0100   0.0051  -0.0064   0.0060  -0.0042   0.50  999.9
2020/06/29 08:15:17.000  -2191127.7289   5198847.7414   2965370.5689   1  22   0.0058   0.0099   0.0051  -0.0064   0.0059  -0.0042   0.00  999.9
2020/06/29 08:15:17.500  -2191127.7264   5198847.7386   2965370.5670   1  22   0.0058   0.0100   0.0051  -0.0064   0.0060  -0.0042   0.50  999.9
2020/06/29 08:15:18.000  -2191127.7285   5198847.7404   2965370.5694   1  22   0.0058   0.0099   0.0051  -0.0064   0.0059  -0.0042   0.00  999.9
2020/06/29 08:15:18.500  -2191127.7281   5198847.7396   2965370.5675   1  22   0.0058   0.0100   0.0051  -0.0064   0.0060  -0.0042   0.50  999.9
2020/06/29 08:15:19.000  -2191127.7284   5198847.7399   2965370.5679   1  22   0.0058   0.0099   0.0051  -0.0064   0.0059  -0.0042   0.00  999.9
2020/06/29 08:15:19.500  -2191127.7276   5198847.7390   2965370.5666   1  22   0.0058   0.0100   0.0051  -0.0064   0.0060  -0.0042   0.50  999.9
2020/06/29 08:15:20.000  -2191127.7261   5198847.7386   2965370.5661   1  22   0.0058   0.0099   0.0051  -0.0064   0.0059  -0.0042   0.00  999.9
2020/06/29 08:15:20.500  -2191127.7268   5198847.7412   2965370.5670   1  22   0.0058   0.0100   0.0051  -0.0064   0.0060  -0.0042   0.50  999.9
2020/06/29 08:15:21.000  -2191127.7274   5198847.7405   2965370.5671   1  22   0.0058   0.0099   0.0051  -0.0064   0.0059  -0.0042   0.00  999.9
2020/06/29 08:15:21.500  -2191127.7259   5198847.7372   2965370.5651   1  22   0.0058   0.0100   0.0051  -0.0064   0.0060  -0.0042   0.50  999.9
2020/06/29 08:15:22.000  -2191127.7282   5198847.7407   2965370.5685   1  22   0.0058   0.0099   0.0051  -0.0064   0.0059  -0.0042   0.00  999.9
2020/06/29 08:15:22.500  -2191127.7271   5198847.7404   2965370.5690   1  22   0.0058   0.0100   0.0051  -0.0064   0.0060  -0.0042   0.50  999.9
2020/06/29 08:15:23.000  -2191127.7279   5198847.7387   2965370.5669   1  22   0.0058   0.0099   0.0051  -0.0064   0.0059  -0.0042   0.00  999.9
2020/06/29 08:15:23.500  -2191127.7265   5198847.7377   2965370.5661   1  22   0.0058   0.0100   0.0051  -0.0064   0.0060  -0.0042   0.50  999.9
2020/06/29 08:15:24.000  -2191127.7282   5198847.7406   2965370.5682   1  21   0.0064   0.0104   0.0054  -0.0071   0.0064  -0.0047   0.00  999.9
2020/06/29 08:15:24.500  -2191127.7309   5198847.7435   2965370.5700   1  22   0.0065   0.0105   0.0054  -0.0071   0.0064  -0.0047   0.50  999.9
2020/06/29 08:15:25.000  -2191127.7288   5198847.7393   2965370.5679   1  22   0.0061   0.0102   0.0053  -0.0067   0.0062  -0.0045   0.00  999.9
2020/06/29 08:15:25.500  -2191127.7281   5198847.7393   2965370.5668   1  22   0.0060   0.0101   0.0052  -0.0066   0.0061  -0.0044   0.50  999.9
2020/06/29 08:15:26.000  -2191127.7276   5198847.7410   2965370.5693   1  22   0.0059   0.0100   0.0052  -0.0066   0.0060  -0.0043   0.00  999.9
2020/06/29 08:15:26.500  -2191127.7302   5198847.7410   2965370.5698   1  22   0.0059   0.0101   0.0052  -0.0066   0.0060  -0.0043   0.50  999.9
2020/06/29 08:15:27.000  -2191127.7271   5198847.7412   2965370.5686   1  21   0.0064   0.0104   0.0054  -0.0071   0.0064  -0.0047   0.00  999.9
2020/06/29 08:15:27.500  -2191127.7276   5198847.7404   2965370.5686   1  21   0.0065   0.0105   0.0054  -0.0071   0.0064  -0.0047   0.50  999.9
2020/06/29 08:15:28.000  -2191127.7306   5198847.7432   2965370.5703   1  22   0.0064   0.0104   0.0054  -0.0071   0.0064  -0.0047   0.00  999.9
2020/06/29 08:15:28.500  -2191127.7294   5198847.7412   2965370.5685   1  22   0.0061   0.0102   0.0053  -0.0068   0.0062  -0.0045   0.50  999.9
2020/06/29 08:15:29.000  -2191127.7275   5198847.7381   2965370.5676   1  22   0.0060   0.0101   0.0052  -0.0066   0.0061  -0.0044   0.00  999.9
2020/06/29 08:15:29.500  -2191127.7288   5198847.7406   2965370.5705   1  22   0.0060   0.0101   0.0052  -0.0066   0.0061  -0.0043   0.50  999.9
2020/06/29 08:15:30.000  -2191127.7288   5198847.7414   2965370.5703   1  22   0.0059   0.0100   0.0052  -0.0065   0.0060  -0.0043   0.00  999.9
2020/06/29 08:15:30.500  -2191127.7288   5198847.7413   2965370.5691   1  22   0.0059   0.0100   0.0052  -0.0065   0.0060  -0.0043   0.50  999.9
2020/06/29 08:15:31.004  -2191127.7273   5198847.7391   2965370.5680   1  22   0.0059   0.0100   0.0051  -0.0065   0.0060  -0.0042   0.00  999.9
2020/06/29 08:15:31.504  -2191127.7269   5198847.7390   2965370.5690   1  22   0.0059   0.0100   0.0052  -0.0065   0.0060  -0.0042   0.50  999.9
2020/06/29 08:15:32.004  -2191127.7293   5198847.7421   2965370.5696   1  22   0.0058   0.0100   0.0051  -0.0065   0.0060  -0.0042   0.00  999.9
2020/06/29 08:15:32.504  -2191127.7273   5198847.7379   2965370.5682   1  22   0.0059   0.0100   0.0052  -0.0065   0.0060  -0.0042   0.50  999.9
2020/06/29 08:15:33.004  -2191127.7274   5198847.7399   2965370.5685   1  22   0.0058   0.0100   0.0051  -0.0064   0.0060  -0.0042   0.00  999.9
2020/06/29 08:15:33.504  -2191127.7268   5198847.7386   2965370.5675   1  22   0.0058   0.0100   0.0051  -0.0065   0.0060  -0.0042   0.50  999.9
2020/06/29 08:15:34.004  -2191127.7264   5198847.7384   2965370.5685   1  22   0.0058   0.0099   0.0051  -0.0064   0.0060  -0.0042   0.00  999.9
2020/06/29 08:15:34.504  -2191127.7296   5198847.7440   2965370.5709   1  22   0.0058   0.0100   0.0051  -0.0065   0.0060  -0.0042   0.50  999.9
2020/06/29 08:15:35.004  -2191127.7264   5198847.7392   2965370.5685   1  22   0.0058   0.0099   0.0051  -0.0064   0.0060  -0.0042   0.00  999.9
2020/06/29 08:15:35.504  -2191127.7247   5198847.7358   2965370.5671   1  22   0.0058   0.0100   0.0051  -0.0064   0.0060  -0.0042   0.50  999.9
2020/06/29 08:15:36.004  -2191127.7275   5198847.7410   2965370.5686   1  22   0.0058   0.0099   0.0051  -0.0064   0.0059  -0.0042   0.00  999.9
2020/06/29 08:15:36.504  -2191127.7278   5198847.7416   2965370.5692   1  22   0.0058   0.0100   0.0051  -0.0064   0.0060  -0.0042   0.50  999.9
2020/06/29 08:15:37.004  -2191127.7267   5198847.7393   2965370.5680   1  22   0.0058   0.0099   0.0051  -0.0064   0.0059  -0.0042   0.00  999.9
2020/06/29 08:15:37.504  -2191127.7287   5198847.7435   2965370.5698   1  22   0.0058   0.0100   0.0051  -0.0064   0.0060  -0.0042   0.50  999.9
2020/06/29 08:15:38.004  -2191127.7297   5198847.7450   2965370.5702   1  22   0.0058   0.0099   0.0051  -0.0064   0.0059  -0.0042   0.00  999.9
2020/06/29 08:15:38.504  -2191127.7279   5198847.7410   2965370.5691   1  22   0.0058   0.0100   0.0051  -0.0064   0.0060  -0.0042   0.50  999.9
2020/06/29 08:15:39.004  -2191127.7279   5198847.7410   2965370.5696   1  22   0.0058   0.0099   0.0051  -0.0064   0.0059  -0.0042   0.00  999.9
2020/06/29 08:15:39.500  -2191127.7281   5198847.7404   2965370.5675   1  22   0.0058   0.0100   0.0051  -0.0064   0.0060  -0.0042   0.50  999.9
2020/06/29 08:15:40.000  -2191127.7268   5198847.7395   2965370.5680   1  22   0.0058   0.0099   0.0051  -0.0064   0.0059  -0.0042   0.00  999.9
2020/06/29 08:15:40.500  -2191127.7262   5198847.7391   2965370.5688   1  23   0.0058   0.0100   0.0051  -0.0064   0.0060  -0.0042   0.50  999.9
2020/06/29 08:15:41.000  -2191127.7259   5198847.7398   2965370.5692   1  23   0.0056   0.0096   0.0051  -0.0061   0.0058  -0.0040   0.00  999.9
2020/06/29 08:15:41.500  -2191127.7270   5198847.7372   2965370.5684   1  23   0.0055   0.0095   0.0051  -0.0060   0.0058  -0.0040   0.50  999.9
2020/06/29 08:15:42.000  -2191127.7270   5198847.7393   2965370.5684   1  23   0.0055   0.0095   0.0050  -0.0060   0.0057  -0.0040   0.00  999.9
2020/06/29 08:15:42.500  -2191127.7257   5198847.7388   2965370.5676   1  23   0.0055   0.0095   0.0050  -0.0059   0.0057  -0.0040   0.50  999.9
2020/06/29 08:15:43.000  -2191127.7263   5198847.7369   2965370.5667   1  23   0.0055   0.0094   0.0050  -0.0059   0.0057  -0.0039   0.00  999.9
2020/06/29 08:15:43.500  -2191127.7270   5198847.7388   2965370.5678   1  23   0.0055   0.0094   0.0050  -0.0059   0.0057  -0.0040   0.50  999.9
2020/06/29 08:15:44.000  -2191127.7273   5198847.7409   2965370.5692   1  23   0.0054   0.0094   0.0050  -0.0059   0.0057  -0.0039   0.00  999.9
2020/06/29 08:15:44.500  -2191127.7273   5198847.7387   2965370.5678   1  23   0.0054   0.0094   0.0050  -0.0059   0.0057  -0.0039   0.50  999.9
2020/06/29 08:15:45.000  -2191127.7285   5198847.7427   2965370.5707   1  23   0.0054   0.0094   0.0050  -0.0059   0.0057  -0.0039   0.00  999.9
2020/06/29 08:15:45.500  -2191127.7293   5198847.7416   2965370.5688   1  23   0.0054   0.0094   0.0050  -0.0059   0.0057  -0.0039   0.50  999.9
2020/06/29 08:15:46.000  -2191127.7284   5198847.7397   2965370.5694   1  23   0.0054   0.0093   0.0050  -0.0058   0.0056  -0.0039   0.00  999.9
2020/06/29 08:15:46.500  -2191127.7265   5198847.7399   2965370.5693   1  23   0.0054   0.0094   0.0050  -0.0059   0.0057  -0.0039   0.50  999.9
2020/06/29 08:15:47.000  -2191127.7273   5198847.7361   2965370.5675   1  23   0.0054   0.0093   0.0050  -0.0058   0.0056  -0.0039   0.00  999.9
2020/06/29 08:15:47.500  -2191127.7294   5198847.7406   2965370.5695   1  23   0.0054   0.0094   0.0050  -0.0059   0.0057  -0.0039   0.50  999.9
2020/06/29 08:15:48.000  -2191127.7290   5198847.7408   2965370.5687   1  23   0.0054   0.0093   0.0050  -0.0058   0.0056  -0.0039   0.00  999.9
2020/06/29 08:15:48.500  -2191127.7283   5198847.7402   2965370.5687   1  23   0.0054   0.0094   0.0050  -0.0058   0.0057  -0.0039   0.50  999.9
2020/06/29 08:15:49.000  -2191127.7293   5198847.7427   2965370.5687   1  23   0.0054   0.0093   0.0050  -0.0058   0.0056  -0.0039   0.00  999.9
2020/06/29 08:15:49.500  -2191127.7292   5198847.7428   2965370.5683   1  23   0.0054   0.0094   0.0050  -0.0058   0.0057  -0.0039   0.50  999.9
2020/06/29 08:15:50.000  -2191127.7268   5198847.7390   2965370.5679   1  23   0.0054   0.0093   0.0050  -0.0058   0.0056  -0.0039   0.00  999.9
2020/06/29 08:15:50.500  -2191127.7287   5198847.7413   2965370.5695   1  23   0.0054   0.0094   0.0050  -0.0058   0.0057  -0.0039   0.50  999.9
2020/06/29 08:15:51.000  -2191127.7290   5198847.7402   2965370.5684   1  23   0.0054   0.0093   0.0050  -0.0058   0.0056  -0.0039   0.00  999.9
2020/06/29 08:15:51.500  -2191127.7301   5198847.7409   2965370.5694   1  23   0.0054   0.0093   0.0050  -0.0058   0.0057  -0.0039   0.50  999.9
2020/06/29 08:15:52.000  -2191127.7283   5198847.7395   2965370.5684   1  23   0.0054   0.0093   0.0050  -0.0058   0.0056  -0.0039   0.00  999.9
2020/06/29 08:15:52.500  -2191127.7274   5198847.7370   2965370.5675   1  23   0.0054   0.0093   0.0050  -0.0058   0.0056  -0.0039   0.50  999.9
2020/06/29 08:15:53.000  -2191127.7260   5198847.7365   2965370.5680   1  23   0.0054   0.0093   0.0050  -0.0058   0.0056  -0.0039   0.00  999.9
2020/06/29 08:15:53.500  -2191127.7260   5198847.7365   2965370.5677   1  23   0.0054   0.0093   0.0050  -0.0058   0.0056  -0.0039   0.50  999.9
2020/06/29 08:15:54.000  -2191127.7277   5198847.7401   2965370.5688   1  23   0.0054   0.0093   0.0050  -0.0058   0.0056  -0.0039   0.00  999.9
2020/06/29 08:15:54.500  -2191127.7269   5198847.7353   2965370.5668   1  23   0.0054   0.0093   0.0050  -0.0058   0.0056  -0.0039   0.50  999.9
2020/06/29 08:15:55.000  -2191127.7273   5198847.7377   2965370.5666   1  23   0.0054   0.0093   0.0050  -0.0058   0.0056  -0.0039   0.00  999.9
2020/06/29 08:15:55.500  -2191127.7263   5198847.7341   2965370.5665   1  23   0.0054   0.0093   0.0050  -0.0058   0.0056  -0.0039   0.50  999.9
2020/06/29 08:15:56.000  -2191127.7272   5198847.7378   2965370.5664   1  23   0.0054   0.0093   0.0050  -0.0058   0.0056  -0.0039   0.00  999.9
2020/06/29 08:15:56.500  -2191127.7258   5198847.7367   2965370.5663   1  23   0.0054   0.0093   0.0050  -0.0058   0.0056  -0.0039   0.50  999.9
2020/06/29 08:15:57.000  -2191127.7261   5198847.7356   2965370.5659   1  23   0.0054   0.0093   0.0050  -0.0058   0.0056  -0.0039   0.00  999.9
2020/06/29 08:15:57.500  -2191127.7267   5198847.7375   2965370.5673   1  23   0.0054   0.0093   0.0050  -0.0058   0.0056  -0.0039   0.50  999.9
2020/06/29 08:15:58.000  -2191127.7263   5198847.7371   2965370.5659   1  23   0.0054   0.0093   0.0050  -0.0058   0.0056  -0.0039   0.00  999.9
2020/06/29 08:15:58.500  -2191127.7266   5198847.7371   2965370.5661   1  23   0.0054   0.0093   0.0050  -0.0058   0.0056  -0.0039   0.50  999.9
2020/06/29 08:15:59.000  -2191127.7263   5198847.7369   2965370.5660   1  23   0.0054   0.0093   0.0050  -0.0058   0.0056  -0.0039   0.00  999.9
2020/06/29 08:15:59.500  -2191127.7243   5198847.7347   2965370.5659   1  23   0.0054   0.0093   0.0050  -0.0058   0.0056  -0.0039   0.50  999.9
2020/06/29 08:16:00.000  -2191127.7283   5198847.7400   2965370.5688   1  23   0.0054   0.0093   0.0050  -0.0058   0.0056  -0.0039   0.00  999.9
2020/06/29 08:16:00.500  -2191127.7284   5198847.7383   2965370.5673   1  23   0.0054   0.0093   0.0050  -0.0058   0.0056  -0.0039   0.50  999.9
2020/06/29 08:16:01.000  -2191127.7256   5198847.7367   2965370.5671   1  23   0.0054   0.0093   0.0050  -0.0058   0.0056  -0.0039   0.00  999.9
2020/06/29 08:16:01.500  -2191127.7245   5198847.7374   2965370.5666   1  23   0.0054   0.0093   0.0050  -0.0058   0.0056  -0.0039   0.50  999.9
2020/06/29 08:16:02.000  -2191127.7244   5198847.7349   2965370.5662   1  23   0.0054   0.0093   0.0050  -0.0058   0.0056  -0.0039   0.00  999.9
2020/06/29 08:16:02.500  -2191127.7251   5198847.7349   2965370.5652   1  23   0.0054   0.0093   0.0050  -0.0058   0.0056  -0.0039   0.50  999.9
2020/06/29 08:16:03.000  -2191127.7277   5198847.7381   2965370.5675   1  23   0.0054   0.0093   0.0050  -0.0058   0.0056  -0.0039   0.00  999.9
2020/06/29 08:16:03.500  -2191127.7280   5198847.7390   2965370.5678   1  23   0.0054   0.0093   0.0050  -0.0058   0.0056  -0.0039   0.50  999.9
2020/06/29 08:16:04.000  -2191127.7273   5198847.7407   2965370.5693   1  23   0.0054   0.0093   0.0050  -0.0058   0.0056  -0.0039   0.00  999.9
2020/06/29 08:16:04.500  -2191127.7286   5198847.7433   2965370.5704   1  23   0.0054   0.0093   0.0050  -0.0058   0.0056  -0.0039   0.50  999.9
2020/06/29 08:16:05.000  -2191127.7255   5198847.7347   2965370.5663   1  23   0.0054   0.0093   0.0050  -0.0058   0.0056  -0.0039   0.00  999.9
2020/06/29 08:16:05.500  -2191127.7267   5198847.7365   2965370.5668   1  23   0.0054   0.0093   0.0050  -0.0058   0.0056  -0.0039   0.50  999.9
2020/06/29 08:16:06.000  -2191127.7259   5198847.7370   2965370.5675   1  23   0.0054   0.0093   0.0050  -0.0058   0.0056  -0.0039   0.00  999.9
2020/06/29 08:16:06.500  -2191127.7253   5198847.7353   2965370.5672   1  23   0.0054   0.0093   0.0050  -0.0058   0.0056  -0.0039   0.50  999.9
2020/06/29 08:16:07.000  -2191127.7254   5198847.7362   2965370.5663   1  23   0.0054   0.0093   0.0050  -0.0058   0.0056  -0.0039   0.00  999.9
2020/06/29 08:16:07.500  -2191127.7266   5198847.7358   2965370.5676   1  23   0.0054   0.0093   0.0050  -0.0058   0.0056  -0.0039   0.50  999.9
2020/06/29 08:16:08.000  -2191127.7278   5198847.7387   2965370.5677   1  23   0.0054   0.0093   0.0050  -0.0058   0.0056  -0.0039   0.00  999.9
2020/06/29 08:16:08.500  -2191127.7288   5198847.7375   2965370.5694   1  23   0.0054   0.0093   0.0050  -0.0058   0.0056  -0.0039   0.50  999.9
2020/06/29 08:16:09.000  -2191127.7254   5198847.7376   2965370.5663   1  23   0.0054   0.0093   0.0050  -0.0058   0.0056  -0.0039   0.00  999.9
2020/06/29 08:16:09.500  -2191127.7273   5198847.7370   2965370.5679   1  23   0.0054   0.0093   0.0050  -0.0058   0.0056  -0.0039   0.50  999.9
2020/06/29 08:16:10.000  -2191127.7247   5198847.7365   2965370.5658   1  23   0.0054   0.0093   0.0050  -0.0058   0.0056  -0.0039   0.00  999.9
2020/06/29 08:16:10.500  -2191127.7262   5198847.7377   2965370.5661   1  23   0.0054   0.0093   0.0050  -0.0058   0.0056  -0.0039   0.50  999.9
2020/06/29 08:16:11.000  -2191127.7262   5198847.7378   2965370.5671   1  23   0.0054   0.0093   0.0050  -0.0058   0.0056  -0.0039   0.00  999.9
2020/06/29 08:16:11.500  -2191127.7250   5198847.7340   2965370.5650   1  23   0.0054   0.0093   0.0050  -0.0058   0.0056  -0.0039   0.50  999.9
2020/06/29 08:16:12.000  -2191127.7248   5198847.7363   2965370.5654   1  23   0.0054   0.0093   0.0050  -0.0058   0.0056  -0.0039   0.00  999.9
2020/06/29 08:16:12.500  -2191127.7259   5198847.7379   2965370.5665   1  23   0.0054   0.0093   0.0050  -0.0058   0.0056  -0.0039   0.50  999.9
2020/06/29 08:16:13.000  -2191127.7250   5198847.7346   2965370.5659   1  23   0.0054   0.0093   0.0050  -0.0058   0.0056  -0.0039   0.00  999.9
2020/06/29 08:16:13.500  -2191127.7262   5198847.7375   2965370.5666   1  23   0.0054   0.0093   0.0050  -0.0058   0.0056  -0.0039   0.50  999.9
2020/06/29 08:16:14.000  -2191127.7251   5198847.7358   2965370.5676   1  23   0.0054   0.0093   0.0050  -0.0058   0.0056  -0.0039   0.00  999.9
2020/06/29 08:16:14.500  -2191127.7269   5198847.7375   2965370.5670   1  23   0.0054   0.0093   0.0050  -0.0058   0.0056  -0.0039   0.50  999.9
2020/06/29 08:16:15.000  -2191127.7288   5198847.7388   2965370.5681   1  23   0.0054   0.0093   0.0050  -0.0058   0.0056  -0.0039   0.00  999.9
2020/06/29 08:16:15.500  -2191127.7277   5198847.7395   2965370.5678   1  23   0.0054   0.0093   0.0050  -0.0058   0.0056  -0.0039   0.50  999.9
2020/06/29 08:16:16.000  -2191127.7250   5198847.7384   2965370.5662   1  23   0.0054   0.0093   0.0050  -0.0058   0.0056  -0.0039   0.00  999.9
2020/06/29 08:16:16.500  -2191127.7272   5198847.7393   2965370.5678   1  23   0.0054   0.0093   0.0050  -0.0058   0.0056  -0.0039   0.50  999.9
2020/06/29 08:16:17.000  -2191127.7254   5198847.7358   2965370.5661   1  23   0.0054   0.0093   0.0050  -0.0058   0.0056  -0.0039   0.00  999.9
2020/06/29 08:16:17.500  -2191127.7254   5198847.7346   2965370.5655   1  23   0.0054   0.0093   0.0050  -0.0058   0.0056  -0.0039   0.50  999.9
2020/06/29 08:16:18.000  -2191127.7265   5198847.7358   2965370.5661   1  23   0.0054   0.0093   0.0050  -0.0058   0.0056  -0.0039   0.00  999.9
2020/06/29 08:16:18.500  -2191127.7257   5198847.7365   2965370.5664   1  23   0.0054   0.0093   0.0050  -0.0058   0.0056  -0.0039   0.50  999.9
2020/06/29 08:16:19.000  -2191127.7266   5198847.7385   2965370.5689   1  23   0.0054   0.0093   0.0050  -0.0058   0.0056  -0.0039   0.00  999.9
2020/06/29 08:16:19.500  -2191127.7259   5198847.7385   2965370.5681   1  23   0.0054   0.0093   0.0050  -0.0058   0.0056  -0.0039   0.50  999.9
2020/06/29 08:16:20.000  -2191127.7253   5198847.7362   2965370.5660   1  23   0.0054   0.0093   0.0050  -0.0058   0.0056  -0.0039   0.00  999.9
2020/06/29 08:16:20.500  -2191127.7245   5198847.7374   2965370.5668   1  23   0.0054   0.0093   0.0050  -0.0058   0.0056  -0.0039   0.50  999.9
2020/06/29 08:16:21.000  -2191127.7273   5198847.7386   2965370.5682   1  23   0.0054   0.0093   0.0050  -0.0058   0.0056  -0.0039   0.00  999.9
2020/06/29 08:16:21.500  -2191127.7282   5198847.7386   2965370.5686   1  23   0.0054   0.0093   0.0050  -0.0058   0.0056  -0.0039   0.50  999.9
2020/06/29 08:16:22.000  -2191127.7255   5198847.7372   2965370.5661   1  23   0.0054   0.0093   0.0050  -0.0058   0.0056  -0.0039   0.00  999.9
2020/06/29 08:16:22.500  -2191127.7268   5198847.7373   2965370.5667   1  23   0.0054   0.0093   0.0050  -0.0058   0.0056  -0.0039   0.50  999.9
2020/06/29 08:16:23.000  -2191127.7256   5198847.7370   2965370.5667   1  23   0.0054   0.0093   0.0050  -0.0058   0.0056  -0.0039   0.00  999.9
2020/06/29 08:16:23.500  -2191127.7263   5198847.7376   2965370.5672   1  23   0.0054   0.0093   0.0050  -0.0058   0.0056  -0.0039   0.50  999.9
2020/06/29 08:16:24.000  -2191127.7266   5198847.7385   2965370.5658   1  23   0.0054   0.0093   0.0050  -0.0058   0.0056  -0.0039   0.00  999.9
2020/06/29 08:16:24.500  -2191127.7262   5198847.7378   2965370.5673   1  23   0.0054   0.0093   0.0050  -0.0058   0.0056  -0.0039   0.50  999.9
2020/06/29 08:16:25.000  -2191127.7285   5198847.7401   2965370.5688   1  23   0.0054   0.0093   0.0050  -0.0058   0.0056  -0.0039   0.00  999.9
2020/06/29 08:16:25.500  -2191127.7287   5198847.7414   2965370.5693   1  23   0.0054   0.0093   0.0050  -0.0058   0.0056  -0.0039   0.50  999.9
2020/06/29 08:16:26.000  -2191127.7271   5198847.7405   2965370.5680   1  23   0.0054   0.0093   0.0050  -0.0058   0.0056  -0.0039   0.00  999.9
2020/06/29 08:16:26.500  -2191127.7266   5198847.7368   2965370.5665   1  23   0.0054   0.0093   0.0050  -0.0058   0.0056  -0.0039   0.50  999.9
2020/06/29 08:16:27.000  -2191127.7267   5198847.7375   2965370.5665   1  23   0.0054   0.0092   0.0050  -0.0058   0.0056  -0.0039   0.00  999.9
2020/06/29 08:16:27.500  -2191127.7275   5198847.7388   2965370.5684   1  23   0.0054   0.0093   0.0050  -0.0058   0.0056  -0.0039   0.50  999.9
2020/06/29 08:16:28.000  -2191127.7261   5198847.7350   2965370.5659   1  23   0.0054   0.0092   0.0050  -0.0058   0.0056  -0.0039   0.00  999.9
2020/06/29 08:16:28.500  -2191127.7262   5198847.7353   2965370.5657   1  23   0.0054   0.0093   0.0050  -0.0058   0.0056  -0.0039   0.50  999.9
2020/06/29 08:16:29.000  -2191127.7261   5198847.7376   2965370.5667   1  23   0.0054   0.0092   0.0050  -0.0058   0.0056  -0.0039   0.00  999.9
2020/06/29 08:16:29.500  -2191127.7258   5198847.7388   2965370.5677   1  23   0.0054   0.0093   0.0050  -0.0058   0.0056  -0.0039   0.50  999.9
2020/06/29 08:16:30.000  -2191127.7257   5198847.7363   2965370.5668   1  23   0.0054   0.0092   0.0050  -0.0058   0.0056  -0.0039   0.00  999.9
2020/06/29 08:16:30.500  -2191127.7246   5198847.7332   2965370.5655   1  23   0.0054   0.0093   0.0050  -0.0058   0.0056  -0.0039   0.50  999.9
2020/06/29 08:16:31.000  -2191127.7251   5198847.7352   2965370.5655   1  23   0.0059   0.0096   0.0052  -0.0063   0.0059  -0.0043   0.00  999.9
2020/06/29 08:16:31.500  -2191127.7259   5198847.7364   2965370.5666   1  23   0.0056   0.0095   0.0051  -0.0060   0.0058  -0.0041   0.50  999.9
2020/06/29 08:16:32.000  -2191127.7279   5198847.7386   2965370.5676   1  23   0.0055   0.0094   0.0050  -0.0059   0.0057  -0.0040   0.00  999.9
2020/06/29 08:16:32.500  -2191127.7275   5198847.7372   2965370.5672   1  23   0.0055   0.0094   0.0050  -0.0059   0.0057  -0.0040   0.50  999.9
2020/06/29 08:16:33.000  -2191127.7293   5198847.7390   2965370.5676   1  23   0.0055   0.0093   0.0050  -0.0059   0.0056  -0.0040   0.00  999.9
2020/06/29 08:16:33.500  -2191127.7280   5198847.7349   2965370.5662   1  23   0.0055   0.0093   0.0050  -0.0059   0.0057  -0.0040   0.50  999.9
2020/06/29 08:16:34.000  -2191127.7269   5198847.7369   2965370.5661   1  23   0.0054   0.0093   0.0050  -0.0058   0.0056  -0.0039   0.00  999.9
2020/06/29 08:16:34.500  -2191127.7273   5198847.7356   2965370.5659   1  23   0.0054   0.0093   0.0050  -0.0058   0.0056  -0.0039   0.50  999.9
2020/06/29 08:16:35.000  -2191127.7277   5198847.7392   2965370.5677   1  23   0.0054   0.0093   0.0050  -0.0058   0.0056  -0.0039   0.00  999.9
2020/06/29 08:16:35.500  -2191127.7260   5198847.7377   2965370.5669   1  23   0.0054   0.0093   0.0050  -0.0058   0.0056  -0.0039   0.50  999.9
2020/06/29 08:16:36.000  -2191127.7281   5198847.7407   2965370.5683   1  23   0.0054   0.0093   0.0050  -0.0058   0.0056  -0.0039   0.00  999.9
2020/06/29 08:16:36.500  -2191127.7264   5198847.7363   2965370.5689   1  23   0.0054   0.0093   0.0050  -0.0058   0.0056  -0.0039   0.50  999.9
2020/06/29 08:16:37.000  -2191127.7267   5198847.7361   2965370.5670   1  23   0.0054   0.0093   0.0050  -0.0058   0.0056  -0.0039   0.00  999.9
2020/06/29 08:16:37.500  -2191127.7270   5198847.7372   2965370.5672   1  23   0.0054   0.0093   0.0050  -0.0058   0.0056  -0.0039   0.50  999.9
2020/06/29 08:16:38.000  -2191127.7278   5198847.7388   2965370.5675   1  23   0.0054   0.0093   0.0050  -0.0058   0.0056  -0.0039   0.00  999.9
