% ref pos   : -2191136.5960  5198839.0050  2965370.9860
%  UTC                       x-ecef(m)      y-ecef(m)      z-ecef(m)   Q  ns   sdx(m)   sdy(m)   sdz(m)  sdxy(m)  sdyz(m)  sdzx(m) age(s)  ratio
2020/06/29 08:12:57.500  -2191126.6451   5198841.9662   2965369.2586   2  22   2.8998   5.4027   2.8009  -3.2567   3.1273  -2.0928  -0.50    0.0
2020/06/29 08:12:58.000  -2191126.6569   5198841.9713   2965369.2772   2  22   2.5888   4.7417   2.4543  -2.9007   2.7713  -1.8728   0.00    0.0
2020/06/29 08:12:58.500  -2191126.6855   5198841.9749   2965369.3094   2  22   2.3602   4.2774   2.2116  -2.6408   2.5141  -1.7096   0.50    0.0
2020/06/29 08:12:59.000  -2191126.7192   5198841.9799   2965369.3349   2  22   2.1829   3.9274   2.0292  -2.4398   2.3170  -1.5823   0.00    0.0
2020/06/29 08:12:59.500  -2191126.7585   5198841.9975   2965369.3630   2  22   2.0401   3.6510   1.8855  -2.2784   2.1596  -1.4795   0.50    0.0
2020/06/29 08:13:00.000  -2191126.7978   5198842.0177   2965369.3954   2  22   1.9218   3.4254   1.7684  -2.1447   2.0301  -1.3940   0.00    0.0
2020/06/29 08:13:00.500  -2191126.8272   5198842.0267   2965369.4221   2  22   1.8217   3.2364   1.6704  -2.0317   1.9209  -1.3215   0.50    0.0
2020/06/29 08:13:01.000  -2191126.8583   5198842.0397   2965369.4501   2  22   1.7355   3.0750   1.5869  -1.9343   1.8271  -1.2590   0.00    0.0
2020/06/29 08:13:01.500  -2191126.8910   5198842.0574   2965369.4830   2  22   1.6602   2.9349   1.5144  -1.8492   1.7455  -1.2042   0.50    0.0
2020/06/29 08:13:02.000  -2191126.9191   5198842.0719   2965369.5088   2  22   1.5936   2.8118   1.4509  -1.7740   1.6734  -1.1557   0.00    0.0
2020/06/29 08:13:02.500  -2191126.9478   5198842.0939   2965369.5304   2  22   1.5341   2.7023   1.3944  -1.7067   1.6092  -1.1123   0.50    0.0
2020/06/29 08:13:03.000  -2191126.9819   5198842.1262   2965369.5505   2  22   1.4806   2.6040   1.3438  -1.6461   1.5513  -1.0731   0.00    0.0
2020/06/29 08:13:03.500  -2191127.0174   5198842.1645   2965369.5675   2  22   1.4320   2.5151   1.2980  -1.5910   1.4989  -1.0375   0.50    0.0
2020/06/29 08:13:04.000  -2191127.0491   5198842.1956   2965369.5825   2  22   1.3877   2.4341   1.2564  -1.5406   1.4510  -1.0049   0.00    0.0
2020/06/29 08:13:04.500  -2191127.0815   5198842.2221   2965369.5991   2  22   1.3470   2.3599   1.2183  -1.4942   1.4071  -0.9749   0.50    0.0
2020/06/29 08:13:05.000  -2191127.1130   5198842.2562   2965369.6202   2  22   1.3094   2.2915   1.1832  -1.4514   1.3665  -0.9472   0.00    0.0
2020/06/29 08:13:05.500  -2191127.1354   5198842.2867   2965369.6384   2  22   1.2745   2.2281   1.1508  -1.4115   1.3288  -0.9214   0.50    0.0
2020/06/29 08:13:06.000  -2191127.1513   5198842.3080   2965369.6529   2  22   1.2420   2.1691   1.1206  -1.3744   1.2937  -0.8974   0.00    0.0
2020/06/29 08:13:06.500  -2191127.1693   5198842.3373   2965369.6696   2  22   1.2116   2.1140   1.0924  -1.3396   1.2608  -0.8748   0.50    0.0
2020/06/29 08:13:07.000  -2191127.1913   5198842.3743   2965369.6854   2  22   1.1832   2.0623   1.0661  -1.3068   1.2300  -0.8536   0.00    0.0
2020/06/29 08:13:07.500  -2191127.2107   5198842.4058   2965369.6958   2  22   1.1564   2.0138   1.0413  -1.2760   1.2009  -0.8337   0.50    0.0
2020/06/29 08:13:08.000  -2191127.2264   5198842.4326   2965369.7017   2  22   1.1311   1.9679   1.0180  -1.2468   1.1735  -0.8148   0.00    0.0
2020/06/29 08:13:08.500  -2191127.2451   5198842.4625   2965369.7083   2  22   1.1072   1.9246   0.9960  -1.2191   1.1475  -0.7968   0.50    0.0
2020/06/29 08:13:09.000  -2191127.2597   5198842.4855   2965369.7153   2  22   1.0845   1.8835   0.9751  -1.1928   1.1228  -0.7798   0.00    0.0
2020/06/29 08:13:09.500  -2191127.2712   5198842.5025   2965369.7230   2  22   1.0629   1.8444   0.9552  -1.1677   1.0993  -0.7636   0.50    0.0
2020/06/29 08:13:10.000  -2191127.2790   5198842.5119   2965369.7323   2  22   1.0424   1.8071   0.9364  -1.1438   1.0769  -0.7481   0.00    0.0
2020/06/29 08:13:10.500  -2191127.2813   5198842.5144   2965369.7402   2  22   1.0228   1.7716   0.9184  -1.1209   1.0555  -0.7333   0.50    0.0
2020/06/29 08:13:11.000  -2191127.2850   5198842.5180   2965369.7478   2  22   1.0041   1.7376   0.9012  -1.0989   1.0350  -0.7191   0.00    0.0
2020/06/29 08:13:11.500  -2191127.2910   5198842.5172   2965369.7564   2  22   0.9861   1.7050   0.8848  -1.0779   1.0153  -0.7055   0.50    0.0
2020/06/29 08:13:12.000  -2191127.2975   5198842.5324   2965369.7639   2  22   0.9689   1.6738   0.8690  -1.0576   0.9964  -0.6924   0.00    0.0
2020/06/29 08:13:12.500  -2191127.3074   5198842.5557   2965369.7750   2  22   0.9524   1.6438   0.8539  -1.0381   0.9783  -0.6798   0.50    0.0
2020/06/29 08:13:13.000  -2191127.3164   5198842.5722   2965369.7835   2  22   0.9365   1.6149   0.8393  -1.0193   0.9608  -0.6676   0.00    0.0
2020/06/29 08:13:13.500  -2191127.3260   5198842.5900   2965369.7928   2  22   0.9212   1.5871   0.8253  -1.0011   0.9439  -0.6559   0.50    0.0
2020/06/29 08:13:14.000  -2191127.3405   5198842.6197   2965369.8063   2  22   0.9065   1.5602   0.8118  -0.9836   0.9276  -0.6446   0.00    0.0
2020/06/29 08:13:14.500  -2191127.3590   5198842.6576   2965369.8217   2  22   0.8923   1.5343   0.7988  -0.9666   0.9118  -0.6336   0.50    0.0
2020/06/29 08:13:15.000  -2191127.3740   5198842.6899   2965369.8346   2  22   0.8785   1.5092   0.7863  -0.9501   0.8966  -0.6230   0.00    0.0
2020/06/29 08:13:15.500  -2191127.3864   5198842.7166   2965369.8460   2  22   0.8652   1.4849   0.7741  -0.9342   0.8818  -0.6127   0.50    0.0
2020/06/29 08:13:16.000  -2191127.3978   5198842.7384   2965369.8541   2  22   0.8523   1.4614   0.7623  -0.9187   0.8675  -0.6027   0.00    0.0
2020/06/29 08:13:16.500  -2191127.4095   5198842.7586   2965369.8599   2  22   0.8399   1.4386   0.7510  -0.9037   0.8536  -0.5931   0.50    0.0
2020/06/29 08:13:17.000  -2191127.4213   5198842.7778   2965369.8660   2  22   0.8278   1.4165   0.7399  -0.8890   0.8401  -0.5836   0.00    0.0
2020/06/29 08:13:17.500  -2191127.4299   5198842.7920   2965369.8736   2  22   0.8161   1.3950   0.7292  -0.8748   0.8270  -0.5745   0.50    0.0
2020/06/29 08:13:18.000  -2191127.4366   5198842.8020   2965369.8812   2  22   0.8047   1.3742   0.7188  -0.8610   0.8142  -0.5656   0.00    0.0
2020/06/29 08:13:18.500  -2191127.4461   5198842.8145   2965369.8877   2  22   0.7936   1.3539   0.7087  -0.8475   0.8018  -0.5569   0.50    0.0
2020/06/29 08:13:19.000  -2191127.4575   5198842.8300   2965369.8948   2  22   0.7828   1.3341   0.6988  -0.8344   0.7897  -0.5485   0.00    0.0
2020/06/29 08:13:19.500  -2191127.4673   5198842.8423   2965369.9019   2  22   0.7724   1.3149   0.6892  -0.8215   0.7779  -0.5402   0.50    0.0
2020/06/29 08:13:20.000  -2191127.4741   5198842.8543   2965369.9092   2  22   0.7622   1.2962   0.6799  -0.8090   0.7664  -0.5322   0.00    0.0
2020/06/29 08:13:20.500  -2191127.4840   5198842.8736   2965369.9196   2  22   0.7523   1.2779   0.6708  -0.7968   0.7552  -0.5244   0.50    0.0
2020/06/29 08:13:21.000  -2191127.4932   5198842.8913   2965369.9314   2  22   0.7426   1.2601   0.6620  -0.7849   0.7443  -0.5167   0.00    0.0
2020/06/29 08:13:21.500  -2191127.4995   5198842.9056   2965369.9401   2  22   0.7332   1.2427   0.6534  -0.7732   0.7336  -0.5093   0.50    0.0
2020/06/29 08:13:22.000  -2191127.5075   5198842.9218   2965369.9475   2  22   0.7240   1.2257   0.6449  -0.7618   0.7232  -0.5020   0.00    0.0
2020/06/29 08:13:22.500  -2191127.5153   5198842.9323   2965369.9547   2  22   0.7150   1.2092   0.6367  -0.7507   0.7130  -0.4948   0.50    0.0
2020/06/29 08:13:23.000  -2191127.5266   5198842.9404   2965369.9626   2  22   0.7062   1.1930   0.6287  -0.7397   0.7030  -0.4878   0.00    0.0
2020/06/29 08:13:23.500  -2191127.5379   5198842.9449   2965369.9696   2  22   0.6977   1.1772   0.6208  -0.7291   0.6933  -0.4810   0.50    0.0
2020/06/29 08:13:24.000  -2191127.5464   5198842.9501   2965369.9764   2  22   0.6893   1.1617   0.6132  -0.7186   0.6838  -0.4743   0.00    0.0
2020/06/29 08:13:24.500  -2191127.5529   5198842.9546   2965369.9811   2  22   0.6811   1.1466   0.6057  -0.7084   0.6744  -0.4678   0.50    0.0
2020/06/29 08:13:25.000  -2191127.5561   5198842.9523   2965369.9839   2  22   0.6731   1.1318   0.5983  -0.6983   0.6653  -0.4614   0.00    0.0
2020/06/29 08:13:25.500  -2191127.5564   5198842.9449   2965369.9862   2  22   0.6653   1.1173   0.5911  -0.6885   0.6564  -0.4551   0.50    0.0
2020/06/29 08:13:26.000  -2191127.5570   5198842.9433   2965369.9895   2  22   0.6577   1.1031   0.5841  -0.6788   0.6476  -0.4490   0.00    0.0
2020/06/29 08:13:26.500  -2191127.5600   5198842.9490   2965369.9944   2  22   0.6502   1.0892   0.5772  -0.6694   0.6390  -0.4429   0.50    0.0
2020/06/29 08:13:27.000  -2191127.5621   5198842.9499   2965369.9939   2  22   0.6429   1.0756   0.5705  -0.6601   0.6306  -0.4370   0.00    0.0
2020/06/29 08:13:27.500  -2191127.5681   5198842.9473   2965369.9932   2  22   0.6357   1.0622   0.5639  -0.6510   0.6224  -0.4312   0.50    0.0
2020/06/29 08:13:28.000  -2191127.5644   5198842.9468   2965369.9939   2  22   0.6287   1.0492   0.5574  -0.6421   0.6143  -0.4256   0.00    0.0
2020/06/29 08:13:28.500  -2191127.5649   5198842.9427   2965369.9935   2  22   0.6218   1.0364   0.5510  -0.6333   0.6064  -0.4200   0.50    0.0
2020/06/29 08:13:29.000  -2191127.5658   5198842.9372   2965369.9936   2  22   0.6150   1.0238   0.5448  -0.6247   0.5986  -0.4145   0.00    0.0
2020/06/29 08:13:29.500  -2191127.5674   5198842.9342   2965369.9948   2  22   0.6084   1.0115   0.5387  -0.6162   0.5910  -0.4092   0.50    0.0
2020/06/29 08:13:30.000  -2191127.5715   5198842.9348   2965369.9975   2  22   0.6020   0.9994   0.5327  -0.6079   0.5835  -0.4039   0.00    0.0
2020/06/29 08:13:30.500  -2191127.5857   5198842.9420   2965370.0073   2  22   0.5956   0.9876   0.5268  -0.5998   0.5762  -0.3988   0.50    0.0
2020/06/29 08:13:31.000  -2191127.5877   5198842.9393   2965370.0117   2  22   0.5894   0.9759   0.5211  -0.5918   0.5690  -0.3937   0.00    0.0
2020/06/29 08:13:31.500  -2191127.5944   5198842.9457   2965370.0138   2  22   0.5833   0.9645   0.5154  -0.5839   0.5619  -0.3887   0.50    0.0
2020/06/29 08:13:32.000  -2191127.6000   5198842.9479   2965370.0196   2  22   0.5773   0.9533   0.5098  -0.5762   0.5550  -0.3838   0.00    0.0
2020/06/29 08:13:32.500  -2191127.6623   5198842.9379   2965370.2923   1  22   0.0193   0.0334   0.0174  -0.0215   0.0201  -0.0141   0.50    4.9
2020/06/29 08:13:33.000  -2191127.7244   5198842.9286   2965370.5657   1  22   0.0193   0.0334   0.0174  -0.0215   0.0201  -0.0141   0.00    4.9
2020/06/29 08:13:33.500  -2191127.7244   5198842.9287   2965370.5660   1  22   0.0193   0.0334   0.0174  -0.0215   0.0201  -0.0141   0.50    4.9
2020/06/29 08:13:34.000  -2191127.7248   5198842.9275   2965370.5649   1  22   0.0193   0.0334   0.0174  -0.0215   0.0201  -0.0141   0.00    5.0
2020/06/29 08:13:34.500  -2191127.7248   5198842.9285   2965370.5656   1  22   0.0193   0.0334   0.0174  -0.0215   0.0201  -0.0141   0.50    5.0
2020/06/29 08:13:35.000  -2191127.7253   5198842.9284   2965370.5655   1  22   0.0193   0.0334   0.0174  -0.0215   0.0201  -0.0141   0.00    5.1
2020/06/29 08:13:35.500  -2191127.7261   5198842.9293   2965370.5656   1  22   0.0193   0.0334   0.0174  -0.0215   0.0201  -0.0141   0.50    5.1
2020/06/29 08:13:36.000  -2191127.7262   5198842.9291   2965370.5659   1  22   0.0193   0.0334   0.0174  -0.0215   0.0201  -0.0141   0.00    5.2
2020/06/29 08:13:36.500  -2191127.7264   5198842.9288   2965370.5660   1  22   0.0193   0.0334   0.0174  -0.0215   0.0201  -0.0141   0.50    5.2
2020/06/29 08:13:37.000  -2191127.7266   5198842.9293   2965370.5663   1  22   0.0193   0.0334   0.0173  -0.0215   0.0201  -0.0141   0.00    5.2
2020/06/29 08:13:37.500  -2191127.7250   5198842.9282   2965370.5646   1  22   0.0193   0.0334   0.0173  -0.0215   0.0201  -0.0141   0.50    5.2
2020/06/29 08:13:38.000  -2191127.7256   5198842.9306   2965370.5646   1  22   0.0193   0.0334   0.0173  -0.0215   0.0201  -0.0141   0.00    5.2
2020/06/29 08:13:38.500  -2191127.7260   5198842.9290   2965370.5656   1  22   0.0193   0.0334   0.0173  -0.0215   0.0201  -0.0141   0.50    5.2
2020/06/29 08:13:39.000  -2191127.7261   5198842.9293   2965370.5658   1  22   0.0193   0.0334   0.0173  -0.0215   0.0201  -0.0141   0.00    5.2
2020/06/29 08:13:39.500  -2191127.7261   5198842.9292   2965370.5657   1  22   0.0193   0.0334   0.0173  -0.0215   0.0201  -0.0141   0.50    5.2
2020/06/29 08:13:40.000  -2191127.7262   5198842.9294   2965370.5658   1  21   0.0215   0.0351   0.0183  -0.0237   0.0216  -0.0159   0.00    5.2
2020/06/29 08:13:40.500  -2191127.7262   5198842.9296   2965370.5660   1  21   0.0215   0.0351   0.0183  -0.0238   0.0216  -0.0160   0.50    5.2
2020/06/29 08:13:41.000  -2191127.7263   5198842.9299   2965370.5661   1  22   0.0215   0.0351   0.0183  -0.0237   0.0216  -0.0159   0.00    5.2
2020/06/29 08:13:41.500  -2191127.7262   5198842.9298   2965370.5659   1  22   0.0204   0.0342   0.0178  -0.0226   0.0209  -0.0150   0.50    5.3
2020/06/29 08:13:42.000  -2191127.7265   5198842.9302   2965370.5660   1  22   0.0200   0.0339   0.0176  -0.0222   0.0206  -0.0147   0.00    5.3
2020/06/29 08:13:42.500  -2191127.7265   5198842.9305   2965370.5660   1  22   0.0199   0.0338   0.0176  -0.0220   0.0205  -0.0145   0.50    5.4
2020/06/29 08:13:43.000  -2191127.7267   5198842.9306   2965370.5663   1  22   0.0197   0.0337   0.0175  -0.0219   0.0204  -0.0144   0.00    5.5
2020/06/29 08:13:43.500  -2191127.7268   5198842.9308   2965370.5666   1  22   0.0197   0.0336   0.0175  -0.0218   0.0203  -0.0144   0.50    5.5
2020/06/29 08:13:44.000  -2191127.7270   5198842.9308   2965370.5666   1  22   0.0196   0.0336   0.0174  -0.0218   0.0203  -0.0143   0.00    5.6
2020/06/29 08:13:44.500  -2191127.7273   5198842.9315   2965370.5669   1  22   0.0196   0.0335   0.0174  -0.0217   0.0202  -0.0143   0.50    5.7
2020/06/29 08:13:45.000  -2191127.7273   5198842.9314   2965370.5668   1  22   0.0195   0.0335   0.0174  -0.0217   0.0202  -0.0142   0.00    5.8
2020/06/29 08:13:45.500  -2191127.7272   5198842.9309   2965370.5666   1  22   0.0195   0.0335   0.0174  -0.0217   0.0202  -0.0142   0.50    5.8
2020/06/29 08:13:46.000  -2191127.7273   5198842.9313   2965370.5668   1  22   0.0195   0.0335   0.0174  -0.0216   0.0202  -0.0142   0.00    5.8
2020/06/29 08:13:46.500  -2191127.7275   5198842.9319   2965370.5670   1  22   0.0195   0.0334   0.0174  -0.0216   0.0202  -0.0142   0.50    5.8
2020/06/29 08:13:47.000  -2191127.7277   5198842.9322   2965370.5670   1  22   0.0194   0.0334   0.0173  -0.0216   0.0201  -0.0142   0.00    5.9
2020/06/29 08:13:47.500  -2191127.7280   5198842.9347   2965370.5662   1  22   0.0194   0.0334   0.0173  -0.0216   0.0201  -0.0142   0.50  136.0
2020/06/29 08:13:48.000  -2191127.7257   5198842.9285   2965370.5644   1  22   0.0194   0.0334   0.0173  -0.0216   0.0201  -0.0141   0.00  183.7
2020/06/29 08:13:48.500  -2191127.7261   5198842.9306   2965370.5655   1  22   0.0194   0.0334   0.0173  -0.0216   0.0201  -0.0141   0.50  231.3
2020/06/29 08:13:49.000  -2191127.7272   5198842.9314   2965370.5673   1  22   0.0194   0.0334   0.0173  -0.0215   0.0201  -0.0141   0.00  277.1
2020/06/29 08:13:49.500  -2191127.7283   5198842.9317   2965370.5683   1  22   0.0194   0.0334   0.0173  -0.0215   0.0201  -0.0141   0.50  321.6
2020/06/29 08:13:50.000  -2191127.7288   5198842.9324   2965370.5666   1  22   0.0194   0.0334   0.0173  -0.0215   0.0201  -0.0141   0.00  368.4
2020/06/29 08:13:50.500  -2191127.7276   5198842.9303   2965370.5669   1  22   0.0194   0.0334   0.0173  -0.0215   0.0201  -0.0141   0.50  416.8
2020/06/29 08:13:51.000  -2191127.7265   5198842.9302   2965370.5668   1  22   0.0194   0.0333   0.0173  -0.0215   0.0201  -0.0141   0.00  466.2
2020/06/29 08:13:51.500  -2191127.7283   5198842.9345   2965370.5676   1  22   0.0194   0.0334   0.0173  -0.0215   0.0201  -0.0141   0.50  513.0
2020/06/29 08:13:52.000  -2191127.7277   5198842.9318   2965370.5667   1  22   0.0194   0.0333   0.0173  -0.0215   0.0201  -0.0141   0.00  543.3
2020/06/29 08:13:52.500  -2191127.7277   5198842.9320   2965370.5670   1  22   0.0194   0.0333   0.0173  -0.0215   0.0201  -0.0141   0.50  576.6
2020/06/29 08:13:53.000  -2191127.7277   5198842.9321   2965370.5670   1  22   0.0193   0.0333   0.0173  -0.0215   0.0200  -0.0141   0.00  619.1
2020/06/29 08:13:53.500  -2191127.7277   5198842.9323   2965370.5670   1  22   0.0193   0.0333   0.0173  -0.0215   0.0200  -0.0141   0.50  656.1
2020/06/29 08:13:54.000  -2191127.7278   5198842.9326   2965370.5670   1  22   0.0193   0.0333   0.0173  -0.0215   0.0200  -0.0141   0.00  700.2
2020/06/29 08:13:54.500  -2191127.7278   5198842.9325   2965370.5670   1  22   0.0193   0.0333   0.0173  -0.0215   0.0200  -0.0141   0.50  750.7
2020/06/29 08:13:55.000  -2191127.7278   5198842.9327   2965370.5670   1  22   0.0193   0.0333   0.0172  -0.0215   0.0200  -0.0141   0.00  791.0
2020/06/29 08:13:55.500  -2191127.7279   5198842.9330   2965370.5671   1  22   0.0193   0.0333   0.0173  -0.0215   0.0200  -0.0141   0.50  814.8
2020/06/29 08:13:56.000  -2191127.7280   5198842.9330   2965370.5671   1  22   0.0193   0.0333   0.0172  -0.0215   0.0200  -0.0140   0.00  836.2
2020/06/29 08:13:56.500  -2191127.7280   5198842.9328   2965370.5670   1  22   0.0193   0.0333   0.0172  -0.0215   0.0200  -0.0141   0.50  855.3
2020/06/29 08:13:57.000  -2191127.7278   5198842.9325   2965370.5669   1  22   0.0193   0.0333   0.0172  -0.0214   0.0200  -0.0140   0.00  885.4
2020/06/29 08:13:57.500  -2191127.7278   5198842.9324   2965370.5670   1  22   0.0193   0.0333   0.0172  -0.0214   0.0200  -0.0140   0.50  911.0
2020/06/29 08:13:58.000  -2191127.7279   5198842.9324   2965370.5670   1  22   0.0193   0.0333   0.0172  -0.0214   0.0200  -0.0140   0.00  921.5
2020/06/29 08:13:58.500  -2191127.7281   5198842.9325   2965370.5671   1  22   0.0193   0.0333   0.0172  -0.0214   0.0200  -0.0140   0.50  935.6
2020/06/29 08:13:59.000  -2191127.7283   5198842.9327   2965370.5672   1  22   0.0193   0.0333   0.0172  -0.0214   0.0200  -0.0140   0.00  955.9
2020/06/29 08:13:59.500  -2191127.7284   5198842.9329   2965370.5672   1  22   0.0193   0.0333   0.0172  -0.0214   0.0200  -0.0140   0.50  967.5
2020/06/29 08:14:00.000  -2191127.7284   5198842.9329   2965370.5673   1  22   0.0193   0.0333   0.0172  -0.0214   0.0200  -0.0140   0.00  983.4
2020/06/29 08:14:00.500  -2191127.7285   5198842.9331   2965370.5674   1  22   0.0193   0.0333   0.0172  -0.0214   0.0200  -0.0140   0.50  999.9
2020/06/29 08:14:01.000  -2191127.7286   5198842.9331   2965370.5674   1  22   0.0193   0.0333   0.0172  -0.0214   0.0200  -0.0140   0.00  999.9
2020/06/29 08:14:01.500  -2191127.7286   5198842.9329   2965370.5673   1  22   0.0193   0.0333   0.0172  -0.0214   0.0200  -0.0140   0.50  999.9
2020/06/29 08:14:02.000  -2191127.7287   5198842.9330   2965370.5675   1  22   0.0193   0.0333   0.0172  -0.0214   0.0200  -0.0140   0.00  999.9
2020/06/29 08:14:02.500  -2191127.7298   5198842.9344   2965370.5704   1  22   0.0193   0.0333   0.0172  -0.0214   0.0200  -0.0140   0.50  999.9
2020/06/29 08:14:03.000  -2191127.7290   5198842.9346   2965370.5702   1  22   0.0193   0.0332   0.0172  -0.0214   0.0200  -0.0140   0.00  999.9
2020/06/29 08:14:03.500  -2191127.7306   5198842.9359   2965370.5697   1  22   0.0193   0.0333   0.0172  -0.0214   0.0200  -0.0140   0.50  999.9
2020/06/29 08:14:04.000  -2191127.7292   5198842.9339   2965370.5695   1  22   0.0193   0.0332   0.0172  -0.0214   0.0200  -0.0140   0.00  999.9
2020/06/29 08:14:04.500  -2191127.7289   5198842.9357   2965370.5699   1  22   0.0193   0.0332   0.0172  -0.0214   0.0200  -0.0140   0.50  999.9
2020/06/29 08:14:05.000  -2191127.7286   5198842.9331   2965370.5677   1  22   0.0193   0.0332   0.0172  -0.0214   0.0200  -0.0140   0.00  999.9
2020/06/29 08:14:05.500  -2191127.7301   5198842.9344   2965370.5672   1  22   0.0193   0.0332   0.0172  -0.0214   0.0200  -0.0140   0.50  999.9
2020/06/29 08:14:06.000  -2191127.7308   5198842.9370   2965370.5696   1  22   0.0193   0.0332   0.0172  -0.0214   0.0200  -0.0140   0.00  999.9
2020/06/29 08:14:06.500  -2191127.7291   5198842.9345   2965370.5684   1  22   0.0193   0.0332   0.0172  -0.0214   0.0200  -0.0140   0.50  999.9
2020/06/29 08:14:07.000  -2191127.7291   5198842.9325   2965370.5679   1  22   0.0193   0.0332   0.0172  -0.0214   0.0200  -0.0140   0.00  999.9
2020/06/29 08:14:07.500  -2191127.7275   5198842.9341   2965370.5675   1  22   0.0193   0.0332   0.0172  -0.0214   0.0200  -0.0140   0.50  999.9
2020/06/29 08:14:08.000  -2191127.7281   5198842.9323   2965370.5664   1  22   0.0193   0.0332   0.0172  -0.0214   0.0199  -0.0140   0.00  999.9
2020/06/29 08:14:08.500  -2191127.7298   5198842.9338   2965370.5670   1  22   0.0193   0.0332   0.0172  -0.0214   0.0200  -0.0140   0.50  999.9
2020/06/29 08:14:09.000  -2191127.7309   5198842.9385   2965370.5697   1  22   0.0193   0.0332   0.0172  -0.0214   0.0199  -0.0140   0.00  999.9
2020/06/29 08:14:09.500  -2191127.7281   5198842.9339   2965370.5688   1  22   0.0193   0.0332   0.0172  -0.0214   0.0199  -0.0140   0.50  999.9
2020/06/29 08:14:10.000  -2191127.7278   5198842.9318   2965370.5675   1  22   0.0193   0.0332   0.0172  -0.0214   0.0199  -0.0140   0.00  999.9
2020/06/29 08:14:10.500  -2191127.7276   5198842.9333   2965370.5679   1  22   0.0193   0.0332   0.0172  -0.0214   0.0199  -0.0140   0.50  999.9
2020/06/29 08:14:11.000  -2191127.7294   5198842.9339   2965370.5695   1  22   0.0193   0.0332   0.0172  -0.0214   0.0199  -0.0140   0.00  999.9
2020/06/29 08:14:11.500  -2191127.7297   5198842.9345   2965370.5703   1  22   0.0193   0.0332   0.0172  -0.0214   0.0199  -0.0140   0.50  999.9
2020/06/29 08:14:12.000  -2191127.7279   5198842.9327   2965370.5692   1  22   0.0193   0.0332   0.0172  -0.0214   0.0199  -0.0140   0.00  999.9
2020/06/29 08:14:12.500  -2191127.7289   5198842.9336   2965370.5681   1  22   0.0193   0.0332   0.0172  -0.0214   0.0199  -0.0140   0.50  999.9
2020/06/29 08:14:13.000  -2191127.7289   5198842.9336   2965370.5681   1  22   0.0193   0.0332   0.0172  -0.0214   0.0199  -0.0140   0.00  999.9
2020/06/29 08:14:13.500  -2191127.7289   5198842.9336   2965370.5682   1  22   0.0193   0.0332   0.0172  -0.0214   0.0199  -0.0140   0.50  999.9
2020/06/29 08:14:14.000  -2191127.7289   5198842.9335   2965370.5682   1  22   0.0193   0.0332   0.0172  -0.0214   0.0199  -0.0140   0.00  999.9
2020/06/29 08:14:14.500  -2191127.7290   5198842.9335   2965370.5682   1  22   0.0193   0.0332   0.0172  -0.0214   0.0199  -0.0140   0.50  999.9
2020/06/29 08:14:15.000  -2191127.7290   5198842.9335   2965370.5683   1  22   0.0193   0.0332   0.0171  -0.0214   0.0199  -0.0140   0.00  999.9
2020/06/29 08:14:15.500  -2191127.7291   5198842.9335   2965370.5683   1  22   0.0193   0.0332   0.0172  -0.0214   0.0199  -0.0140   0.50  999.9
2020/06/29 08:14:16.000  -2191127.7291   5198842.9335   2965370.5684   1  22   0.0193   0.0332   0.0171  -0.0214   0.0199  -0.0140   0.00  999.9
2020/06/29 08:14:16.500  -2191127.7291   5198842.9335   2965370.5683   1  22   0.0193   0.0332   0.0171  -0.0214   0.0199  -0.0140   0.50  999.9
2020/06/29 08:14:17.000  -2191127.7292   5198842.9337   2965370.5684   1  22   0.0193   0.0332   0.0171  -0.0214   0.0199  -0.0140   0.00  999.9
2020/06/29 08:14:17.500  -2191127.7302   5198842.9352   2965370.5684   1  22   0.0193   0.0332   0.0171  -0.0214   0.0199  -0.0140   0.50  999.9
2020/06/29 08:14:18.000  -2191127.7262   5198842.9314   2965370.5677   1  22   0.0193   0.0332   0.0171  -0.0214   0.0199  -0.0140   0.00  999.9
2020/06/29 08:14:18.500  -2191127.7278   5198842.9324   2965370.5678   1  22   0.0193   0.0332   0.0171  -0.0214   0.0199  -0.0140   0.50  999.9
2020/06/29 08:14:19.000  -2191127.7274   5198842.9329   2965370.5675   1  22   0.0193   0.0332   0.0171  -0.0214   0.0199  -0.0140   0.00  999.9
2020/06/29 08:14:19.500  -2191127.7298   5198842.9356   2965370.5686   1  22   0.0193   0.0332   0.0171  -0.0214   0.0199  -0.0140   0.50  999.9
2020/06/29 08:14:20.000  -2191127.7289   5198842.9343   2965370.5688   1  22   0.0193   0.0332   0.0171  -0.0214   0.0199  -0.0139   0.00  999.9
2020/06/29 08:14:20.500  -2191127.7287   5198842.9338   2965370.5696   1  22   0.0193   0.0332   0.0171  -0.0214   0.0199  -0.0140   0.50  999.9
2020/06/29 08:14:21.000  -2191127.7284   5198842.9346   2965370.5677   1  22   0.0192   0.0332   0.0171  -0.0213   0.0199  -0.0139   0.00  999.9
2020/06/29 08:14:21.500  -2191127.7295   5198842.9346   2965370.5685   1  22   0.0193   0.0332   0.0171  -0.0214   0.0199  -0.0139   0.50  999.9
2020/06/29 08:14:22.000  -2191127.7323   5198842.9392   2965370.5713   1  22   0.0192   0.0332   0.0171  -0.0213   0.0199  -0.0139   0.00  999.9
2020/06/29 08:14:22.500  -2191127.7303   5198842.9363   2965370.5693   1  22   0.0193   0.0332   0.0171  -0.0214   0.0199  -0.0139   0.50  999.9
2020/06/29 08:14:23.000  -2191127.7289   5198842.9313   2965370.5688   1  22   0.0192   0.0332   0.0171  -0.0213   0.0199  -0.0139   0.00  999.9
2020/06/29 08:14:23.500  -2191127.7294   5198842.9346   2965370.5700   1  22   0.0193   0.0332   0.0171  -0.0214   0.0199  -0.0139   0.50  999.9
2020/06/29 08:14:24.000  -2191127.7293   5198842.9328   2965370.5686   1  22   0.0192   0.0331   0.0171  -0.0213   0.0199  -0.0139   0.00  999.9
2020/06/29 08:14:24.500  -2191127.7301   5198842.9338   2965370.5693   1  22   0.0193   0.0332   0.0171  -0.0213   0.0199  -0.0139   0.50  999.9
2020/06/29 08:14:25.000  -2191127.7295   5198842.9352   2965370.5691   1  22   0.0192   0.0331   0.0171  -0.0213   0.0199  -0.0139   0.00  999.9
2020/06/29 08:14:25.500  -2191127.7297   5198842.9363   2965370.5685   1  22   0.0193   0.0332   0.0171  -0.0213   0.0199  -0.0139   0.50  999.9
2020/06/29 08:14:26.000  -2191127.7294   5198842.9362   2965370.5697   1  22   0.0192   0.0331   0.0171  -0.0213   0.0199  -0.0139   0.00  999.9
2020/06/29 08:14:26.500  -2191127.7282   5198842.9353   2965370.5684   1  22   0.0192   0.0332   0.0171  -0.0213   0.0199  -0.0139   0.50  999.9
2020/06/29 08:14:27.000  -2191127.7287   5198842.9368   2965370.5706   1  22   0.0192   0.0331   0.0171  -0.0213   0.0199  -0.0139   0.00  999.9
2020/06/29 08:14:27.500  -2191127.7292   5198842.9340   2965370.5687   1  22   0.0192   0.0332   0.0171  -0.0213   0.0199  -0.0139   0.50  999.9
2020/06/29 08:14:28.000  -2191127.7292   5198842.9341   2965370.5687   1  22   0.0192   0.0331   0.0171  -0.0213   0.0199  -0.0139   0.00  999.9
2020/06/29 08:14:28.500  -2191127.7292   5198842.9342   2965370.5688   1  22   0.0192   0.0331   0.0171  -0.0213   0.0199  -0.0139   0.50  999.9
2020/06/29 08:14:29.000  -2191127.7293   5198842.9343   2965370.5688   1  22   0.0192   0.0331   0.0171  -0.0213   0.0199  -0.0139   0.00  999.9
2020/06/29 08:14:29.500  -2191127.7293   5198842.9343   2965370.5688   1  22   0.0192   0.0331   0.0171  -0.0213   0.0199  -0.0139   0.50  999.9
2020/06/29 08:14:30.000  -2191127.7294   5198842.9345   2965370.5689   1  22   0.0192   0.0331   0.0171  -0.0213   0.0199  -0.0139   0.00  999.9
2020/06/29 08:14:30.500  -2191127.7294   5198842.9345   2965370.5689   1  22   0.0192   0.0331   0.0171  -0.0213   0.0199  -0.0139   0.50  999.9
2020/06/29 08:14:31.000  -2191127.7294   5198842.9346   2965370.5690   1  22   0.0192   0.0331   0.0171  -0.0213   0.0199  -0.0139   0.00  999.9
2020/06/29 08:14:31.500  -2191127.7294   5198842.9347   2965370.5690   1  22   0.0192   0.0331   0.0171  -0.0213   0.0199  -0.0139   0.50  999.9
2020/06/29 08:14:32.000  -2191127.7294   5198842.9347   2965370.5690   1  22   0.0192   0.0331   0.0171  -0.0213   0.0199  -0.0139   0.00  999.9
2020/06/29 08:14:32.500  -2191127.7294   5198842.9347   2965370.5691   1  22   0.0192   0.0331   0.0171  -0.0213   0.0199  -0.0139   0.50  999.9
2020/06/29 08:14:33.000  -2191127.7295   5198842.9348   2965370.5691   1  22   0.0192   0.0331   0.0171  -0.0213   0.0199  -0.0139   0.00  999.9
2020/06/29 08:14:33.500  -2191127.7294   5198842.9348   2965370.5691   1  22   0.0192   0.0331   0.0171  -0.0213   0.0199  -0.0139   0.50  999.9
2020/06/29 08:14:34.000  -2191127.7294   5198842.9348   2965370.5691   1  22   0.0192   0.0331   0.0171  -0.0213   0.0198  -0.0139   0.00  999.9
2020/06/29 08:14:34.500  -2191127.7295   5198842.9347   2965370.5690   1  22   0.0192   0.0331   0.0171  -0.0213   0.0199  -0.0139   0.50  999.9
2020/06/29 08:14:35.000  -2191127.7295   5198842.9348   2965370.5690   1  22   0.0192   0.0331   0.0171  -0.0213   0.0198  -0.0139   0.00  999.9
2020/06/29 08:14:35.500  -2191127.7295   5198842.9347   2965370.5690   1  22   0.0192   0.0331   0.0171  -0.0213   0.0199  -0.0139   0.50  999.9
2020/06/29 08:14:36.000  -2191127.7294   5198842.9347   2965370.5690   1  22   0.0192   0.0331   0.0171  -0.0213   0.0198  -0.0139   0.00  999.9
2020/06/29 08:14:36.500  -2191127.7294   5198842.9347   2965370.5690   1  22   0.0192   0.0331   0.0171  -0.0213   0.0198  -0.0139   0.50  999.9
2020/06/29 08:14:37.000  -2191127.7294   5198842.9348   2965370.5691   1  22   0.0192   0.0331   0.0171  -0.0213   0.0198  -0.0139   0.00  999.9
2020/06/29 08:14:37.500  -2191127.7295   5198842.9348   2965370.5691   1  22   0.0192   0.0331   0.0171  -0.0213   0.0198  -0.0139   0.50  999.9
2020/06/29 08:14:38.000  -2191127.7295   5198842.9349   2965370.5691   1  22   0.0192   0.0331   0.0171  -0.0213   0.0198  -0.0139   0.00  999.9
2020/06/29 08:14:38.500  -2191127.7295   5198842.9349   2965370.5692   1  22   0.0192   0.0331   0.0171  -0.0213   0.0198  -0.0139   0.50  999.9
2020/06/29 08:14:39.000  -2191127.7294   5198842.9349   2965370.5692   1  22   0.0192   0.0331   0.0171  -0.0213   0.0198  -0.0139   0.00  999.9
2020/06/29 08:14:39.500  -2191127.7295   5198842.9349   2965370.5692   1  22   0.0192   0.0331   0.0171  -0.0213   0.0198  -0.0139   0.50  999.9
2020/06/29 08:14:40.000  -2191127.7295   5198842.9349   2965370.5692   1  22   0.0192   0.0331   0.0171  -0.0213   0.0198  -0.0139   0.00  999.9
2020/06/29 08:14:40.500  -2191127.7295   5198842.9349   2965370.5693   1  22   0.0192   0.0331   0.0171  -0.0213   0.0198  -0.0139   0.50  999.9
2020/06/29 08:14:41.000  -2191127.7295   5198842.9350   2965370.5693   1  22   0.0192   0.0331   0.0171  -0.0213   0.0198  -0.0139   0.00  999.9
2020/06/29 08:14:41.500  -2191127.7295   5198842.9351   2965370.5693   1  22   0.0192   0.0331   0.0171  -0.0213   0.0198  -0.0139   0.50  999.9
2020/06/29 08:14:42.000  -2191127.7295   5198842.9352   2965370.5693   1  22   0.0192   0.0331   0.0171  -0.0213   0.0198  -0.0139   0.00  999.9
2020/06/29 08:14:42.500  -2191127.7296   5198842.9352   2965370.5693   1  22   0.0192   0.0331   0.0171  -0.0213   0.0198  -0.0139   0.50  999.9
2020/06/29 08:14:43.000  -2191127.7296   5198842.9353   2965370.5693   1  22   0.0192   0.0331   0.0171  -0.0213   0.0198  -0.0139   0.00  999.9
2020/06/29 08:14:43.500  -2191127.7296   5198842.9353   2965370.5693   1  22   0.0192   0.0331   0.0171  -0.0213   0.0198  -0.0139   0.50  999.9
2020/06/29 08:14:44.000  -2191127.7296   5198842.9354   2965370.5693   1  22   0.0192   0.0331   0.0171  -0.0213   0.0198  -0.0139   0.00  999.9
2020/06/29 08:14:44.500  -2191127.7296   5198842.9354   2965370.5693   1  22   0.0192   0.0331   0.0171  -0.0213   0.0198  -0.0139   0.50  999.9
2020/06/29 08:14:45.000  -2191127.7296   5198842.9355   2965370.5693   1  22   0.0192   0.0331   0.0171  -0.0213   0.0198  -0.0139   0.00  999.9
2020/06/29 08:14:45.500  -2191127.7296   5198842.9355   2965370.5693   1  22   0.0192   0.0331   0.0171  -0.0213   0.0198  -0.0139   0.50  999.9
2020/06/29 08:14:46.000  -2191127.7295   5198842.9355   2965370.5694   1  22   0.0192   0.0331   0.0171  -0.0213   0.0198  -0.0139   0.00  999.9
2020/06/29 08:14:46.500  -2191127.7296   5198842.9356   2965370.5694   1  22   0.0192   0.0331   0.0171  -0.0213   0.0198  -0.0139   0.50  999.9
2020/06/29 08:14:47.000  -2191127.7295   5198842.9356   2965370.5694   1  22   0.0192   0.0331   0.0171  -0.0213   0.0198  -0.0139   0.00  999.9
2020/06/29 08:14:47.500  -2191127.7295   5198842.9356   2965370.5695   1  22   0.0192   0.0331   0.0171  -0.0213   0.0198  -0.0139   0.50  999.9
2020/06/29 08:14:48.000  -2191127.7296   5198842.9357   2965370.5695   1  22   0.0192   0.0331   0.0171  -0.0213   0.0198  -0.0139   0.00  999.9
2020/06/29 08:14:48.500  -2191127.7296   5198842.9358   2965370.5695   1  22   0.0192   0.0331   0.0171  -0.0213   0.0198  -0.0139   0.50  999.9
2020/06/29 08:14:49.000  -2191127.7296   5198842.9358   2965370.5695   1  22   0.0192   0.0331   0.0170  -0.0213   0.0198  -0.0139   0.00  999.9
2020/06/29 08:14:49.500  -2191127.7296   5198842.9358   2965370.5696   1  22   0.0192   0.0331   0.0171  -0.0213   0.0198  -0.0139   0.50  999.9
2020/06/29 08:14:50.000  -2191127.7296   5198842.9359   2965370.5696   1  22   0.0192   0.0331   0.0170  -0.0213   0.0198  -0.0139   0.00  999.9
2020/06/29 08:14:50.500  -2191127.7296   5198842.9358   2965370.5696   1  22   0.0192   0.0331   0.0171  -0.0213   0.0198  -0.0139   0.50  999.9
2020/06/29 08:14:51.000  -2191127.7296   5198842.9358   2965370.5696   1  22   0.0192   0.0331   0.0170  -0.0213   0.0198  -0.0139   0.00  999.9
2020/06/29 08:14:51.500  -2191127.7296   5198842.9358   2965370.5696   1  22   0.0192   0.0331   0.0170  -0.0213   0.0198  -0.0139   0.50  999.9
2020/06/29 08:14:52.000  -2191127.7295   5198842.9357   2965370.5696   1  22   0.0192   0.0331   0.0170  -0.0213   0.0198  -0.0139   0.00  999.9
2020/06/29 08:14:52.500  -2191127.7294   5198842.9357   2965370.5696   1  22   0.0192   0.0331   0.0170  -0.0213   0.0198  -0.0139   0.50  999.9
2020/06/29 08:14:53.000  -2191127.7294   5198842.9357   2965370.5696   1  22   0.0192   0.0331   0.0170  -0.0213   0.0198  -0.0139   0.00  999.9
2020/06/29 08:14:53.500  -2191127.7294   5198842.9357   2965370.5695   1  22   0.0192   0.0331   0.0170  -0.0213   0.0198  -0.0139   0.50  999.9
2020/06/29 08:14:54.000  -2191127.7294   5198842.9357   2965370.5696   1  22   0.0192   0.0331   0.0170  -0.0213   0.0198  -0.0139   0.00  999.9
2020/06/29 08:14:54.500  -2191127.7294   5198842.9358   2965370.5696   1  22   0.0192   0.0331   0.0170  -0.0213   0.0198  -0.0139   0.50  999.9
2020/06/29 08:14:55.000  -2191127.7293   5198842.9357   2965370.5695   1  22   0.0192   0.0331   0.0170  -0.0213   0.0198  -0.0139   0.00  999.9
2020/06/29 08:14:55.500  -2191127.7293   5198842.9357   2965370.5695   1  22   0.0192   0.0331   0.0170  -0.0213   0.0198  -0.0139   0.50  999.9
2020/06/29 08:14:56.000  -2191127.7293   5198842.9356   2965370.5695   1  22   0.0192   0.0331   0.0170  -0.0213   0.0198  -0.0139   0.00  999.9
2020/06/29 08:14:56.500  -2191127.7293   5198842.9356   2965370.5695   1  22   0.0192   0.0331   0.0170  -0.0213   0.0198  -0.0139   0.50  999.9
2020/06/29 08:14:57.000  -2191127.7293   5198842.9356   2965370.5695   1  22   0.0192   0.0330   0.0170  -0.0213   0.0198  -0.0139   0.00  999.9
2020/06/29 08:14:57.500  -2191127.7293   5198842.9356   2965370.5695   1  22   0.0192   0.0331   0.0170  -0.0213   0.0198  -0.0139   0.50  999.9
2020/06/29 08:14:58.000  -2191127.7292   5198842.9356   2965370.5695   1  22   0.0192   0.0330   0.0170  -0.0213   0.0198  -0.0139   0.00  999.9
2020/06/29 08:14:58.500  -2191127.7292   5198842.9356   2965370.5695   1  22   0.0192   0.0331   0.0170  -0.0213   0.0198  -0.0139   0.50  999.9
2020/06/29 08:14:59.000  -2191127.7292   5198842.9355   2965370.5694   1  22   0.0192   0.0330   0.0170  -0.0213   0.0198  -0.0139   0.00  999.9
2020/06/29 08:14:59.500  -2191127.7291   5198842.9354   2965370.5694   1  22   0.0192   0.0331   0.0170  -0.0213   0.0198  -0.0139   0.50  999.9
2020/06/29 08:15:00.000  -2191127.7290   5198842.9353   2965370.5693   1  22   0.0192   0.0330   0.0170  -0.0213   0.0198  -0.0139   0.00  999.9
2020/06/29 08:15:00.500  -2191127.7289   5198842.9352   2965370.5693   1  22   0.0192   0.0331   0.0170  -0.0213   0.0198  -0.0139   0.50  999.9
2020/06/29 08:15:01.000  -2191127.7289   5198842.9352   2965370.5693   1  22   0.0192   0.0330   0.0170  -0.0213   0.0198  -0.0139   0.00  999.9
2020/06/29 08:15:01.500  -2191127.7290   5198842.9352   2965370.5693   1  22   0.0192   0.0330   0.0170  -0.0213   0.0198  -0.0139   0.50  999.9
2020/06/29 08:15:02.000  -2191127.7289   5198842.9352   2965370.5692   1  22   0.0192   0.0330   0.0170  -0.0213   0.0198  -0.0139   0.00  999.9
2020/06/29 08:15:02.500  -2191127.7288   5198842.9352   2965370.5691   1  22   0.0192   0.0330   0.0170  -0.0213   0.0198  -0.0139   0.50  999.9
2020/06/29 08:15:03.000  -2191127.7287   5198842.9351   2965370.5690   1  22   0.0192   0.0330   0.0170  -0.0213   0.0198  -0.0139   0.00  999.9
2020/06/29 08:15:03.500  -2191127.7287   5198842.9351   2965370.5689   1  22   0.0192   0.0330   0.0170  -0.0213   0.0198  -0.0139   0.50  999.9
2020/06/29 08:15:04.000  -2191127.7287   5198842.9351   2965370.5690   1  22   0.0192   0.0330   0.0170  -0.0213   0.0198  -0.0139   0.00  999.9
2020/06/29 08:15:04.500  -2191127.7286   5198842.9351   2965370.5690   1  22   0.0192   0.0330   0.0170  -0.0213   0.0198  -0.0139   0.50  999.9
2020/06/29 08:15:05.000  -2191127.7286   5198842.9351   2965370.5690   1  22   0.0192   0.0330   0.0170  -0.0213   0.0198  -0.0139   0.00  999.9
2020/06/29 08:15:05.500  -2191127.7285   5198842.9351   2965370.5689   1  22   0.0192   0.0330   0.0170  -0.0213   0.0198  -0.0139   0.50  999.9
2020/06/29 08:15:06.000  -2191127.7286   5198842.9351   2965370.5689   1  21   0.0214   0.0348   0.0180  -0.0236   0.0213  -0.0157   0.00  999.9
2020/06/29 08:15:06.500  -2191127.7286   5198842.9351   2965370.5690   1  22   0.0215   0.0348   0.0180  -0.0236   0.0213  -0.0158   0.50  999.9
2020/06/29 08:15:07.000  -2191127.7286   5198842.9351   2965370.5689   1  22   0.0204   0.0339   0.0175  -0.0225   0.0206  -0.0148   0.00  999.9
2020/06/29 08:15:07.500  -2191127.7286   5198842.9351   2965370.5689   1  22   0.0200   0.0336   0.0173  -0.0221   0.0203  -0.0145   0.50  999.9
2020/06/29 08:15:08.000  -2191127.7285   5198842.9351   2965370.5689   1  22   0.0198   0.0335   0.0173  -0.0219   0.0202  -0.0143   0.00  999.9
2020/06/29 08:15:08.500  -2191127.7285   5198842.9350   2965370.5689   1  22   0.0197   0.0334   0.0172  -0.0217   0.0201  -0.0142   0.50  999.9
2020/06/29 08:15:09.000  -2191127.7285   5198842.9350   2965370.5689   1  21   0.0214   0.0348   0.0180  -0.0236   0.0213  -0.0157   0.00  999.9
2020/06/29 08:15:09.500  -2191127.7285   5198842.9350   2965370.5689   1  21   0.0215   0.0348   0.0180  -0.0236   0.0213  -0.0157   0.50  999.9
2020/06/29 08:15:10.000  -2191127.7285   5198842.9351   2965370.5689   1  22   0.0214   0.0348   0.0180  -0.0236   0.0213  -0.0157   0.00  999.9
2020/06/29 08:15:10.500  -2191127.7285   5198842.9351   2965370.5689   1  22   0.0204   0.0339   0.0175  -0.0225   0.0206  -0.0148   0.50  999.9
2020/06/29 08:15:11.000  -2191127.7285   5198842.9350   2965370.5688   1  22   0.0200   0.0336   0.0173  -0.0220   0.0203  -0.0145   0.00  999.9
2020/06/29 08:15:11.500  -2191127.7285   5198842.9349   2965370.5688   1  22   0.0198   0.0335   0.0173  -0.0219   0.0201  -0.0143   0.50  999.9
2020/06/29 08:15:12.000  -2191127.7285   5198842.9349   2965370.5688   1  22   0.0197   0.0334   0.0172  -0.0217   0.0201  -0.0142   0.00  999.9
2020/06/29 08:15:12.500  -2191127.7284   5198842.9349   2965370.5689   1  22   0.0196   0.0333   0.0172  -0.0217   0.0200  -0.0142   0.50  999.9
2020/06/29 08:15:13.000  -2191127.7284   5198842.9349   2965370.5688   1  22   0.0195   0.0333   0.0171  -0.0216   0.0200  -0.0141   0.00  999.9
2020/06/29 08:15:13.500  -2191127.7283   5198842.9349   2965370.5688   1  22   0.0195   0.0332   0.0171  -0.0216   0.0199  -0.0141   0.50  999.9
2020/06/29 08:15:14.000  -2191127.7284   5198842.9349   2965370.5688   1  22   0.0195   0.0332   0.0171  -0.0215   0.0199  -0.0141   0.00  999.9
2020/06/29 08:15:14.500  -2191127.7283   5198842.9348   2965370.5689   1  22   0.0194   0.0332   0.0171  -0.0215   0.0199  -0.0140   0.50  999.9
2020/06/29 08:15:15.000  -2191127.7283   5198842.9348   2965370.5688   1  22   0.0194   0.0332   0.0171  -0.0215   0.0199  -0.0140   0.00  999.9
2020/06/29 08:15:15.500  -2191127.7283   5198842.9347   2965370.5688   1  22   0.0194   0.0332   0.0171  -0.0215   0.0199  -0.0140   0.50  999.9
2020/06/29 08:15:16.000  -2191127.7282   5198842.9347   2965370.5687   1  22   0.0194   0.0331   0.0171  -0.0214   0.0198  -0.0140   0.00  999.9
2020/06/29 08:15:16.500  -2191127.7282   5198842.9347   2965370.5688   1  22   0.0194   0.0331   0.0171  -0.0214   0.0198  -0.0140   0.50  999.9
2020/06/29 08:15:17.000  -2191127.7282   5198842.9347   2965370.5688   1  22   0.0194   0.0331   0.0171  -0.0214   0.0198  -0.0140   0.00  999.9
2020/06/29 08:15:17.500  -2191127.7281   5198842.9346   2965370.5687   1  22   0.0194   0.0331   0.0171  -0.0214   0.0198  -0.0140   0.50  999.9
2020/06/29 08:15:18.000  -2191127.7281   5198842.9345   2965370.5687   1  22   0.0193   0.0331   0.0170  -0.0214   0.0198  -0.0139   0.00  999.9
2020/06/29 08:15:18.500  -2191127.7280   5198842.9345   2965370.5687   1  22   0.0193   0.0331   0.0170  -0.0214   0.0198  -0.0139   0.50  999.9
2020/06/29 08:15:19.000  -2191127.7280   5198842.9345   2965370.5687   1  22   0.0193   0.0331   0.0170  -0.0214   0.0198  -0.0139   0.00  999.9
2020/06/29 08:15:19.500  -2191127.7280   5198842.9345   2965370.5687   1  22   0.0193   0.0331   0.0170  -0.0214   0.0198  -0.0139   0.50  999.9
2020/06/29 08:15:20.000  -2191127.7280   5198842.9346   2965370.5687   1  22   0.0193   0.0331   0.0170  -0.0214   0.0198  -0.0139   0.00  999.9
2020/06/29 08:15:20.500  -2191127.7280   5198842.9346   2965370.5687   1  22   0.0193   0.0331   0.0170  -0.0214   0.0198  -0.0139   0.50  999.9
2020/06/29 08:15:21.000  -2191127.7280   5198842.9347   2965370.5687   1  22   0.0193   0.0331   0.0170  -0.0213   0.0198  -0.0139   0.00  999.9
2020/06/29 08:15:21.500  -2191127.7280   5198842.9347   2965370.5687   1  23   0.0193   0.0331   0.0170  -0.0213   0.0198  -0.0139   0.50  999.9
2020/06/29 08:15:22.000  -2191127.7280   5198842.9347   2965370.5687   1  23   0.0186   0.0320   0.0168  -0.0204   0.0193  -0.0135   0.00  999.9
2020/06/29 08:15:22.500  -2191127.7280   5198842.9347   2965370.5687   1  23   0.0184   0.0317   0.0168  -0.0200   0.0191  -0.0133   0.50  999.9
2020/06/29 08:15:23.000  -2191127.7280   5198842.9347   2965370.5687   1  23   0.0183   0.0315   0.0168  -0.0199   0.0190  -0.0132   0.00  999.9
2020/06/29 08:15:23.500  -2191127.7280   5198842.9347   2965370.5687   1  23   0.0182   0.0314   0.0167  -0.0197   0.0190  -0.0132   0.50  999.9
2020/06/29 08:15:24.000  -2191127.7279   5198842.9347   2965370.5687   1  23   0.0182   0.0313   0.0167  -0.0197   0.0189  -0.0132   0.00  999.9
2020/06/29 08:15:24.500  -2191127.7279   5198842.9346   2965370.5686   1  23   0.0181   0.0313   0.0167  -0.0196   0.0189  -0.0131   0.50  999.9
2020/06/29 08:15:25.000  -2191127.7278   5198842.9346   2965370.5686   1  23   0.0181   0.0312   0.0167  -0.0196   0.0189  -0.0131   0.00  999.9
2020/06/29 08:15:25.500  -2191127.7278   5198842.9346   2965370.5686   1  23   0.0181   0.0312   0.0167  -0.0195   0.0189  -0.0131   0.50  999.9
2020/06/29 08:15:26.000  -2191127.7278   5198842.9346   2965370.5686   1  23   0.0181   0.0312   0.0167  -0.0195   0.0188  -0.0131   0.00  999.9
2020/06/29 08:15:26.500  -2191127.7278   5198842.9346   2965370.5686   1  23   0.0181   0.0312   0.0167  -0.0195   0.0188  -0.0131   0.50  999.9
2020/06/29 08:15:27.000  -2191127.7278   5198842.9346   2965370.5686   1  23   0.0180   0.0311   0.0167  -0.0195   0.0188  -0.0131   0.00  999.9
2020/06/29 08:15:27.500  -2191127.7278   5198842.9346   2965370.5686   1  23   0.0180   0.0311   0.0167  -0.0195   0.0188  -0.0131   0.50  999.9
2020/06/29 08:15:28.000  -2191127.7278   5198842.9346   2965370.5686   1  23   0.0180   0.0311   0.0167  -0.0194   0.0188  -0.0130   0.00  999.9
2020/06/29 08:15:28.500  -2191127.7278   5198842.9346   2965370.5686   1  23   0.0180   0.0311   0.0167  -0.0194   0.0188  -0.0130   0.50  999.9
2020/06/29 08:15:29.000  -2191127.7277   5198842.9345   2965370.5686   1  23   0.0180   0.0311   0.0167  -0.0194   0.0188  -0.0130   0.00  999.9
2020/06/29 08:15:29.500  -2191127.7278   5198842.9346   2965370.5687   1  23   0.0180   0.0311   0.0167  -0.0194   0.0188  -0.0130   0.50  999.9
2020/06/29 08:15:30.000  -2191127.7278   5198842.9346   2965370.5686   1  23   0.0180   0.0310   0.0167  -0.0194   0.0188  -0.0130   0.00  999.9
2020/06/29 08:15:30.500  -2191127.7278   5198842.9346   2965370.5687   1  23   0.0180   0.0310   0.0167  -0.0194   0.0188  -0.0130   0.50  999.9
2020/06/29 08:15:31.000  -2191127.7278   5198842.9346   2965370.5687   1  23   0.0180   0.0310   0.0167  -0.0194   0.0188  -0.0130   0.00  999.9
2020/06/29 08:15:31.500  -2191127.7278   5198842.9347   2965370.5687   1  23   0.0180   0.0310   0.0167  -0.0194   0.0188  -0.0130   0.50  999.9
2020/06/29 08:15:32.000  -2191127.7278   5198842.9347   2965370.5687   1  23   0.0180   0.0310   0.0167  -0.0194   0.0188  -0.0130   0.00  999.9
2020/06/29 08:15:32.500  -2191127.7279   5198842.9347   2965370.5688   1  23   0.0180   0.0310   0.0167  -0.0194   0.0188  -0.0130   0.50  999.9
2020/06/29 08:15:33.000  -2191127.7279   5198842.9347   2965370.5688   1  23   0.0180   0.0310   0.0167  -0.0194   0.0188  -0.0130   0.00  999.9
2020/06/29 08:15:33.500  -2191127.7279   5198842.9347   2965370.5689   1  23   0.0180   0.0310   0.0167  -0.0194   0.0188  -0.0130   0.50  999.9
2020/06/29 08:15:34.000  -2191127.7279   5198842.9347   2965370.5689   1  23   0.0180   0.0310   0.0166  -0.0193   0.0187  -0.0130   0.00  999.9
2020/06/29 08:15:34.500  -2191127.7279   5198842.9346   2965370.5688   1  23   0.0180   0.0310   0.0167  -0.0193   0.0187  -0.0130   0.50  999.9
2020/06/29 08:15:35.000  -2191127.7279   5198842.9346   2965370.5689   1  23   0.0179   0.0310   0.0166  -0.0193   0.0187  -0.0130   0.00  999.9
2020/06/29 08:15:35.500  -2191127.7279   5198842.9346   2965370.5689   1  23   0.0180   0.0310   0.0166  -0.0193   0.0187  -0.0130   0.50  999.9
2020/06/29 08:15:36.000  -2191127.7279   5198842.9346   2965370.5689   1  23   0.0179   0.0310   0.0166  -0.0193   0.0187  -0.0130   0.00  999.9
2020/06/29 08:15:36.500  -2191127.7278   5198842.9344   2965370.5688   1  23   0.0179   0.0310   0.0166  -0.0193   0.0187  -0.0130   0.50  999.9
2020/06/29 08:15:37.000  -2191127.7278   5198842.9344   2965370.5688   1  23   0.0179   0.0310   0.0166  -0.0193   0.0187  -0.0130   0.00  999.9
2020/06/29 08:15:37.500  -2191127.7278   5198842.9343   2965370.5688   1  23   0.0179   0.0310   0.0166  -0.0193   0.0187  -0.0130   0.50  999.9
2020/06/29 08:15:38.000  -2191127.7278   5198842.9342   2965370.5688   1  23   0.0179   0.0310   0.0166  -0.0193   0.0187  -0.0130   0.00  999.9
2020/06/29 08:15:38.500  -2191127.7277   5198842.9342   2965370.5687   1  23   0.0179   0.0310   0.0166  -0.0193   0.0187  -0.0130   0.50  999.9
2020/06/29 08:15:39.000  -2191127.7277   5198842.9341   2965370.5687   1  23   0.0179   0.0309   0.0166  -0.0193   0.0187  -0.0130   0.00  999.9
2020/06/29 08:15:39.500  -2191127.7276   5198842.9340   2965370.5686   1  23   0.0179   0.0310   0.0166  -0.0193   0.0187  -0.0130   0.50  999.9
2020/06/29 08:15:40.000  -2191127.7276   5198842.9339   2965370.5686   1  23   0.0179   0.0309   0.0166  -0.0193   0.0187  -0.0130   0.00  999.9
2020/06/29 08:15:40.500  -2191127.7275   5198842.9338   2965370.5685   1  23   0.0179   0.0309   0.0166  -0.0193   0.0187  -0.0130   0.50  999.9
2020/06/29 08:15:41.000  -2191127.7275   5198842.9338   2965370.5685   1  23   0.0179   0.0309   0.0166  -0.0193   0.0187  -0.0130   0.00  999.9
2020/06/29 08:15:41.500  -2191127.7274   5198842.9337   2965370.5684   1  23   0.0179   0.0309   0.0166  -0.0193   0.0187  -0.0130   0.50  999.9
2020/06/29 08:15:42.000  -2191127.7274   5198842.9337   2965370.5684   1  23   0.0179   0.0309   0.0166  -0.0193   0.0187  -0.0129   0.00  999.9
2020/06/29 08:15:42.500  -2191127.7274   5198842.9336   2965370.5683   1  23   0.0179   0.0309   0.0166  -0.0193   0.0187  -0.0130   0.50  999.9
2020/06/29 08:15:43.000  -2191127.7274   5198842.9336   2965370.5683   1  23   0.0179   0.0309   0.0166  -0.0193   0.0187  -0.0129   0.00  999.9
2020/06/29 08:15:43.500  -2191127.7273   5198842.9336   2965370.5683   1  23   0.0179   0.0309   0.0166  -0.0193   0.0187  -0.0129   0.50  999.9
2020/06/29 08:15:44.000  -2191127.7272   5198842.9334   2965370.5682   1  23   0.0179   0.0309   0.0166  -0.0193   0.0187  -0.0129   0.00  999.9
2020/06/29 08:15:44.500  -2191127.7272   5198842.9334   2965370.5682   1  23   0.0179   0.0309   0.0166  -0.0193   0.0187  -0.0129   0.50  999.9
2020/06/29 08:15:45.000  -2191127.7272   5198842.9334   2965370.5682   1  23   0.0179   0.0309   0.0166  -0.0193   0.0187  -0.0129   0.00  999.9
2020/06/29 08:15:45.500  -2191127.7272   5198842.9334   2965370.5682   1  23   0.0179   0.0309   0.0166  -0.0193   0.0187  -0.0129   0.50  999.9
2020/06/29 08:15:46.000  -2191127.7272   5198842.9334   2965370.5682   1  23   0.0179   0.0309   0.0166  -0.0193   0.0187  -0.0129   0.00  999.9
2020/06/29 08:15:46.500  -2191127.7272   5198842.9334   2965370.5682   1  23   0.0179   0.0309   0.0166  -0.0193   0.0187  -0.0129   0.50  999.9
2020/06/29 08:15:47.000  -2191127.7272   5198842.9333   2965370.5681   1  23   0.0179   0.0309   0.0166  -0.0193   0.0187  -0.0129   0.00  999.9
2020/06/29 08:15:47.500  -2191127.7272   5198842.9333   2965370.5681   1  23   0.0179   0.0309   0.0166  -0.0193   0.0187  -0.0129   0.50  999.9
2020/06/29 08:15:48.000  -2191127.7272   5198842.9333   2965370.5681   1  23   0.0179   0.0309   0.0166  -0.0193   0.0187  -0.0129   0.00  999.9
2020/06/29 08:15:48.500  -2191127.7272   5198842.9331   2965370.5681   1  23   0.0179   0.0309   0.0166  -0.0193   0.0187  -0.0129   0.50  999.9
2020/06/29 08:15:49.000  -2191127.7271   5198842.9331   2965370.5680   1  23   0.0179   0.0309   0.0166  -0.0193   0.0187  -0.0129   0.00  999.9
2020/06/29 08:15:49.500  -2191127.7271   5198842.9330   2965370.5680   1  23   0.0179   0.0309   0.0166  -0.0193   0.0187  -0.0129   0.50  999.9
2020/06/29 08:15:50.000  -2191127.7271   5198842.9329   2965370.5680   1  23   0.0179   0.0309   0.0166  -0.0193   0.0187  -0.0129   0.00  999.9
2020/06/29 08:15:50.500  -2191127.7271   5198842.9328   2965370.5680   1  23   0.0179   0.0309   0.0166  -0.0193   0.0187  -0.0129   0.50  999.9
2020/06/29 08:15:51.000  -2191127.7270   5198842.9327   2965370.5679   1  23   0.0179   0.0309   0.0166  -0.0192   0.0187  -0.0129   0.00  999.9
2020/06/29 08:15:51.500  -2191127.7270   5198842.9327   2965370.5679   1  23   0.0179   0.0309   0.0166  -0.0193   0.0187  -0.0129   0.50  999.9
2020/06/29 08:15:52.000  -2191127.7270   5198842.9326   2965370.5679   1  23   0.0179   0.0309   0.0166  -0.0192   0.0187  -0.0129   0.00  999.9
2020/06/29 08:15:52.500  -2191127.7270   5198842.9326   2965370.5678   1  23   0.0179   0.0309   0.0166  -0.0192   0.0187  -0.0129   0.50  999.9
2020/06/29 08:15:53.000  -2191127.7270   5198842.9325   2965370.5678   1  23   0.0179   0.0309   0.0166  -0.0192   0.0187  -0.0129   0.00  999.9
2020/06/29 08:15:53.500  -2191127.7270   5198842.9325   2965370.5677   1  23   0.0179   0.0309   0.0166  -0.0192   0.0187  -0.0129   0.50  999.9
2020/06/29 08:15:54.000  -2191127.7269   5198842.9324   2965370.5677   1  23   0.0179   0.0309   0.0166  -0.0192   0.0187  -0.0129   0.00  999.9
2020/06/29 08:15:54.500  -2191127.7269   5198842.9324   2965370.5677   1  23   0.0179   0.0309   0.0166  -0.0192   0.0187  -0.0129   0.50  999.9
2020/06/29 08:15:55.000  -2191127.7269   5198842.9324   2965370.5676   1  23   0.0179   0.0309   0.0166  -0.0192   0.0187  -0.0129   0.00  999.9
2020/06/29 08:15:55.500  -2191127.7269   5198842.9324   2965370.5676   1  23   0.0179   0.0309   0.0166  -0.0192   0.0187  -0.0129   0.50  999.9
2020/06/29 08:15:56.000  -2191127.7268   5198842.9323   2965370.5676   1  23   0.0179   0.0309   0.0166  -0.0192   0.0186  -0.0129   0.00  999.9
2020/06/29 08:15:56.500  -2191127.7268   5198842.9323   2965370.5676   1  23   0.0179   0.0309   0.0166  -0.0192   0.0187  -0.0129   0.50  999.9
2020/06/29 08:15:57.000  -2191127.7268   5198842.9322   2965370.5675   1  23   0.0179   0.0309   0.0166  -0.0192   0.0186  -0.0129   0.00  999.9
2020/06/29 08:15:57.500  -2191127.7268   5198842.9322   2965370.5675   1  23   0.0179   0.0309   0.0166  -0.0192   0.0186  -0.0129   0.50  999.9
2020/06/29 08:15:58.000  -2191127.7268   5198842.9321   2965370.5675   1  23   0.0179   0.0309   0.0166  -0.0192   0.0186  -0.0129   0.00  999.9
2020/06/29 08:15:58.500  -2191127.7268   5198842.9321   2965370.5674   1  23   0.0179   0.0309   0.0166  -0.0192   0.0186  -0.0129   0.50  999.9
2020/06/29 08:15:59.000  -2191127.7267   5198842.9321   2965370.5674   1  23   0.0179   0.0308   0.0166  -0.0192   0.0186  -0.0129   0.00  999.9
2020/06/29 08:15:59.500  -2191127.7267   5198842.9320   2965370.5674   1  23   0.0179   0.0309   0.0166  -0.0192   0.0186  -0.0129   0.50  999.9
2020/06/29 08:16:00.000  -2191127.7266   5198842.9319   2965370.5673   1  23   0.0179   0.0308   0.0166  -0.0192   0.0186  -0.0129   0.00  999.9
2020/06/29 08:16:00.500  -2191127.7266   5198842.9319   2965370.5673   1  23   0.0179   0.0309   0.0166  -0.0192   0.0186  -0.0129   0.50  999.9
2020/06/29 08:16:01.000  -2191127.7265   5198842.9318   2965370.5673   1  23   0.0179   0.0308   0.0166  -0.0192   0.0186  -0.0129   0.00  999.9
2020/06/29 08:16:01.500  -2191127.7265   5198842.9317   2965370.5673   1  23   0.0179   0.0308   0.0166  -0.0192   0.0186  -0.0129   0.50  999.9
2020/06/29 08:16:02.000  -2191127.7265   5198842.9317   2965370.5672   1  23   0.0179   0.0308   0.0166  -0.0192   0.0186  -0.0129   0.00  999.9
2020/06/29 08:16:02.500  -2191127.7264   5198842.9316   2965370.5672   1  23   0.0179   0.0308   0.0166  -0.0192   0.0186  -0.0129   0.50  999.9
2020/06/29 08:16:03.000  -2191127.7264   5198842.9316   2965370.5672   1  23   0.0179   0.0308   0.0166  -0.0192   0.0186  -0.0129   0.00  999.9
2020/06/29 08:16:03.500  -2191127.7263   5198842.9316   2965370.5672   1  23   0.0179   0.0308   0.0166  -0.0192   0.0186  -0.0129   0.50  999.9
2020/06/29 08:16:04.000  -2191127.7263   5198842.9315   2965370.5671   1  23   0.0179   0.0308   0.0166  -0.0192   0.0186  -0.0129   0.00  999.9
2020/06/29 08:16:04.500  -2191127.7263   5198842.9315   2965370.5671   1  23   0.0179   0.0308   0.0166  -0.0192   0.0186  -0.0129   0.50  999.9
2020/06/29 08:16:05.000  -2191127.7263   5198842.9316   2965370.5671   1  23   0.0179   0.0308   0.0166  -0.0192   0.0186  -0.0129   0.00  999.9
2020/06/29 08:16:05.500  -2191127.7263   5198842.9316   2965370.5671   1  23   0.0179   0.0308   0.0166  -0.0192   0.0186  -0.0129   0.50  999.9
2020/06/29 08:16:06.000  -2191127.7263   5198842.9316   2965370.5670   1  23   0.0179   0.0308   0.0166  -0.0192   0.0186  -0.0129   0.00  999.9
2020/06/29 08:16:06.500  -2191127.7263   5198842.9316   2965370.5670   1  23   0.0179   0.0308   0.0166  -0.0192   0.0186  -0.0129   0.50  999.9
2020/06/29 08:16:07.000  -2191127.7263   5198842.9316   2965370.5671   1  23   0.0179   0.0308   0.0166  -0.0192   0.0186  -0.0129   0.00  999.9
2020/06/29 08:16:07.500  -2191127.7263   5198842.9318   2965370.5671   1  23   0.0179   0.0308   0.0166  -0.0192   0.0186  -0.0129   0.50  999.9
2020/06/29 08:16:08.000  -2191127.7263   5198842.9318   2965370.5672   1  23   0.0179   0.0308   0.0166  -0.0192   0.0186  -0.0129   0.00  999.9
2020/06/29 08:16:08.500  -2191127.7263   5198842.9318   2965370.5672   1  23   0.0179   0.0308   0.0166  -0.0192   0.0186  -0.0129   0.50  999.9
2020/06/29 08:16:09.000  -2191127.7263   5198842.9318   2965370.5672   1  23   0.0179   0.0308   0.0166  -0.0192   0.0186  -0.0129   0.00  999.9
2020/06/29 08:16:09.500  -2191127.7264   5198842.9319   2965370.5672   1  23   0.0179   0.0308   0.0166  -0.0192   0.0186  -0.0129   0.50  999.9
2020/06/29 08:16:10.000  -2191127.7264   5198842.9318   2965370.5672   1  23   0.0179   0.0308   0.0166  -0.0192   0.0186  -0.0129   0.00  999.9
2020/06/29 08:16:10.500  -2191127.7264   5198842.9318   2965370.5672   1  23   0.0179   0.0308   0.0166  -0.0192   0.0186  -0.0129   0.50  999.9
2020/06/29 08:16:11.000  -2191127.7264   5198842.9318   2965370.5672   1  23   0.0179   0.0308   0.0166  -0.0192   0.0186  -0.0129   0.00  999.9
2020/06/29 08:16:11.500  -2191127.7264   5198842.9319   2965370.5672   1  23   0.0179   0.0308   0.0166  -0.0192   0.0186  -0.0129   0.50  999.9
2020/06/29 08:16:12.000  -2191127.7263   5198842.9318   2965370.5672   1  23   0.0179   0.0308   0.0166  -0.0192   0.0186  -0.0129   0.00  999.9
2020/06/29 08:16:12.500  -2191127.7263   5198842.9317   2965370.5672   1  23   0.0179   0.0308   0.0166  -0.0192   0.0186  -0.0129   0.50  999.9
2020/06/29 08:16:13.000  -2191127.7263   5198842.9317   2965370.5671   1  23   0.0196   0.0319   0.0173  -0.0209   0.0197  -0.0144   0.00  999.9
2020/06/29 08:16:13.500  -2191127.7263   5198842.9317   2965370.5671   1  23   0.0187   0.0314   0.0170  -0.0200   0.0192  -0.0136   0.50  999.9
2020/06/29 08:16:14.000  -2191127.7263   5198842.9318   2965370.5672   1  23   0.0184   0.0312   0.0168  -0.0197   0.0190  -0.0134   0.00  999.9
2020/06/29 08:16:14.500  -2191127.7264   5198842.9318   2965370.5672   1  23   0.0183   0.0311   0.0168  -0.0196   0.0189  -0.0133   0.50  999.9
2020/06/29 08:16:15.000  -2191127.7264   5198842.9318   2965370.5672   1  23   0.0182   0.0310   0.0167  -0.0195   0.0188  -0.0132   0.00  999.9
2020/06/29 08:16:15.500  -2191127.7264   5198842.9318   2965370.5672   1  23   0.0181   0.0310   0.0167  -0.0195   0.0188  -0.0131   0.50  999.9
2020/06/29 08:16:16.000  -2191127.7264   5198842.9317   2965370.5671   1  23   0.0181   0.0309   0.0167  -0.0194   0.0187  -0.0131   0.00  999.9
2020/06/29 08:16:16.500  -2191127.7264   5198842.9316   2965370.5670   1  23   0.0181   0.0309   0.0167  -0.0194   0.0187  -0.0131   0.50  999.9
2020/06/29 08:16:17.000  -2191127.7264   5198842.9317   2965370.5671   1  23   0.0180   0.0309   0.0166  -0.0194   0.0187  -0.0130   0.00  999.9
2020/06/29 08:16:17.500  -2191127.7264   5198842.9317   2965370.5671   1  23   0.0180   0.0309   0.0166  -0.0193   0.0187  -0.0130   0.50  999.9
2020/06/29 08:16:18.000  -2191127.7265   5198842.9317   2965370.5671   1  23   0.0180   0.0309   0.0166  -0.0193   0.0187  -0.0130   0.00  999.9
2020/06/29 08:16:18.500  -2191127.7265   5198842.9318   2965370.5671   1  23   0.0180   0.0309   0.0166  -0.0193   0.0187  -0.0130   0.50  999.9
2020/06/29 08:16:19.000  -2191127.7265   5198842.9318   2965370.5671   1  23   0.0180   0.0309   0.0166  -0.0193   0.0187  -0.0130   0.00  999.9
2020/06/29 08:16:19.500  -2191127.7265   5198842.9318   2965370.5671   1  23   0.0180   0.0309   0.0166  -0.0193   0.0187  -0.0130   0.50  999.9
2020/06/29 08:16:20.000  -2191127.7265   5198842.9318   2965370.5671   1  23   0.0180   0.0308   0.0166  -0.0193   0.0186  -0.0130   0.00  999.9
2020/06/29 08:16:20.500  -2191127.7265   5198842.9318   2965370.5671   1  23   0.0180   0.0308   0.0166  -0.0193   0.0186  -0.0129   0.50  999.9
2020/06/29 08:16:21.000  -2191127.7265   5198842.9318   2965370.5671   1  23   0.0179   0.0308   0.0166  -0.0193   0.0186  -0.0129   0.00  999.9
2020/06/29 08:16:21.500  -2191127.7265   5198842.9318   2965370.5671   1  23   0.0179   0.0308   0.0166  -0.0193   0.0186  -0.0129   0.50  999.9
2020/06/29 08:16:22.000  -2191127.7265   5198842.9318   2965370.5671   1  23   0.0179   0.0308   0.0166  -0.0192   0.0186  -0.0129   0.00  999.9
2020/06/29 08:16:22.500  -2191127.7265   5198842.9317   2965370.5671   1  23   0.0179   0.0308   0.0166  -0.0192   0.0186  -0.0129   0.50  999.9
2020/06/29 08:16:23.000  -2191127.7265   5198842.9317   2965370.5671   1  23   0.0179   0.0308   0.0166  -0.0192   0.0186  -0.0129   0.00  999.9
