% program   : RTKPOST ver.2.4.3 b33
% inp file  : D:\Documents\Visual Studio 2019\rtklib_portToVS\rtklib_2.4.3\data\7.obs
% inp file  : D:\Documents\Visual Studio 2019\rtklib_portToVS\rtklib_2.4.3\data\8.obs
% inp file  : D:\Documents\Visual Studio 2019\rtklib_portToVS\rtklib_2.4.3\data\8.nav
% obs start : 2020/06/29 08:13:15.5 GPST (week2112 115995.5s)
% obs end   : 2020/06/29 08:38:11.0 GPST (week2112 117491.0s)
% pos mode  : kinematic
% freqs     : L1
% solution  : forward
% elev mask : 0.0 deg
% dynamics  : off
% tidecorr  : off
% ionos opt : broadcast
% tropo opt : saastamoinen
% ephemeris : broadcast
% navi sys  : gps beidou
% amb res   : fix and hold
% val thres : 3.0
% antenna1  :                       ( 0.0000  0.0000  0.0000)
% antenna2  :                       ( 0.0000  0.0000  0.0000)
% ref pos   : -2191136.5960   5198843.8105   2965370.9859
%
% (x/y/z-ecef=WGS84,Q=1:fix,2:float,3:sbas,4:dgps,5:single,6:ppp,ns=# of satellites)
%  GPST                      x-ecef(m)      y-ecef(m)      z-ecef(m)   Q  ns   sdx(m)   sdy(m)   sdz(m)  sdxy(m)  sdyz(m)  sdzx(m) age(s)  ratio
2020/06/29 08:13:15.500  -2191126.6439   5198846.6296   2965369.3016   2  22   0.5667   0.9843   0.5065  -0.6310   0.5911  -0.4126  -0.50    1.2
2020/06/29 08:13:16.000  -2191126.6958   5198846.7188   2965369.3516   2  22   0.4035   0.7000   0.3602  -0.4492   0.4205  -0.2938   0.00    1.1
2020/06/29 08:13:16.500  -2191126.7577   5198846.7555   2965369.3856   2  22   0.3303   0.5726   0.2946  -0.3676   0.3441  -0.2404   0.50    1.1
2020/06/29 08:13:17.000  -2191126.7993   5198846.7816   2965369.4044   2  22   0.2863   0.4964   0.2554  -0.3187   0.2983  -0.2084   0.00    1.1
2020/06/29 08:13:17.500  -2191126.8554   5198846.8189   2965369.4372   2  22   0.2563   0.4442   0.2286  -0.2852   0.2669  -0.1865   0.50    1.0
2020/06/29 08:13:18.000  -2191126.8934   5198846.8490   2965369.4735   2  22   0.2341   0.4056   0.2087  -0.2605   0.2437  -0.1704   0.00    1.1
2020/06/29 08:13:18.500  -2191126.9193   5198846.8558   2965369.4958   2  22   0.2168   0.3756   0.1933  -0.2412   0.2257  -0.1578   0.50    1.2
2020/06/29 08:13:19.000  -2191126.9479   5198846.8676   2965369.5213   2  22   0.2028   0.3514   0.1808  -0.2257   0.2112  -0.1476   0.00    1.3
2020/06/29 08:13:19.500  -2191126.9698   5198846.8646   2965369.5446   2  22   0.1913   0.3313   0.1705  -0.2128   0.1991  -0.1392   0.50    1.4
2020/06/29 08:13:20.000  -2191127.0038   5198846.9025   2965369.5729   2  22   0.1815   0.3143   0.1617  -0.2019   0.1889  -0.1320   0.00    1.5
2020/06/29 08:13:20.500  -2191127.0408   5198846.9430   2965369.5983   2  22   0.1730   0.2997   0.1542  -0.1925   0.1801  -0.1259   0.50    1.5
2020/06/29 08:13:21.000  -2191127.0836   5198846.9947   2965369.6200   2  22   0.1657   0.2869   0.1477  -0.1843   0.1724  -0.1205   0.00    1.6
2020/06/29 08:13:21.500  -2191127.1174   5198847.0377   2965369.6368   2  22   0.1592   0.2757   0.1419  -0.1770   0.1656  -0.1158   0.50    1.6
2020/06/29 08:13:22.000  -2191127.1440   5198847.0547   2965369.6424   2  22   0.1534   0.2656   0.1367  -0.1706   0.1596  -0.1116   0.00    1.6
2020/06/29 08:13:22.500  -2191127.1711   5198847.0696   2965369.6530   2  22   0.1482   0.2566   0.1320  -0.1648   0.1542  -0.1078   0.50    1.7
2020/06/29 08:13:23.000  -2191127.1949   5198847.1032   2965369.6688   2  22   0.1435   0.2484   0.1279  -0.1595   0.1492  -0.1043   0.00    1.7
2020/06/29 08:13:23.500  -2191127.2048   5198847.1213   2965369.6795   2  22   0.1392   0.2410   0.1240  -0.1547   0.1448  -0.1012   0.50    1.8
2020/06/29 08:13:24.000  -2191127.2190   5198847.1443   2965369.6916   2  22   0.1353   0.2341   0.1205  -0.1503   0.1406  -0.0983   0.00    1.8
2020/06/29 08:13:24.500  -2191127.2288   5198847.1658   2965369.7019   2  22   0.1316   0.2279   0.1173  -0.1463   0.1369  -0.0957   0.50    1.8
2020/06/29 08:13:25.000  -2191127.2455   5198847.1902   2965369.7088   2  22   0.1283   0.2220   0.1143  -0.1426   0.1334  -0.0933   0.00    1.8
2020/06/29 08:13:25.500  -2191127.2576   5198847.2151   2965369.7145   2  22   0.1252   0.2167   0.1115  -0.1391   0.1301  -0.0909   0.50    1.8
2020/06/29 08:13:26.000  -2191127.2766   5198847.2474   2965369.7214   2  22   0.1223   0.2116   0.1089  -0.1359   0.1271  -0.0888   0.00    1.8
2020/06/29 08:13:26.500  -2191127.2920   5198847.2695   2965369.7255   2  22   0.1196   0.2069   0.1065  -0.1328   0.1243  -0.0869   0.50    1.7
2020/06/29 08:13:27.000  -2191127.3040   5198847.2937   2965369.7336   2  22   0.1171   0.2025   0.1042  -0.1300   0.1216  -0.0850   0.00    1.8
2020/06/29 08:13:27.500  -2191127.3169   5198847.3133   2965369.7413   2  22   0.1147   0.1984   0.1021  -0.1273   0.1191  -0.0833   0.50    1.8
2020/06/29 08:13:28.000  -2191127.3242   5198847.3247   2965369.7507   2  22   0.1124   0.1945   0.1001  -0.1248   0.1168  -0.0816   0.00    1.8
2020/06/29 08:13:28.500  -2191127.3276   5198847.3305   2965369.7563   2  22   0.1103   0.1908   0.0982  -0.1224   0.1146  -0.0801   0.50    1.8
2020/06/29 08:13:29.000  -2191127.3358   5198847.3413   2965369.7687   2  22   0.1083   0.1873   0.0964  -0.1202   0.1124  -0.0786   0.00    1.9
2020/06/29 08:13:29.500  -2191127.3421   5198847.3484   2965369.7759   2  22   0.1064   0.1840   0.0947  -0.1181   0.1104  -0.0772   0.50    1.9
2020/06/29 08:13:30.000  -2191127.3536   5198847.3786   2965369.7889   2  22   0.1046   0.1808   0.0931  -0.1160   0.1085  -0.0759   0.00    1.9
2020/06/29 08:13:30.500  -2191127.3638   5198847.4056   2965369.7977   2  22   0.1029   0.1778   0.0916  -0.1141   0.1067  -0.0746   0.50    1.9
2020/06/29 08:13:31.000  -2191127.3791   5198847.4335   2965369.8092   2  22   0.1012   0.1750   0.0901  -0.1123   0.1050  -0.0734   0.00    1.9
2020/06/29 08:13:31.500  -2191127.3917   5198847.4616   2965369.8181   2  22   0.0997   0.1722   0.0887  -0.1105   0.1034  -0.0723   0.50    1.9
2020/06/29 08:13:32.000  -2191127.4125   5198847.5026   2965369.8321   2  22   0.0981   0.1696   0.0874  -0.1088   0.1018  -0.0712   0.00    1.9
2020/06/29 08:13:32.500  -2191127.4281   5198847.5366   2965369.8419   2  22   0.0967   0.1671   0.0861  -0.1072   0.1003  -0.0701   0.50    1.9
2020/06/29 08:13:33.000  -2191127.4434   5198847.5695   2965369.8536   2  22   0.0953   0.1647   0.0849  -0.1056   0.0988  -0.0691   0.00    1.9
2020/06/29 08:13:33.500  -2191127.4542   5198847.5916   2965369.8599   2  22   0.0940   0.1624   0.0837  -0.1042   0.0975  -0.0681   0.50    1.9
2020/06/29 08:13:34.000  -2191127.4652   5198847.6100   2965369.8654   2  22   0.0927   0.1602   0.0825  -0.1027   0.0961  -0.0672   0.00    1.9
2020/06/29 08:13:34.500  -2191127.4717   5198847.6207   2965369.8676   2  22   0.0915   0.1581   0.0815  -0.1013   0.0948  -0.0663   0.50    1.9
2020/06/29 08:13:35.000  -2191127.4795   5198847.6336   2965369.8686   2  22   0.0904   0.1560   0.0804  -0.1000   0.0936  -0.0654   0.00    1.9
2020/06/29 08:13:35.500  -2191127.4837   5198847.6447   2965369.8723   2  22   0.0892   0.1540   0.0794  -0.0987   0.0924  -0.0646   0.50    1.9
2020/06/29 08:13:36.000  -2191127.4916   5198847.6555   2965369.8785   2  22   0.0881   0.1521   0.0784  -0.0975   0.0912  -0.0638   0.00    1.9
2020/06/29 08:13:36.500  -2191127.5023   5198847.6741   2965369.8866   2  22   0.0870   0.1502   0.0774  -0.0963   0.0901  -0.0630   0.50    1.9
2020/06/29 08:13:37.000  -2191127.5102   5198847.6836   2965369.8907   2  22   0.0860   0.1484   0.0765  -0.0952   0.0890  -0.0622   0.00    1.9
2020/06/29 08:13:37.500  -2191127.5221   5198847.7021   2965369.8996   2  22   0.0850   0.1467   0.0756  -0.0940   0.0880  -0.0615   0.50    1.9
2020/06/29 08:13:38.000  -2191127.5293   5198847.7222   2965369.9075   2  22   0.0841   0.1450   0.0748  -0.0930   0.0870  -0.0608   0.00    1.9
2020/06/29 08:13:38.500  -2191127.5405   5198847.7436   2965369.9174   2  22   0.0831   0.1434   0.0739  -0.0919   0.0860  -0.0601   0.50    1.9
2020/06/29 08:13:39.000  -2191127.5457   5198847.7579   2965369.9250   2  22   0.0822   0.1419   0.0732  -0.0909   0.0850  -0.0595   0.00    1.9
2020/06/29 08:13:39.500  -2191127.5540   5198847.7787   2965369.9338   2  22   0.0814   0.1403   0.0724  -0.0899   0.0841  -0.0588   0.50    1.9
2020/06/29 08:13:40.000  -2191127.5641   5198847.8004   2965369.9425   2  22   0.0805   0.1388   0.0716  -0.0889   0.0832  -0.0581   0.00    1.9
2020/06/29 08:13:40.500  -2191127.5741   5198847.8128   2965369.9483   2  22   0.0797   0.1374   0.0709  -0.0880   0.0823  -0.0575   0.50    2.0
2020/06/29 08:13:41.000  -2191127.5839   5198847.8163   2965369.9545   2  22   0.0789   0.1360   0.0702  -0.0871   0.0815  -0.0570   0.00    2.0
2020/06/29 08:13:41.500  -2191127.5912   5198847.8193   2965369.9603   2  22   0.0781   0.1346   0.0695  -0.0862   0.0807  -0.0564   0.50    2.0
2020/06/29 08:13:42.000  -2191127.5997   5198847.8296   2965369.9662   2  22   0.0773   0.1333   0.0688  -0.0853   0.0798  -0.0558   0.00    2.0
2020/06/29 08:13:42.500  -2191127.6066   5198847.8340   2965369.9696   2  22   0.0766   0.1320   0.0681  -0.0845   0.0791  -0.0553   0.50    2.1
2020/06/29 08:13:43.000  -2191127.6065   5198847.8274   2965369.9693   2  22   0.0759   0.1307   0.0675  -0.0836   0.0783  -0.0547   0.00    2.1
2020/06/29 08:13:43.500  -2191127.6074   5198847.8229   2965369.9692   2  22   0.0752   0.1295   0.0669  -0.0829   0.0775  -0.0542   0.50    2.1
2020/06/29 08:13:44.000  -2191127.6074   5198847.8264   2965369.9734   2  22   0.0745   0.1283   0.0663  -0.0821   0.0768  -0.0537   0.00    2.1
2020/06/29 08:13:44.500  -2191127.6092   5198847.8252   2965369.9748   2  22   0.0738   0.1271   0.0656  -0.0813   0.0761  -0.0531   0.50    2.1
2020/06/29 08:13:45.000  -2191127.6111   5198847.8256   2965369.9723   2  22   0.0732   0.1260   0.0650  -0.0806   0.0754  -0.0527   0.00    2.1
2020/06/29 08:13:45.500  -2191127.6147   5198847.8229   2965369.9703   2  22   0.0725   0.1248   0.0645  -0.0798   0.0747  -0.0522   0.50    2.1
2020/06/29 08:13:46.000  -2191127.6167   5198847.8266   2965369.9742   2  22   0.0719   0.1237   0.0639  -0.0791   0.0741  -0.0517   0.00    2.1
2020/06/29 08:13:46.500  -2191127.6183   5198847.8261   2965369.9741   2  22   0.0713   0.1227   0.0634  -0.0784   0.0734  -0.0513   0.50    2.1
2020/06/29 08:13:47.000  -2191127.6203   5198847.8220   2965369.9708   2  22   0.0707   0.1216   0.0628  -0.0777   0.0728  -0.0508   0.00    2.1
2020/06/29 08:13:47.500  -2191127.6235   5198847.8230   2965369.9708   2  22   0.0701   0.1206   0.0623  -0.0771   0.0721  -0.0504   0.50    2.1
2020/06/29 08:13:48.000  -2191127.6274   5198847.8256   2965369.9733   2  22   0.0695   0.1196   0.0618  -0.0764   0.0716  -0.0500   0.00    2.1
2020/06/29 08:13:48.500  -2191127.6311   5198847.8256   2965369.9729   2  22   0.0690   0.1186   0.0613  -0.0758   0.0709  -0.0496   0.50    2.1
2020/06/29 08:13:49.000  -2191127.6335   5198847.8252   2965369.9747   2  22   0.0684   0.1177   0.0608  -0.0752   0.0704  -0.0492   0.00    2.1
2020/06/29 08:13:49.500  -2191127.6388   5198847.8276   2965369.9758   2  22   0.0679   0.1167   0.0604  -0.0746   0.0698  -0.0488   0.50    2.1
2020/06/29 08:13:50.000  -2191127.6435   5198847.8290   2965369.9777   2  22   0.0674   0.1158   0.0599  -0.0740   0.0692  -0.0483   0.00    2.1
2020/06/29 08:13:50.500  -2191127.6444   5198847.8265   2965369.9785   2  22   0.0669   0.1149   0.0594  -0.0733   0.0687  -0.0480   0.50    2.1
2020/06/29 08:13:51.000  -2191127.6472   5198847.8272   2965369.9830   2  22   0.0664   0.1140   0.0590  -0.0728   0.0681  -0.0476   0.00    2.2
2020/06/29 08:13:51.500  -2191127.6490   5198847.8238   2965369.9845   2  22   0.0659   0.1131   0.0585  -0.0722   0.0676  -0.0472   0.50    2.2
2020/06/29 08:13:52.000  -2191127.6481   5198847.8128   2965369.9820   2  22   0.0654   0.1123   0.0581  -0.0716   0.0671  -0.0469   0.00    2.2
2020/06/29 08:13:52.500  -2191127.6476   5198847.8096   2965369.9836   2  22   0.0649   0.1114   0.0576  -0.0711   0.0666  -0.0465   0.50    2.2
2020/06/29 08:13:53.000  -2191127.6448   5198847.8005   2965369.9814   2  22   0.0645   0.1106   0.0572  -0.0705   0.0661  -0.0462   0.00    2.2
2020/06/29 08:13:53.500  -2191127.6446   5198847.7960   2965369.9807   2  22   0.0640   0.1098   0.0568  -0.0700   0.0656  -0.0458   0.50    2.3
2020/06/29 08:13:54.000  -2191127.6408   5198847.7834   2965369.9775   2  22   0.0635   0.1090   0.0564  -0.0695   0.0651  -0.0455   0.00    2.3
2020/06/29 08:13:54.500  -2191127.6415   5198847.7818   2965369.9764   2  22   0.0631   0.1082   0.0560  -0.0690   0.0646  -0.0452   0.50    2.3
2020/06/29 08:13:55.000  -2191127.6397   5198847.7754   2965369.9720   2  22   0.0627   0.1074   0.0557  -0.0685   0.0641  -0.0448   0.00    2.3
2020/06/29 08:13:55.500  -2191127.6364   5198847.7661   2965369.9655   2  22   0.0622   0.1067   0.0553  -0.0680   0.0637  -0.0445   0.50    2.2
2020/06/29 08:13:56.000  -2191127.6345   5198847.7633   2965369.9622   2  22   0.0618   0.1059   0.0549  -0.0675   0.0632  -0.0442   0.00    2.2
2020/06/29 08:13:56.500  -2191127.6333   5198847.7546   2965369.9596   2  22   0.0614   0.1052   0.0545  -0.0670   0.0628  -0.0439   0.50    2.2
2020/06/29 08:13:57.000  -2191127.6331   5198847.7507   2965369.9577   2  22   0.0610   0.1045   0.0541  -0.0665   0.0623  -0.0436   0.00    2.2
2020/06/29 08:13:57.500  -2191127.6330   5198847.7400   2965369.9540   2  22   0.0606   0.1038   0.0538  -0.0661   0.0619  -0.0433   0.50    2.2
2020/06/29 08:13:58.000  -2191127.6366   5198847.7364   2965369.9542   2  21   0.0604   0.1032   0.0535  -0.0657   0.0616  -0.0431   0.00    2.2
2020/06/29 08:13:58.500  -2191127.6401   5198847.7320   2965369.9520   2  21   0.0600   0.1026   0.0532  -0.0653   0.0612  -0.0428   0.50    2.2
2020/06/29 08:13:59.000  -2191127.6412   5198847.7218   2965369.9500   2  22   0.0597   0.1019   0.0528  -0.0649   0.0608  -0.0426   0.00    2.3
2020/06/29 08:13:59.500  -2191127.6424   5198847.7132   2965369.9479   2  22   0.0592   0.1012   0.0525  -0.0645   0.0604  -0.0422   0.50    2.3
2020/06/29 08:14:00.000  -2191127.6455   5198847.7105   2965369.9490   2  22   0.0588   0.1005   0.0521  -0.0640   0.0600  -0.0419   0.00    2.3
2020/06/29 08:14:00.500  -2191127.6417   5198847.6973   2965369.9455   2  22   0.0584   0.0999   0.0518  -0.0636   0.0596  -0.0416   0.50    2.3
2020/06/29 08:14:01.000  -2191127.6447   5198847.6922   2965369.9482   2  22   0.0581   0.0992   0.0515  -0.0631   0.0592  -0.0414   0.00    2.4
2020/06/29 08:14:01.500  -2191127.6448   5198847.6850   2965369.9490   2  22   0.0577   0.0985   0.0512  -0.0627   0.0588  -0.0411   0.50    2.4
2020/06/29 08:14:02.000  -2191127.6441   5198847.6786   2965369.9475   2  22   0.0574   0.0979   0.0509  -0.0623   0.0584  -0.0408   0.00    2.4
2020/06/29 08:14:02.500  -2191127.6453   5198847.6750   2965369.9493   2  22   0.0571   0.0974   0.0506  -0.0619   0.0580  -0.0405   0.50    2.4
2020/06/29 08:14:03.000  -2191127.6427   5198847.6641   2965369.9465   2  22   0.0567   0.0967   0.0502  -0.0615   0.0577  -0.0403   0.00    2.4
2020/06/29 08:14:03.500  -2191127.6420   5198847.6575   2965369.9452   2  22   0.0563   0.0961   0.0499  -0.0611   0.0573  -0.0401   0.50    2.4
2020/06/29 08:14:04.000  -2191127.6412   5198847.6538   2965369.9447   2  22   0.0560   0.0955   0.0496  -0.0607   0.0569  -0.0398   0.00    2.5
2020/06/29 08:14:04.500  -2191127.6404   5198847.6479   2965369.9422   2  22   0.0557   0.0950   0.0494  -0.0603   0.0566  -0.0396   0.50    2.5
2020/06/29 08:14:05.000  -2191127.6398   5198847.6466   2965369.9401   2  22   0.0554   0.0944   0.0491  -0.0599   0.0562  -0.0393   0.00    2.5
2020/06/29 08:14:05.500  -2191127.6336   5198847.6358   2965369.9360   2  22   0.0550   0.0938   0.0488  -0.0596   0.0559  -0.0390   0.50    2.5
2020/06/29 08:14:06.000  -2191127.6271   5198847.6244   2965369.9324   2  22   0.0547   0.0933   0.0485  -0.0592   0.0555  -0.0388   0.00    2.5
2020/06/29 08:14:06.500  -2191127.6232   5198847.6213   2965369.9319   2  22   0.0545   0.0927   0.0482  -0.0588   0.0552  -0.0385   0.50    2.5
2020/06/29 08:14:07.000  -2191127.6179   5198847.6149   2965369.9303   2  22   0.0542   0.0922   0.0480  -0.0584   0.0549  -0.0383   0.00    2.5
2020/06/29 08:14:07.500  -2191127.6129   5198847.6056   2965369.9277   2  22   0.0539   0.0917   0.0477  -0.0581   0.0545  -0.0381   0.50    2.5
2020/06/29 08:14:08.000  -2191127.6084   5198847.5990   2965369.9222   2  22   0.0535   0.0911   0.0474  -0.0577   0.0542  -0.0379   0.00    2.4
2020/06/29 08:14:08.500  -2191127.6029   5198847.5890   2965369.9193   2  22   0.0532   0.0906   0.0471  -0.0574   0.0539  -0.0376   0.50    2.4
2020/06/29 08:14:09.000  -2191127.5945   5198847.5783   2965369.9148   2  22   0.0530   0.0901   0.0469  -0.0571   0.0536  -0.0374   0.00    2.4
2020/06/29 08:14:09.500  -2191127.5898   5198847.5738   2965369.9120   2  22   0.0527   0.0896   0.0466  -0.0567   0.0533  -0.0372   0.50    2.4
2020/06/29 08:14:10.000  -2191127.5826   5198847.5605   2965369.9072   2  22   0.0524   0.0890   0.0463  -0.0564   0.0529  -0.0370   0.00    2.4
2020/06/29 08:14:10.500  -2191127.5773   5198847.5528   2965369.9046   2  22   0.0521   0.0885   0.0461  -0.0561   0.0527  -0.0368   0.50    2.4
2020/06/29 08:14:11.000  -2191127.5693   5198847.5434   2965369.9013   2  22   0.0518   0.0880   0.0459  -0.0557   0.0524  -0.0366   0.00    2.4
2020/06/29 08:14:11.500  -2191127.5632   5198847.5334   2965369.8971   2  22   0.0516   0.0876   0.0456  -0.0554   0.0520  -0.0363   0.50    2.4
2020/06/29 08:14:12.000  -2191127.5549   5198847.5272   2965369.8944   2  22   0.0513   0.0871   0.0454  -0.0551   0.0518  -0.0361   0.00    2.4
2020/06/29 08:14:12.500  -2191127.5481   5198847.5188   2965369.8939   2  22   0.0510   0.0866   0.0451  -0.0548   0.0515  -0.0359   0.50    2.4
2020/06/29 08:14:13.000  -2191127.5414   5198847.5127   2965369.8897   2  22   0.0508   0.0861   0.0449  -0.0544   0.0511  -0.0357   0.00    2.4
2020/06/29 08:14:13.500  -2191127.5350   5198847.5042   2965369.8865   2  22   0.0505   0.0857   0.0447  -0.0541   0.0509  -0.0355   0.50    2.4
2020/06/29 08:14:14.000  -2191127.5303   5198847.4975   2965369.8845   2  22   0.0502   0.0852   0.0444  -0.0538   0.0506  -0.0353   0.00    2.4
2020/06/29 08:14:14.500  -2191127.5237   5198847.4868   2965369.8818   2  22   0.0500   0.0848   0.0443  -0.0535   0.0503  -0.0351   0.50    2.4
2020/06/29 08:14:15.000  -2191127.5154   5198847.4802   2965369.8780   2  22   0.0497   0.0843   0.0440  -0.0532   0.0500  -0.0349   0.00    2.4
2020/06/29 08:14:15.500  -2191127.5132   5198847.4759   2965369.8789   2  22   0.0494   0.0838   0.0437  -0.0530   0.0498  -0.0348   0.50    2.4
2020/06/29 08:14:16.000  -2191127.5086   5198847.4661   2965369.8757   2  22   0.0492   0.0834   0.0435  -0.0526   0.0495  -0.0345   0.00    2.4
2020/06/29 08:14:16.500  -2191127.5054   5198847.4615   2965369.8764   2  22   0.0490   0.0830   0.0434  -0.0524   0.0492  -0.0344   0.50    2.4
2020/06/29 08:14:17.000  -2191127.5014   5198847.4571   2965369.8735   2  22   0.0488   0.0825   0.0431  -0.0521   0.0490  -0.0341   0.00    2.4
2020/06/29 08:14:17.500  -2191127.4966   5198847.4504   2965369.8717   2  22   0.0485   0.0821   0.0429  -0.0517   0.0487  -0.0339   0.50    2.4
2020/06/29 08:14:18.000  -2191127.4926   5198847.4436   2965369.8711   2  22   0.0483   0.0817   0.0427  -0.0514   0.0484  -0.0338   0.00    2.4
2020/06/29 08:14:18.500  -2191127.4891   5198847.4409   2965369.8705   2  22   0.0480   0.0813   0.0425  -0.0512   0.0482  -0.0336   0.50    2.4
2020/06/29 08:14:19.000  -2191127.4849   5198847.4340   2965369.8702   2  22   0.0478   0.0808   0.0423  -0.0509   0.0479  -0.0335   0.00    2.4
2020/06/29 08:14:19.500  -2191127.4823   5198847.4311   2965369.8707   2  22   0.0476   0.0804   0.0421  -0.0506   0.0476  -0.0333   0.50    2.4
2020/06/29 08:14:20.000  -2191127.4797   5198847.4328   2965369.8736   2  22   0.0473   0.0800   0.0419  -0.0503   0.0474  -0.0331   0.00    2.4
2020/06/29 08:14:20.500  -2191127.4785   5198847.4331   2965369.8762   2  22   0.0471   0.0796   0.0416  -0.0501   0.0472  -0.0329   0.50    2.4
2020/06/29 08:14:21.000  -2191127.4747   5198847.4306   2965369.8757   2  22   0.0469   0.0793   0.0415  -0.0498   0.0469  -0.0328   0.00    2.4
2020/06/29 08:14:21.500  -2191127.4728   5198847.4278   2965369.8750   2  22   0.0467   0.0788   0.0413  -0.0496   0.0467  -0.0325   0.50    2.4
2020/06/29 08:14:22.000  -2191127.4696   5198847.4247   2965369.8753   2  22   0.0465   0.0785   0.0411  -0.0493   0.0464  -0.0324   0.00    2.4
2020/06/29 08:14:22.500  -2191127.4669   5198847.4251   2965369.8763   2  22   0.0463   0.0781   0.0409  -0.0490   0.0462  -0.0322   0.50    2.4
2020/06/29 08:14:23.000  -2191127.4640   5198847.4218   2965369.8749   2  22   0.0460   0.0777   0.0407  -0.0488   0.0459  -0.0320   0.00    2.4
2020/06/29 08:14:23.500  -2191127.4621   5198847.4195   2965369.8745   2  22   0.0458   0.0773   0.0405  -0.0486   0.0457  -0.0319   0.50    2.5
2020/06/29 08:14:24.000  -2191127.4596   5198847.4182   2965369.8768   2  22   0.0456   0.0769   0.0403  -0.0483   0.0455  -0.0317   0.00    2.5
2020/06/29 08:14:24.500  -2191127.4543   5198847.4097   2965369.8751   2  22   0.0454   0.0766   0.0401  -0.0480   0.0452  -0.0316   0.50    2.5
2020/06/29 08:14:25.000  -2191127.4503   5198847.4031   2965369.8740   2  22   0.0452   0.0762   0.0400  -0.0477   0.0450  -0.0314   0.00    2.5
2020/06/29 08:14:25.500  -2191127.4441   5198847.3984   2965369.8731   2  22   0.0450   0.0758   0.0398  -0.0475   0.0448  -0.0313   0.50    2.5
2020/06/29 08:14:26.000  -2191127.4390   5198847.3897   2965369.8703   2  22   0.0449   0.0754   0.0396  -0.0473   0.0446  -0.0310   0.00    2.5
2020/06/29 08:14:26.500  -2191127.4356   5198847.3860   2965369.8703   2  22   0.0446   0.0751   0.0394  -0.0470   0.0443  -0.0310   0.50    2.5
2020/06/29 08:14:27.000  -2191127.4314   5198847.3865   2965369.8735   2  22   0.0444   0.0747   0.0392  -0.0467   0.0441  -0.0308   0.00    2.5
2020/06/29 08:14:27.500  -2191127.4233   5198847.3770   2965369.8723   2  22   0.0442   0.0744   0.0390  -0.0465   0.0439  -0.0307   0.50    2.5
2020/06/29 08:14:28.000  -2191127.4186   5198847.3731   2965369.8723   2  22   0.0440   0.0740   0.0389  -0.0463   0.0437  -0.0305   0.00    2.5
2020/06/29 08:14:28.500  -2191127.4144   5198847.3727   2965369.8738   2  22   0.0438   0.0737   0.0388  -0.0461   0.0435  -0.0303   0.50    2.5
2020/06/29 08:14:29.000  -2191127.4119   5198847.3716   2965369.8765   2  22   0.0437   0.0733   0.0386  -0.0458   0.0433  -0.0302   0.00    2.5
2020/06/29 08:14:29.500  -2191127.4089   5198847.3709   2965369.8785   2  22   0.0435   0.0730   0.0383  -0.0457   0.0431  -0.0300   0.50    2.5
2020/06/29 08:14:30.000  -2191127.4029   5198847.3683   2965369.8782   2  22   0.0432   0.0727   0.0382  -0.0454   0.0428  -0.0298   0.00    2.5
2020/06/29 08:14:30.500  -2191127.3988   5198847.3681   2965369.8781   2  22   0.0431   0.0723   0.0381  -0.0451   0.0426  -0.0298   0.50    2.5
2020/06/29 08:14:31.000  -2191127.3970   5198847.3666   2965369.8789   2  22   0.0429   0.0720   0.0379  -0.0449   0.0424  -0.0297   0.00    2.5
2020/06/29 08:14:31.500  -2191127.3940   5198847.3642   2965369.8811   2  22   0.0427   0.0717   0.0377  -0.0447   0.0422  -0.0295   0.50    2.5
2020/06/29 08:14:32.000  -2191127.3913   5198847.3665   2965369.8832   2  22   0.0426   0.0713   0.0375  -0.0445   0.0420  -0.0292   0.00    2.5
2020/06/29 08:14:32.500  -2191127.3906   5198847.3692   2965369.8862   2  22   0.0424   0.0710   0.0374  -0.0443   0.0419  -0.0291   0.50    2.6
2020/06/29 08:14:33.000  -2191127.3889   5198847.3709   2965369.8876   2  22   0.0422   0.0707   0.0372  -0.0440   0.0416  -0.0290   0.00    2.6
2020/06/29 08:14:33.500  -2191127.3881   5198847.3776   2965369.8910   2  22   0.0420   0.0704   0.0370  -0.0438   0.0414  -0.0289   0.50    2.6
2020/06/29 08:14:34.000  -2191127.3844   5198847.3748   2965369.8917   2  22   0.0419   0.0700   0.0369  -0.0436   0.0412  -0.0287   0.00    2.6
2020/06/29 08:14:34.500  -2191127.3826   5198847.3763   2965369.8941   2  22   0.0417   0.0697   0.0367  -0.0434   0.0410  -0.0286   0.50    2.6
2020/06/29 08:14:35.000  -2191127.3848   5198847.3818   2965369.8994   2  22   0.0415   0.0694   0.0366  -0.0432   0.0409  -0.0284   0.00    2.6
2020/06/29 08:14:35.500  -2191127.3841   5198847.3827   2965369.9014   2  22   0.0413   0.0691   0.0364  -0.0430   0.0407  -0.0284   0.50    2.6
2020/06/29 08:14:36.000  -2191127.3793   5198847.3796   2965369.9035   2  22   0.0411   0.0688   0.0363  -0.0428   0.0405  -0.0282   0.00    2.7
2020/06/29 08:14:36.500  -2191127.3798   5198847.3816   2965369.9065   2  22   0.0410   0.0685   0.0361  -0.0425   0.0403  -0.0280   0.50    2.7
2020/06/29 08:14:37.000  -2191127.3783   5198847.3838   2965369.9086   2  22   0.0408   0.0682   0.0360  -0.0423   0.0401  -0.0279   0.00    2.7
2020/06/29 08:14:37.500  -2191127.3794   5198847.3873   2965369.9121   2  22   0.0406   0.0679   0.0358  -0.0421   0.0399  -0.0278   0.50    2.7
2020/06/29 08:14:38.000  -2191127.3756   5198847.3854   2965369.9140   2  22   0.0405   0.0676   0.0357  -0.0419   0.0397  -0.0277   0.00    2.7
2020/06/29 08:14:38.500  -2191127.3729   5198847.3843   2965369.9164   2  22   0.0403   0.0673   0.0355  -0.0418   0.0396  -0.0275   0.50    2.7
2020/06/29 08:14:39.000  -2191127.3703   5198847.3839   2965369.9153   2  22   0.0401   0.0670   0.0354  -0.0415   0.0393  -0.0274   0.00    2.7
2020/06/29 08:14:39.500  -2191127.3698   5198847.3838   2965369.9182   2  22   0.0400   0.0667   0.0353  -0.0413   0.0392  -0.0273   0.50    2.8
2020/06/29 08:14:40.000  -2191127.3704   5198847.3876   2965369.9221   2  22   0.0399   0.0664   0.0351  -0.0412   0.0390  -0.0271   0.00    2.8
2020/06/29 08:14:40.500  -2191127.3669   5198847.3845   2965369.9220   2  22   0.0397   0.0662   0.0350  -0.0409   0.0388  -0.0271   0.50    2.8
2020/06/29 08:14:41.000  -2191127.3646   5198847.3812   2965369.9247   2  22   0.0395   0.0658   0.0348  -0.0408   0.0387  -0.0269   0.00    2.8
2020/06/29 08:14:41.500  -2191127.3642   5198847.3858   2965369.9289   2  22   0.0394   0.0656   0.0347  -0.0406   0.0384  -0.0267   0.50    2.8
2020/06/29 08:14:42.000  -2191127.3609   5198847.3834   2965369.9295   2  22   0.0392   0.0653   0.0345  -0.0404   0.0383  -0.0267   0.00    2.8
2020/06/29 08:14:42.500  -2191127.3595   5198847.3852   2965369.9324   2  22   0.0391   0.0650   0.0344  -0.0402   0.0381  -0.0265   0.50    2.9
2020/06/29 08:14:43.000  -2191127.3562   5198847.3852   2965369.9331   2  22   0.0390   0.0648   0.0343  -0.0400   0.0379  -0.0263   0.00    2.9
2020/06/29 08:14:43.500  -2191127.3553   5198847.3871   2965369.9340   2  22   0.0388   0.0645   0.0341  -0.0398   0.0378  -0.0263   0.50    2.9
2020/06/29 08:14:44.000  -2191127.3545   5198847.3882   2965369.9377   2  22   0.0386   0.0642   0.0340  -0.0396   0.0376  -0.0262   0.00    2.9
2020/06/29 08:14:44.500  -2191127.3527   5198847.3885   2965369.9382   2  22   0.0385   0.0639   0.0339  -0.0395   0.0374  -0.0261   0.50    2.9
2020/06/29 08:14:45.000  -2191127.3517   5198847.3903   2965369.9422   2  22   0.0383   0.0637   0.0337  -0.0393   0.0373  -0.0260   0.00    2.9
2020/06/29 08:14:45.500  -2191127.3511   5198847.3886   2965369.9437   2  22   0.0381   0.0634   0.0336  -0.0391   0.0371  -0.0259   0.50    2.9
2020/06/29 08:14:46.000  -2191127.3505   5198847.3902   2965369.9458   2  22   0.0380   0.0631   0.0335  -0.0389   0.0370  -0.0258   0.00    2.9
2020/06/29 08:14:46.500  -2191127.3507   5198847.3915   2965369.9477   2  22   0.0379   0.0629   0.0334  -0.0388   0.0368  -0.0256   0.50    2.9
2020/06/29 08:14:47.000  -2191127.3509   5198847.3988   2965369.9503   2  22   0.0378   0.0626   0.0332  -0.0385   0.0366  -0.0255   0.00    3.0
2020/06/29 08:14:47.500  -2191127.3502   5198847.4000   2965369.9528   2  22   0.0376   0.0624   0.0331  -0.0384   0.0365  -0.0253   0.50    3.0
2020/06/29 08:14:48.000  -2191127.3494   5198847.4036   2965369.9558   2  22   0.0375   0.0621   0.0329  -0.0382   0.0363  -0.0253   0.00    3.0
2020/06/29 08:14:48.500  -2191127.3469   5198847.4054   2965369.9574   2  22   0.0373   0.0618   0.0328  -0.0380   0.0362  -0.0251   0.50    3.0
2020/06/29 08:14:49.000  -2191127.7261   5198847.7351   2965370.5660   1  22   0.0061   0.0102   0.0051  -0.0061   0.0058  -0.0041   0.00    3.0
2020/06/29 08:14:49.500  -2191127.7246   5198847.7322   2965370.5644   1  22   0.0058   0.0101   0.0055  -0.0064   0.0058  -0.0042   0.50    3.0
2020/06/29 08:14:50.000  -2191127.7280   5198847.7359   2965370.5684   1  22   0.0059   0.0100   0.0052  -0.0062   0.0059  -0.0045   0.00    3.0
2020/06/29 08:14:50.500  -2191127.7289   5198847.7377   2965370.5690   1  22   0.0060   0.0097   0.0049  -0.0067   0.0062  -0.0033   0.50    3.0
2020/06/29 08:14:51.000  -2191127.7281   5198847.7367   2965370.5683   1  22   0.0057   0.0100   0.0053  -0.0063   0.0057  -0.0045   0.00    3.1
2020/06/29 08:14:51.500  -2191127.7271   5198847.7347   2965370.5665   1  22   0.0058   0.0100   0.0052  -0.0062   0.0059  -0.0046   0.50    3.1
2020/06/29 08:14:52.000  -2191127.7267   5198847.7333   2965370.5645   1  22   0.0055   0.0097   0.0048  -0.0067   0.0059  -0.0041   0.00    3.1
2020/06/29 08:14:52.500  -2191127.7270   5198847.7328   2965370.5642   1  22   0.0057   0.0100   0.0052  -0.0064   0.0060  -0.0044   0.50    3.1
2020/06/29 08:14:53.000  -2191127.7268   5198847.7355   2965370.5648   1  22   0.0057   0.0100   0.0052  -0.0064   0.0059  -0.0041   0.00    3.1
2020/06/29 08:14:53.500  -2191127.7272   5198847.7325   2965370.5638   1  22   0.0058   0.0099   0.0053  -0.0065   0.0060  -0.0041   0.50    3.1
2020/06/29 08:14:54.000  -2191127.7254   5198847.7363   2965370.5653   1  22   0.0061   0.0102   0.0055  -0.0062   0.0056  -0.0046   0.00  622.5
2020/06/29 08:14:54.500  -2191127.7251   5198847.7340   2965370.5654   1  22   0.0053   0.0098   0.0052  -0.0068   0.0060  -0.0040   0.50  999.9
2020/06/29 08:14:55.000  -2191127.7279   5198847.7339   2965370.5659   1  22   0.0058   0.0100   0.0050  -0.0065   0.0058  -0.0039   0.00  999.9
2020/06/29 08:14:55.500  -2191127.7267   5198847.7363   2965370.5664   1  22   0.0058   0.0101   0.0056  -0.0064   0.0058  -0.0038   0.50  999.9
2020/06/29 08:14:56.000  -2191127.7265   5198847.7354   2965370.5657   1  22   0.0057   0.0100   0.0053  -0.0061   0.0058  -0.0045   0.00  999.9
2020/06/29 08:14:56.500  -2191127.7279   5198847.7386   2965370.5674   1  22   0.0057   0.0100   0.0053  -0.0065   0.0059  -0.0038   0.50  999.9
2020/06/29 08:14:57.000  -2191127.7258   5198847.7342   2965370.5654   1  22   0.0058   0.0100   0.0052  -0.0065   0.0057  -0.0038   0.00  999.9
2020/06/29 08:14:57.500  -2191127.7269   5198847.7360   2965370.5652   1  22   0.0060   0.0099   0.0052  -0.0065   0.0062  -0.0046   0.50  999.9
2020/06/29 08:14:58.000  -2191127.7259   5198847.7335   2965370.5664   1  22   0.0057   0.0100   0.0051  -0.0062   0.0058  -0.0045   0.00  999.9
2020/06/29 08:14:58.500  -2191127.7248   5198847.7327   2965370.5664   1  22   0.0060   0.0098   0.0050  -0.0066   0.0060  -0.0041   0.50  999.9
2020/06/29 08:14:59.000  -2191127.7278   5198847.7396   2965370.5688   1  22   0.0057   0.0098   0.0047  -0.0066   0.0061  -0.0041   0.00  999.9
2020/06/29 08:14:59.500  -2191127.7267   5198847.7388   2965370.5681   1  22   0.0055   0.0099   0.0049  -0.0064   0.0062  -0.0042   0.50  999.9
2020/06/29 08:15:00.000  -2191127.7270   5198847.7352   2965370.5648   1  22   0.0056   0.0099   0.0052  -0.0064   0.0060  -0.0038   0.00  999.9
2020/06/29 08:15:00.500  -2191127.7275   5198847.7364   2965370.5640   1  22   0.0058   0.0100   0.0056  -0.0065   0.0058  -0.0041   0.50  999.9
2020/06/29 08:15:01.000  -2191127.7269   5198847.7357   2965370.5665   1  22   0.0056   0.0100   0.0051  -0.0064   0.0059  -0.0038   0.00  999.9
2020/06/29 08:15:01.500  -2191127.7274   5198847.7350   2965370.5646   1  22   0.0061   0.0100   0.0051  -0.0063   0.0060  -0.0043   0.50  999.9
2020/06/29 08:15:02.000  -2191127.7257   5198847.7353   2965370.5656   1  22   0.0057   0.0097   0.0052  -0.0066   0.0061  -0.0037   0.00  999.9
2020/06/29 08:15:02.500  -2191127.7270   5198847.7352   2965370.5644   1  22   0.0058   0.0101   0.0052  -0.0064   0.0059  -0.0042   0.50  999.9
2020/06/29 08:15:03.000  -2191127.7265   5198847.7359   2965370.5666   1  22   0.0060   0.0099   0.0052  -0.0064   0.0061  -0.0041   0.00  999.9
2020/06/29 08:15:03.500  -2191127.7264   5198847.7364   2965370.5671   1  22   0.0056   0.0100   0.0050  -0.0065   0.0059  -0.0045   0.50  999.9
2020/06/29 08:15:04.000  -2191127.7259   5198847.7356   2965370.5674   1  22   0.0054   0.0098   0.0049  -0.0066   0.0061  -0.0044   0.00  999.9
2020/06/29 08:15:04.500  -2191127.7260   5198847.7354   2965370.5664   1  22   0.0057   0.0098   0.0052  -0.0069   0.0061  -0.0037   0.50  999.9
2020/06/29 08:15:05.000  -2191127.7257   5198847.7358   2965370.5649   1  22   0.0059   0.0099   0.0052  -0.0065   0.0060  -0.0035   0.00  999.9
2020/06/29 08:15:05.500  -2191127.7268   5198847.7359   2965370.5663   1  22   0.0055   0.0101   0.0054  -0.0063   0.0058  -0.0044   0.50  999.9
2020/06/29 08:15:06.000  -2191127.7267   5198847.7363   2965370.5662   1  22   0.0060   0.0099   0.0049  -0.0065   0.0058  -0.0038   0.00  999.9
2020/06/29 08:15:06.500  -2191127.7272   5198847.7371   2965370.5654   1  22   0.0058   0.0099   0.0051  -0.0066   0.0058  -0.0043   0.50  999.9
2020/06/29 08:15:07.000  -2191127.7273   5198847.7345   2965370.5662   1  22   0.0057   0.0100   0.0050  -0.0064   0.0059  -0.0037   0.00  999.9
2020/06/29 08:15:07.500  -2191127.7271   5198847.7356   2965370.5665   1  22   0.0058   0.0100   0.0052  -0.0062   0.0062  -0.0040   0.50  999.9
2020/06/29 08:15:08.000  -2191127.7262   5198847.7351   2965370.5672   1  22   0.0057   0.0097   0.0049  -0.0067   0.0061  -0.0040   0.00  999.9
2020/06/29 08:15:08.500  -2191127.7241   5198847.7318   2965370.5669   1  22   0.0059   0.0098   0.0050  -0.0065   0.0061  -0.0031   0.50  999.9
2020/06/29 08:15:09.000  -2191127.7260   5198847.7322   2965370.5648   1  22   0.0061   0.0102   0.0052  -0.0059   0.0057  -0.0043   0.00  999.9
2020/06/29 08:15:09.500  -2191127.7239   5198847.7340   2965370.5649   1  22   0.0052   0.0100   0.0049  -0.0065   0.0061  -0.0041   0.50  999.9
2020/06/29 08:15:10.000  -2191127.7241   5198847.7342   2965370.5656   1  22   0.0057   0.0099   0.0057  -0.0065   0.0059  -0.0044   0.00  999.9
2020/06/29 08:15:10.500  -2191127.7244   5198847.7333   2965370.5650   1  22   0.0057   0.0100   0.0050  -0.0065   0.0060  -0.0041   0.50  999.9
2020/06/29 08:15:11.000  -2191127.7257   5198847.7339   2965370.5647   1  22   0.0055   0.0098   0.0047  -0.0066   0.0060  -0.0040   0.00  999.9
2020/06/29 08:15:11.500  -2191127.7254   5198847.7319   2965370.5646   1  22   0.0059   0.0100   0.0052  -0.0063   0.0060  -0.0040   0.50  999.9
2020/06/29 08:15:12.000  -2191127.7259   5198847.7343   2965370.5659   1  22   0.0054   0.0097   0.0051  -0.0066   0.0062  -0.0041   0.00  999.9
2020/06/29 08:15:12.500  -2191127.7265   5198847.7350   2965370.5658   1  22   0.0059   0.0101   0.0051  -0.0063   0.0057  -0.0043   0.50  999.9
2020/06/29 08:15:13.000  -2191127.7248   5198847.7340   2965370.5652   1  22   0.0055   0.0099   0.0054  -0.0065   0.0057  -0.0046   0.00  999.9
2020/06/29 08:15:13.500  -2191127.7250   5198847.7340   2965370.5649   1  22   0.0060   0.0100   0.0054  -0.0064   0.0060  -0.0042   0.50  999.9
2020/06/29 08:15:14.000  -2191127.7257   5198847.7315   2965370.5637   1  22   0.0058   0.0099   0.0049  -0.0065   0.0060  -0.0039   0.00  999.9
2020/06/29 08:15:14.500  -2191127.7263   5198847.7353   2965370.5659   1  22   0.0059   0.0100   0.0056  -0.0064   0.0059  -0.0041   0.50  999.9
2020/06/29 08:15:15.000  -2191127.7263   5198847.7356   2965370.5667   1  22   0.0056   0.0100   0.0050  -0.0062   0.0059  -0.0043   0.00  999.9
2020/06/29 08:15:19.500  -2191127.7237   5198847.7301   2965370.5617   1  22   0.0058   0.0101   0.0051  -0.0062   0.0060  -0.0046   0.50  999.9
2020/06/29 08:15:20.000  -2191127.7223   5198847.7300   2965370.5614   1  22   0.0061   0.0100   0.0054  -0.0063   0.0058  -0.0040   0.00  999.9
2020/06/29 08:15:20.500  -2191127.7229   5198847.7325   2965370.5622   1  22   0.0056   0.0100   0.0051  -0.0064   0.0058  -0.0042   0.50  999.9
2020/06/29 08:15:21.000  -2191127.7237   5198847.7321   2965370.5624   1  22   0.0057   0.0097   0.0045  -0.0066   0.0062  -0.0040   0.00  999.9
2020/06/29 08:15:21.500  -2191127.7221   5198847.7288   2965370.5605   1  22   0.0062   0.0099   0.0050  -0.0064   0.0060  -0.0039   0.50  999.9
2020/06/29 08:15:22.000  -2191127.7245   5198847.7324   2965370.5639   1  22   0.0055   0.0100   0.0053  -0.0062   0.0058  -0.0045   0.00  999.9
2020/06/29 08:15:22.500  -2191127.7233   5198847.7320   2965370.5644   1  22   0.0060   0.0100   0.0051  -0.0064   0.0059  -0.0043   0.50  999.9
2020/06/29 08:15:23.000  -2191127.7242   5198847.7304   2965370.5623   1  22   0.0058   0.0099   0.0053  -0.0066   0.0057  -0.0041   0.00  999.9
2020/06/29 08:15:23.500  -2191127.7228   5198847.7294   2965370.5615   1  22   0.0058   0.0100   0.0051  -0.0063   0.0062  -0.0044   0.50  999.9
2020/06/29 08:15:24.000  -2191127.7242   5198847.7317   2965370.5633   1  21   0.0066   0.0106   0.0055  -0.0068   0.0063  -0.0051   0.00  999.9
2020/06/29 08:15:24.500  -2191127.7271   5198847.7352   2965370.5654   1  22   0.0066   0.0105   0.0057  -0.0071   0.0064  -0.0047   0.50  999.9
2020/06/29 08:15:25.000  -2191127.7251   5198847.7310   2965370.5633   1  22   0.0060   0.0101   0.0052  -0.0070   0.0061  -0.0045   0.00  999.9
2020/06/29 08:15:25.500  -2191127.7244   5198847.7309   2965370.5622   1  22   0.0059   0.0100   0.0053  -0.0068   0.0062  -0.0044   0.50  999.9
2020/06/29 08:15:26.000  -2191127.7239   5198847.7327   2965370.5647   1  22   0.0059   0.0101   0.0051  -0.0066   0.0059  -0.0046   0.00  999.9
2020/06/29 08:15:26.500  -2191127.7265   5198847.7327   2965370.5652   1  22   0.0061   0.0102   0.0052  -0.0064   0.0060  -0.0043   0.50  999.9
2020/06/29 08:15:27.000  -2191127.7234   5198847.7330   2965370.5641   1  21   0.0066   0.0104   0.0053  -0.0071   0.0063  -0.0048   0.00  999.9
2020/06/29 08:15:27.500  -2191127.7239   5198847.7321   2965370.5640   1  21   0.0063   0.0106   0.0057  -0.0071   0.0061  -0.0049   0.50  999.9
2020/06/29 08:15:28.000  -2191127.7269   5198847.7350   2965370.5658   1  22   0.0065   0.0106   0.0058  -0.0069   0.0063  -0.0048   0.00  999.9
2020/06/29 08:15:28.500  -2191127.7257   5198847.7330   2965370.5640   1  22   0.0060   0.0102   0.0053  -0.0068   0.0062  -0.0043   0.50  999.9
2020/06/29 08:15:29.000  -2191127.7239   5198847.7301   2965370.5632   1  22   0.0058   0.0100   0.0052  -0.0069   0.0061  -0.0041   0.00  999.9
2020/06/29 08:15:29.500  -2191127.7251   5198847.7325   2965370.5660   1  22   0.0061   0.0101   0.0052  -0.0065   0.0061  -0.0045   0.50  999.9
2020/06/29 08:15:30.000  -2191127.7252   5198847.7333   2965370.5659   1  22   0.0060   0.0097   0.0051  -0.0070   0.0063  -0.0036   0.00  999.9
2020/06/29 08:15:30.500  -2191127.7251   5198847.7332   2965370.5646   1  22   0.0061   0.0100   0.0054  -0.0066   0.0062  -0.0038   0.50  999.9
2020/06/29 08:15:39.500  -2191127.7245   5198847.7326   2965370.5632   1  23   0.0060   0.0100   0.0052  -0.0064   0.0060  -0.0043   0.50  999.9
2020/06/29 08:15:40.000  -2191127.7233   5198847.7318   2965370.5639   1  23   0.0055   0.0097   0.0051  -0.0061   0.0058  -0.0047   0.00  999.9
2020/06/29 08:15:40.500  -2191127.7230   5198847.7320   2965370.5647   1  23   0.0058   0.0098   0.0048  -0.0060   0.0054  -0.0044   0.50  999.9
2020/06/29 08:15:41.000  -2191127.7227   5198847.7325   2965370.5651   1  23   0.0056   0.0094   0.0051  -0.0061   0.0058  -0.0040   0.00  999.9
2020/06/29 08:15:41.500  -2191127.7237   5198847.7297   2965370.5643   1  23   0.0056   0.0098   0.0053  -0.0057   0.0056  -0.0042   0.50  999.9
2020/06/29 08:15:42.000  -2191127.7235   5198847.7315   2965370.5642   1  23   0.0057   0.0095   0.0053  -0.0059   0.0059  -0.0036   0.00  999.9
2020/06/29 08:15:42.500  -2191127.7221   5198847.7309   2965370.5634   1  23   0.0055   0.0094   0.0049  -0.0061   0.0058  -0.0038   0.50  999.9
2020/06/29 08:15:43.000  -2191127.7229   5198847.7293   2965370.5626   1  23   0.0052   0.0094   0.0050  -0.0062   0.0057  -0.0034   0.00  999.9
2020/06/29 08:15:43.500  -2191127.7236   5198847.7312   2965370.5637   1  23   0.0057   0.0096   0.0050  -0.0057   0.0057  -0.0037   0.50  999.9
2020/06/29 08:15:44.000  -2191127.7240   5198847.7334   2965370.5652   1  23   0.0056   0.0093   0.0050  -0.0062   0.0055  -0.0037   0.00  999.9
2020/06/29 08:15:44.500  -2191127.7240   5198847.7312   2965370.5637   1  23   0.0057   0.0093   0.0050  -0.0057   0.0058  -0.0039   0.50  999.9
2020/06/29 08:15:45.000  -2191127.7251   5198847.7352   2965370.5667   1  23   0.0054   0.0093   0.0052  -0.0060   0.0057  -0.0038   0.00  999.9
2020/06/29 08:15:45.500  -2191127.7259   5198847.7340   2965370.5647   1  23   0.0054   0.0095   0.0053  -0.0059   0.0056  -0.0037   0.50  999.9
2020/06/29 08:15:46.000  -2191127.7251   5198847.7323   2965370.5654   1  23   0.0056   0.0094   0.0049  -0.0056   0.0059  -0.0037   0.00  999.9
2020/06/29 08:15:46.500  -2191127.7231   5198847.7324   2965370.5652   1  23   0.0056   0.0097   0.0052  -0.0056   0.0054  -0.0043   0.50  999.9
2020/06/29 08:15:47.000  -2191127.7239   5198847.7285   2965370.5634   1  23   0.0057   0.0093   0.0046  -0.0059   0.0055  -0.0038   0.00  999.9
2020/06/29 08:15:47.500  -2191127.7261   5198847.7332   2965370.5655   1  23   0.0054   0.0095   0.0050  -0.0057   0.0055  -0.0036   0.50  999.9
2020/06/29 08:15:48.000  -2191127.7256   5198847.7333   2965370.5647   1  23   0.0054   0.0094   0.0049  -0.0059   0.0055  -0.0040   0.00  999.9
2020/06/29 08:15:48.500  -2191127.7249   5198847.7327   2965370.5647   1  23   0.0053   0.0094   0.0052  -0.0060   0.0057  -0.0043   0.50  999.9
2020/06/29 08:15:49.000  -2191127.7259   5198847.7351   2965370.5646   1  23   0.0054   0.0090   0.0048  -0.0061   0.0059  -0.0030   0.00  999.9
2020/06/29 08:15:49.500  -2191127.7258   5198847.7352   2965370.5643   1  23   0.0054   0.0094   0.0053  -0.0060   0.0056  -0.0037   0.50  999.9
2020/06/29 08:15:50.000  -2191127.7234   5198847.7314   2965370.5638   1  23   0.0055   0.0092   0.0049  -0.0061   0.0056  -0.0039   0.00  999.9
2020/06/29 08:15:50.500  -2191127.7254   5198847.7338   2965370.5654   1  23   0.0053   0.0093   0.0048  -0.0058   0.0058  -0.0040   0.50  999.9
2020/06/29 08:15:51.000  -2191127.7256   5198847.7327   2965370.5643   1  23   0.0055   0.0093   0.0051  -0.0058   0.0055  -0.0039   0.00  999.9
2020/06/29 08:15:51.500  -2191127.7267   5198847.7334   2965370.5654   1  23   0.0053   0.0093   0.0047  -0.0059   0.0058  -0.0039   0.50  999.9
2020/06/29 08:15:52.000  -2191127.7249   5198847.7320   2965370.5644   1  23   0.0056   0.0093   0.0049  -0.0058   0.0056  -0.0038   0.00  999.9
2020/06/29 08:15:52.500  -2191127.7240   5198847.7296   2965370.5635   1  23   0.0053   0.0095   0.0051  -0.0057   0.0055  -0.0040   0.50  999.9
2020/06/29 08:15:53.000  -2191127.7226   5198847.7291   2965370.5640   1  23   0.0055   0.0093   0.0054  -0.0058   0.0056  -0.0035   0.00  999.9
2020/06/29 08:15:53.500  -2191127.7227   5198847.7291   2965370.5637   1  23   0.0056   0.0093   0.0056  -0.0057   0.0058  -0.0038   0.50  999.9
2020/06/29 08:15:54.000  -2191127.7244   5198847.7327   2965370.5648   1  23   0.0055   0.0092   0.0051  -0.0059   0.0055  -0.0042   0.00  999.9
2020/06/29 08:15:54.500  -2191127.7236   5198847.7279   2965370.5628   1  23   0.0053   0.0094   0.0046  -0.0059   0.0056  -0.0040   0.50  999.9
2020/06/29 08:15:55.000  -2191127.7240   5198847.7305   2965370.5626   1  23   0.0057   0.0093   0.0046  -0.0058   0.0056  -0.0033   0.00  999.9
2020/06/29 08:15:55.500  -2191127.7230   5198847.7268   2965370.5626   1  23   0.0056   0.0093   0.0050  -0.0059   0.0057  -0.0038   0.50  999.9
2020/06/29 08:15:56.000  -2191127.7239   5198847.7305   2965370.5624   1  23   0.0058   0.0092   0.0048  -0.0058   0.0057  -0.0038   0.00  999.9
2020/06/29 08:15:56.500  -2191127.7225   5198847.7294   2965370.5623   1  23   0.0054   0.0094   0.0049  -0.0058   0.0056  -0.0045   0.50  999.9
2020/06/29 08:15:57.000  -2191127.7228   5198847.7284   2965370.5620   1  23   0.0055   0.0092   0.0050  -0.0060   0.0058  -0.0041   0.00  999.9
2020/06/29 08:15:57.500  -2191127.7234   5198847.7303   2965370.5633   1  23   0.0055   0.0092   0.0051  -0.0059   0.0058  -0.0042   0.50  999.9
2020/06/29 08:15:58.000  -2191127.7231   5198847.7299   2965370.5619   1  23   0.0050   0.0094   0.0045  -0.0059   0.0055  -0.0041   0.00  999.9
2020/06/29 08:15:58.500  -2191127.7233   5198847.7299   2965370.5622   1  23   0.0051   0.0093   0.0050  -0.0058   0.0056  -0.0039   0.50  999.9
2020/06/29 08:15:59.000  -2191127.7231   5198847.7298   2965370.5622   1  23   0.0050   0.0093   0.0050  -0.0058   0.0056  -0.0040   0.00  999.9
2020/06/29 08:15:59.500  -2191127.7211   5198847.7277   2965370.5621   1  23   0.0054   0.0093   0.0053  -0.0058   0.0056  -0.0036   0.50  999.9
2020/06/29 08:16:00.000  -2191127.7251   5198847.7330   2965370.5650   1  23   0.0052   0.0093   0.0051  -0.0059   0.0057  -0.0035   0.00  999.9
2020/06/29 08:16:00.500  -2191127.7252   5198847.7313   2965370.5635   1  23   0.0051   0.0094   0.0052  -0.0058   0.0055  -0.0041   0.50  999.9
2020/06/29 08:16:01.000  -2191127.7224   5198847.7298   2965370.5633   1  23   0.0052   0.0092   0.0050  -0.0059   0.0056  -0.0041   0.00  999.9
2020/06/29 08:16:01.500  -2191127.7213   5198847.7304   2965370.5628   1  23   0.0056   0.0094   0.0048  -0.0057   0.0056  -0.0041   0.50  999.9
2020/06/29 08:16:02.000  -2191127.7212   5198847.7279   2965370.5624   1  23   0.0051   0.0092   0.0052  -0.0058   0.0056  -0.0035   0.00  999.9
2020/06/29 08:16:02.500  -2191127.7219   5198847.7280   2965370.5615   1  23   0.0055   0.0093   0.0053  -0.0058   0.0055  -0.0042   0.50  999.9
2020/06/29 08:16:03.000  -2191127.7246   5198847.7312   2965370.5638   1  23   0.0052   0.0092   0.0050  -0.0061   0.0057  -0.0035   0.00  999.9
2020/06/29 08:16:03.500  -2191127.7248   5198847.7321   2965370.5641   1  23   0.0055   0.0094   0.0049  -0.0059   0.0056  -0.0037   0.50  999.9
2020/06/29 08:16:04.000  -2191127.7241   5198847.7337   2965370.5655   1  23   0.0053   0.0092   0.0051  -0.0058   0.0058  -0.0045   0.00  999.9
2020/06/29 08:16:04.500  -2191127.7254   5198847.7362   2965370.5665   1  23   0.0052   0.0092   0.0049  -0.0061   0.0057  -0.0033   0.50  999.9
2020/06/29 08:16:05.000  -2191127.7223   5198847.7276   2965370.5625   1  23   0.0052   0.0094   0.0047  -0.0057   0.0056  -0.0035   0.00  999.9
2020/06/29 08:16:05.500  -2191127.7235   5198847.7294   2965370.5630   1  23   0.0053   0.0094   0.0051  -0.0058   0.0055  -0.0041   0.50  999.9
2020/06/29 08:16:06.000  -2191127.7227   5198847.7300   2965370.5636   1  23   0.0051   0.0091   0.0049  -0.0058   0.0058  -0.0038   0.00  999.9
2020/06/29 08:16:06.500  -2191127.7221   5198847.7282   2965370.5633   1  23   0.0052   0.0093   0.0049  -0.0059   0.0057  -0.0039   0.50  999.9
2020/06/29 08:16:07.000  -2191127.7223   5198847.7291   2965370.5625   1  23   0.0053   0.0094   0.0049  -0.0057   0.0056  -0.0041   0.00  999.9
2020/06/29 08:16:07.500  -2191127.7234   5198847.7287   2965370.5637   1  23   0.0058   0.0095   0.0044  -0.0055   0.0055  -0.0036   0.50  999.9
2020/06/29 08:16:08.000  -2191127.7245   5198847.7316   2965370.5638   1  23   0.0057   0.0093   0.0050  -0.0057   0.0059  -0.0030   0.00  999.9
2020/06/29 08:16:08.500  -2191127.7256   5198847.7303   2965370.5655   1  23   0.0053   0.0093   0.0052  -0.0057   0.0057  -0.0041   0.50  999.9
2020/06/29 08:16:09.000  -2191127.7222   5198847.7304   2965370.5624   1  23   0.0057   0.0095   0.0050  -0.0054   0.0056  -0.0043   0.00  999.9
2020/06/29 08:16:09.500  -2191127.7241   5198847.7298   2965370.5640   1  23   0.0057   0.0092   0.0053  -0.0058   0.0057  -0.0038   0.50  999.9
2020/06/29 08:16:10.000  -2191127.7214   5198847.7293   2965370.5619   1  23   0.0050   0.0093   0.0051  -0.0056   0.0056  -0.0044   0.00  999.9
2020/06/29 08:16:10.500  -2191127.7230   5198847.7306   2965370.5622   1  23   0.0054   0.0093   0.0051  -0.0059   0.0056  -0.0038   0.50  999.9
2020/06/29 08:16:11.000  -2191127.7229   5198847.7306   2965370.5632   1  23   0.0054   0.0092   0.0049  -0.0059   0.0058  -0.0037   0.00  999.9
2020/06/29 08:16:11.500  -2191127.7218   5198847.7269   2965370.5612   1  23   0.0056   0.0093   0.0053  -0.0058   0.0056  -0.0040   0.50  999.9
2020/06/29 08:16:12.000  -2191127.7216   5198847.7292   2965370.5615   1  23   0.0055   0.0093   0.0052  -0.0056   0.0056  -0.0035   0.00  999.9
2020/06/29 08:16:12.500  -2191127.7226   5198847.7308   2965370.5626   1  23   0.0053   0.0092   0.0048  -0.0058   0.0057  -0.0037   0.50  999.9
2020/06/29 08:16:13.000  -2191127.7218   5198847.7276   2965370.5621   1  23   0.0055   0.0093   0.0051  -0.0059   0.0056  -0.0034   0.00  999.9
2020/06/29 08:16:13.500  -2191127.7230   5198847.7304   2965370.5627   1  23   0.0051   0.0094   0.0047  -0.0058   0.0053  -0.0042   0.50  999.9
2020/06/29 08:16:14.000  -2191127.7219   5198847.7286   2965370.5637   1  23   0.0054   0.0092   0.0050  -0.0059   0.0056  -0.0039   0.00  999.9
2020/06/29 08:16:14.500  -2191127.7236   5198847.7302   2965370.5631   1  23   0.0053   0.0093   0.0052  -0.0058   0.0058  -0.0041   0.50  999.9
2020/06/29 08:16:15.000  -2191127.7255   5198847.7316   2965370.5642   1  23   0.0052   0.0092   0.0054  -0.0061   0.0055  -0.0040   0.00  999.9
2020/06/29 08:16:15.500  -2191127.7245   5198847.7324   2965370.5639   1  23   0.0058   0.0096   0.0052  -0.0056   0.0051  -0.0038   0.50  999.9
2020/06/29 08:16:16.000  -2191127.7217   5198847.7311   2965370.5623   1  23   0.0058   0.0093   0.0052  -0.0056   0.0055  -0.0040   0.00  999.9
2020/06/29 08:16:16.500  -2191127.7239   5198847.7320   2965370.5639   1  23   0.0056   0.0093   0.0055  -0.0056   0.0057  -0.0038   0.50  999.9
2020/06/29 08:16:17.000  -2191127.7221   5198847.7285   2965370.5621   1  23   0.0054   0.0092   0.0053  -0.0058   0.0058  -0.0040   0.00  999.9
2020/06/29 08:16:17.500  -2191127.7221   5198847.7275   2965370.5616   1  23   0.0052   0.0092   0.0049  -0.0058   0.0057  -0.0037   0.50  999.9
2020/06/29 08:16:18.000  -2191127.7232   5198847.7286   2965370.5621   1  23   0.0052   0.0093   0.0049  -0.0058   0.0055  -0.0040   0.00  999.9
2020/06/29 08:16:18.500  -2191127.7225   5198847.7293   2965370.5625   1  23   0.0053   0.0092   0.0051  -0.0058   0.0057  -0.0038   0.50  999.9
2020/06/29 08:16:19.000  -2191127.7233   5198847.7312   2965370.5649   1  23   0.0052   0.0093   0.0050  -0.0057   0.0056  -0.0040   0.00  999.9
2020/06/29 08:16:19.500  -2191127.7226   5198847.7313   2965370.5641   1  23   0.0055   0.0092   0.0050  -0.0059   0.0057  -0.0034   0.50  999.9
2020/06/29 08:16:20.000  -2191127.7220   5198847.7288   2965370.5619   1  23   0.0054   0.0093   0.0050  -0.0057   0.0057  -0.0036   0.00  999.9
2020/06/29 08:16:20.500  -2191127.7212   5198847.7300   2965370.5628   1  23   0.0055   0.0091   0.0048  -0.0061   0.0058  -0.0031   0.50  999.9
2020/06/29 08:16:21.000  -2191127.7240   5198847.7311   2965370.5641   1  23   0.0058   0.0092   0.0053  -0.0057   0.0056  -0.0039   0.00  999.9
2020/06/29 08:16:21.500  -2191127.7248   5198847.7312   2965370.5646   1  23   0.0057   0.0093   0.0051  -0.0057   0.0058  -0.0036   0.50  999.9
2020/06/29 08:16:22.000  -2191127.7221   5198847.7297   2965370.5620   1  23   0.0052   0.0090   0.0048  -0.0059   0.0057  -0.0038   0.00  999.9
2020/06/29 08:16:22.500  -2191127.7234   5198847.7298   2965370.5626   1  23   0.0054   0.0089   0.0051  -0.0061   0.0060  -0.0035   0.50  999.9
2020/06/29 08:16:23.000  -2191127.7222   5198847.7295   2965370.5626   1  23   0.0054   0.0093   0.0052  -0.0057   0.0056  -0.0038   0.00  999.9
2020/06/29 08:16:23.500  -2191127.7229   5198847.7302   2965370.5631   1  23   0.0052   0.0091   0.0047  -0.0060   0.0060  -0.0039   0.50  999.9
2020/06/29 08:16:24.000  -2191127.7232   5198847.7309   2965370.5617   1  23   0.0056   0.0092   0.0045  -0.0059   0.0057  -0.0036   0.00  999.9
2020/06/29 08:16:24.500  -2191127.7228   5198847.7302   2965370.5632   1  23   0.0053   0.0091   0.0048  -0.0059   0.0057  -0.0036   0.50  999.9
2020/06/29 08:16:25.000  -2191127.7250   5198847.7324   2965370.5646   1  23   0.0056   0.0093   0.0050  -0.0059   0.0055  -0.0039   0.00  999.9
2020/06/29 08:16:25.500  -2191127.7253   5198847.7338   2965370.5652   1  23   0.0051   0.0092   0.0050  -0.0061   0.0056  -0.0041   0.50  999.9
2020/06/29 08:16:26.000  -2191127.7237   5198847.7329   2965370.5639   1  23   0.0050   0.0095   0.0048  -0.0055   0.0054  -0.0045   0.00  999.9
2020/06/29 08:16:26.500  -2191127.7233   5198847.7294   2965370.5624   1  23   0.0055   0.0094   0.0051  -0.0058   0.0055  -0.0043   0.50  999.9
2020/06/29 08:16:27.000  -2191127.7233   5198847.7299   2965370.5624   1  23   0.0052   0.0091   0.0049  -0.0059   0.0054  -0.0046   0.00  999.9
2020/06/29 08:16:27.500  -2191127.7240   5198847.7313   2965370.5643   1  23   0.0053   0.0091   0.0047  -0.0061   0.0057  -0.0040   0.50  999.9
2020/06/29 08:16:28.000  -2191127.7227   5198847.7275   2965370.5617   1  23   0.0050   0.0092   0.0049  -0.0058   0.0058  -0.0040   0.00  999.9
2020/06/29 08:16:28.500  -2191127.7228   5198847.7277   2965370.5616   1  23   0.0059   0.0094   0.0052  -0.0055   0.0056  -0.0037   0.50  999.9
2020/06/29 08:16:29.000  -2191127.7227   5198847.7301   2965370.5626   1  23   0.0055   0.0093   0.0049  -0.0056   0.0056  -0.0038   0.00  999.9
2020/06/29 08:16:29.500  -2191127.7223   5198847.7312   2965370.5636   1  23   0.0056   0.0094   0.0050  -0.0056   0.0057  -0.0039   0.50  999.9
2020/06/29 08:16:30.000  -2191127.7223   5198847.7287   2965370.5627   1  23   0.0051   0.0092   0.0047  -0.0059   0.0055  -0.0043   0.00  999.9
2020/06/29 08:16:30.500  -2191127.7212   5198847.7257   2965370.5614   1  23   0.0056   0.0093   0.0046  -0.0058   0.0054  -0.0033   0.50  999.9
2020/06/29 08:16:31.000  -2191127.7218   5198847.7278   2965370.5615   1  23   0.0059   0.0097   0.0053  -0.0060   0.0060  -0.0045   0.00  999.9
2020/06/29 08:16:31.500  -2191127.7225   5198847.7290   2965370.5626   1  23   0.0057   0.0094   0.0049  -0.0061   0.0060  -0.0035   0.50  999.9
2020/06/29 08:16:32.000  -2191127.7245   5198847.7312   2965370.5635   1  23   0.0054   0.0092   0.0048  -0.0061   0.0060  -0.0042   0.00  999.9
2020/06/29 08:16:32.500  -2191127.7242   5198847.7298   2965370.5631   1  23   0.0055   0.0094   0.0052  -0.0058   0.0057  -0.0042   0.50  999.9
2020/06/29 08:16:33.000  -2191127.7260   5198847.7316   2965370.5636   1  23   0.0052   0.0093   0.0047  -0.0059   0.0058  -0.0045   0.00  999.9
2020/06/29 08:16:33.500  -2191127.7246   5198847.7275   2965370.5622   1  23   0.0057   0.0091   0.0049  -0.0061   0.0060  -0.0035   0.50  999.9
2020/06/29 08:16:34.000  -2191127.7236   5198847.7295   2965370.5621   1  23   0.0050   0.0091   0.0052  -0.0063   0.0056  -0.0037   0.00  999.9
2020/06/29 08:16:34.500  -2191127.7240   5198847.7283   2965370.5619   1  23   0.0054   0.0095   0.0053  -0.0057   0.0055  -0.0039   0.50  999.9
2020/06/29 08:16:35.000  -2191127.7244   5198847.7319   2965370.5638   1  23   0.0048   0.0091   0.0046  -0.0061   0.0058  -0.0039   0.00  999.9
2020/06/29 08:16:35.500  -2191127.7227   5198847.7305   2965370.5630   1  23   0.0057   0.0093   0.0050  -0.0057   0.0057  -0.0042   0.50  999.9
2020/06/29 08:16:36.000  -2191127.7249   5198847.7336   2965370.5644   1  23   0.0054   0.0094   0.0052  -0.0056   0.0055  -0.0042   0.00  999.9
2020/06/29 08:16:36.500  -2191127.7232   5198847.7291   2965370.5649   1  23   0.0054   0.0092   0.0050  -0.0059   0.0057  -0.0036   0.50  999.9
2020/06/29 08:16:37.000  -2191127.7235   5198847.7290   2965370.5631   1  23   0.0052   0.0091   0.0051  -0.0059   0.0056  -0.0038   0.00  999.9
2020/06/29 08:16:37.500  -2191127.7237   5198847.7299   2965370.5632   1  23   0.0055   0.0090   0.0049  -0.0061   0.0058  -0.0036   0.50  999.9
2020/06/29 08:16:38.000  -2191127.7246   5198847.7317   2965370.5636   1  23   0.0056   0.0094   0.0046  -0.0056   0.0056  -0.0035   0.00  999.9
2020/06/29 08:16:38.500  -2191127.7248   5198847.7306   2965370.5649   1  23   0.0054   0.0092   0.0044  -0.0058   0.0058  -0.0041   0.50  999.9
2020/06/29 08:16:39.000  -2191127.7233   5198847.7298   2965370.5631   1  23   0.0050   0.0093   0.0047  -0.0057   0.0055  -0.0045   0.00  999.9
2020/06/29 08:16:39.500  -2191127.7242   5198847.7314   2965370.5629   1  23   0.0054   0.0093   0.0047  -0.0061   0.0054  -0.0037   0.50  999.9
2020/06/29 08:16:40.000  -2191127.7223   5198847.7279   2965370.5632   1  23   0.0050   0.0092   0.0049  -0.0059   0.0056  -0.0038   0.00  999.9
2020/06/29 08:16:40.500  -2191127.7226   5198847.7278   2965370.5632   1  23   0.0053   0.0094   0.0055  -0.0057   0.0054  -0.0041   0.50  999.9
2020/06/29 08:16:41.000  -2191127.7220   5198847.7298   2965370.5640   1  23   0.0052   0.0092   0.0050  -0.0059   0.0056  -0.0044   0.00  999.9
2020/06/29 08:16:41.500  -2191127.7239   5198847.7300   2965370.5636   1  23   0.0055   0.0093   0.0048  -0.0057   0.0054  -0.0042   0.50  999.9
2020/06/29 08:16:42.000  -2191127.7250   5198847.7289   2965370.5639   1  23   0.0054   0.0092   0.0049  -0.0058   0.0055  -0.0046   0.00  999.9
2020/06/29 08:16:42.500  -2191127.7270   5198847.7332   2965370.5667   1  23   0.0057   0.0093   0.0053  -0.0058   0.0056  -0.0034   0.50  999.9
2020/06/29 08:16:43.000  -2191127.7250   5198847.7298   2965370.5633   1  23   0.0056   0.0092   0.0050  -0.0059   0.0057  -0.0039   0.00  999.9
2020/06/29 08:16:43.500  -2191127.7244   5198847.7301   2965370.5640   1  23   0.0053   0.0093   0.0048  -0.0058   0.0054  -0.0041   0.50  999.9
2020/06/29 08:16:44.000  -2191127.7239   5198847.7309   2965370.5634   1  23   0.0058   0.0094   0.0048  -0.0055   0.0055  -0.0037   0.00  999.9
2020/06/29 08:16:44.500  -2191127.7222   5198847.7293   2965370.5637   1  23   0.0056   0.0095   0.0053  -0.0055   0.0052  -0.0039   0.50  999.9
2020/06/29 08:16:45.000  -2191127.7225   5198847.7280   2965370.5635   1  23   0.0054   0.0093   0.0049  -0.0055   0.0055  -0.0041   0.00  999.9
2020/06/29 08:16:45.500  -2191127.7220   5198847.7271   2965370.5618   1  23   0.0055   0.0093   0.0050  -0.0058   0.0057  -0.0039   0.50  999.9
2020/06/29 08:16:46.000  -2191127.7235   5198847.7284   2965370.5622   1  23   0.0051   0.0091   0.0049  -0.0060   0.0055  -0.0035   0.00  999.9
2020/06/29 08:16:46.500  -2191127.7248   5198847.7301   2965370.5651   1  23   0.0052   0.0092   0.0051  -0.0058   0.0057  -0.0040   0.50  999.9
2020/06/29 08:16:47.000  -2191127.7247   5198847.7334   2965370.5646   1  23   0.0057   0.0094   0.0053  -0.0056   0.0053  -0.0037   0.00  999.9
2020/06/29 08:16:47.500  -2191127.7251   5198847.7326   2965370.5660   1  23   0.0054   0.0094   0.0045  -0.0060   0.0051  -0.0040   0.50  999.9
2020/06/29 08:16:48.000  -2191127.7215   5198847.7270   2965370.5614   1  23   0.0051   0.0092   0.0049  -0.0057   0.0057  -0.0042   0.00  999.9
2020/06/29 08:16:48.500  -2191127.7243   5198847.7282   2965370.5641   1  23   0.0053   0.0092   0.0048  -0.0059   0.0055  -0.0035   0.50  999.9
2020/06/29 08:16:49.000  -2191127.7214   5198847.7251   2965370.5605   1  23   0.0051   0.0091   0.0050  -0.0058   0.0057  -0.0040   0.00  999.9
2020/06/29 08:16:49.500  -2191127.7205   5198847.7258   2965370.5615   1  23   0.0050   0.0091   0.0049  -0.0060   0.0056  -0.0036   0.50  999.9
2020/06/29 08:16:50.000  -2191127.7233   5198847.7293   2965370.5630   1  23   0.0051   0.0090   0.0047  -0.0060   0.0058  -0.0037   0.00  999.9
2020/06/29 08:16:50.500  -2191127.7227   5198847.7280   2965370.5630   1  23   0.0053   0.0092   0.0050  -0.0060   0.0054  -0.0037   0.50  999.9
