     3.02           OBSERVATION DATA    M: Mixed            RINEX VERSION / TYPE
RTKCONV 2.4.3 b33                       20200930 090105 UTC PGM / RUN BY / DATE 
log: C:\Users\204\Desktop\b.txt                             COMMENT             
format: u-blox                                              COMMENT             
                                                            MARKER NAME         
                                                            MARKER NUMBER       
                                                            MARKER TYPE         
                                                            OBSERVER / AGENCY   
                                                            REC # / TYPE / VERS 
                                                            ANT # / TYPE        
 -2191140.6783  5198848.5719  2965383.0452                  APPROX POSITION XYZ 
        0.0000        0.0000        0.0000                  ANTENNA: DELTA H/E/N
G    4 C1C L1C D1C S1C                                      SYS / # / OBS TYPES 
C    4 C1I L1I D1I S1I                                      SYS / # / OBS TYPES 
  2020     9    30     8    30    0.0000000     GPS         TIME OF FIRST OBS   
  2020     9    30     8    31   34.0000000     GPS         TIME OF LAST OBS    
G                                                           SYS / PHASE SHIFT   
C                                                           SYS / PHASE SHIFT   
  0                                                         GLONASS SLOT / FRQ #
 C1C    0.000 C1P    0.000 C2C    0.000 C2P    0.000        GLONASS COD/PHS/BIS 
                                                            END OF HEADER       
> 2020  9 30  8 30  0.0000000  0 28                     
G10  21724674.209    -4677480.549        2758.486          46.750  
G15  23524606.496     3234231.033       -2010.342          42.250  
G18  21599251.049     3346620.745       -2420.781          45.000  
G20  19896085.943    -2049689.549         877.646          43.500  
G23  20298961.039    -2363383.834        1147.314          46.500  
G24  21010117.738     2542727.090       -1977.090          47.250  
G25  23795977.624    -5493217.156        3449.854          38.500  
C 6  36719697.076      -17393.8632         40.645          46.000  
C11  25993845.200      -78020.2642       -320.762          38.500  
C13  36087850.239     1040530.5772       -796.035          45.500  
C16  36641081.349       -5911.4512         23.828          46.750  
C21  22670528.850    -2668294.2072       1575.088          49.500  
C19  26465304.852     2604051.4722      -1720.371          40.500  
C26  23787314.464    -5735294.0462       3405.410          44.250  
C 9  36664017.183     -139270.7842         79.707          43.000  
C22  23057953.506      546420.2102       -497.676          48.500  
C 4  38752475.418     -474978.2323        308.242          34.500  
C10  40559045.873    -1852274.0852       1420.801          36.000  
C 2  37077711.850     -524694.3292        313.672          41.500  
C 3  36360946.652     -479846.5012        287.568          43.500  
G32  23127238.741    -3472294.361        2040.449          44.750  
C 8  37455598.410     1781372.8112      -1224.463          41.500  
C 5  39042757.714     -520745.0222        311.104          36.500  
C12  25192799.027     2841532.7912      -1885.674          35.000  
C 1  37554501.340     -543702.8292        330.537          38.500  
C 7  39462461.765    -2726308.9682       1776.553          38.500  
G12  23144068.376    -4216197.634        2642.256          35.500  
G21  25210335.397    -3688363.773        2623.037          37.250  
> 2020  9 30  8 30  1.0000000  0 28                     
G10  21724149.097    -4680238.812        2758.223          47.000  
G15  23524989.197     3236241.476       -2010.420          42.250  
G18  21599711.734     3349041.876       -2421.221          45.000  
G20  19895919.014    -2050566.773         877.109          43.500  
G23  20298742.894    -2364530.770        1146.855          46.500  
G24  21010493.947     2544704.605       -1977.617          47.250  
G25  23795321.095    -5496666.969        3449.941          38.500  
C 6  36719688.647      -17434.4122         40.605          46.000  
C11  25993906.730      -77699.0562       -321.299          38.500  
C13  36088003.382     1041326.9072       -796.318          45.500  
C16  36641076.812       -5935.1962         23.809          46.750  
C21  22670226.124    -2669869.1282       1574.932          49.500  
C19  26465635.045     2605772.0572      -1720.596          40.500  
C26  23786660.761    -5738699.1882       3405.127          44.500  
C 9  36664001.809     -139350.3942         79.619          43.000  
C22  23058049.256      546918.1092       -497.930          48.500  
C 4  38752416.192     -475286.3782        308.076          34.500  
C10  40558773.038    -1853694.8722       1420.918          36.000  
C 2  37077651.612     -525007.9142        313.643          41.500  
C 3  36360891.475     -480133.9222        287.490          43.500  
G32  23126850.561    -3474334.590        2040.254          45.000  
C 8  37455833.813     1782597.4482      -1224.668          41.250  
C 5  39042698.017     -521056.0172        310.986          36.500  
C12  25193161.381     2843418.6362      -1885.811          35.250  
C 1  37554437.822     -544033.2732        330.449          38.250  
C 7  39462120.718    -2728085.4632       1776.455          38.250  
G12  23143565.688    -4218839.714        2642.119          35.500  
G21  25209836.321    -3690986.466        2622.607          37.500  
> 2020  9 30  8 30  2.0000000  0 28                     
G10  21723624.143    -4682996.900        2758.057          46.750  
G15  23525371.810     3238251.902       -2010.420          42.250  
G18  21600172.664     3351463.365       -2421.562          45.250  
G20  19895752.295    -2051443.525         876.631          43.500  
G23  20298524.801    -2365677.316        1146.465          46.500  
G24  21010870.331     2546682.586       -1978.115          47.250  
G25  23794664.705    -5500116.814        3449.863          38.500  
C 6  36719680.516      -17475.0382         40.674          46.000  
C11  25993968.556      -77377.4402       -321.748          38.750  
C13  36088156.263     1042123.4022       -796.543          45.500  
C16  36641071.211       -5958.9862         23.848          46.750  
C21  22669923.851    -2671443.9822       1574.854          49.500  
C19  26465965.430     2607492.7422      -1720.732          40.750  
C26  23786006.797    -5742104.1582       3404.912          44.500  
C 9  36663986.750     -139430.0132         79.629          42.750  
C22  23058144.918      547416.1962       -498.125          48.500  
C 4  38752356.914     -475594.5722        308.154          34.500  
C10  40558500.117    -1855115.7732       1420.938          35.750  
C 2  37077591.287     -525321.5042        313.604          41.500  
C 3  36360836.297     -480421.3592        287.490          43.500  
G32  23126462.468    -3476374.726        2040.137          45.000  
C 8  37456069.007     1783822.2212      -1224.775          41.250  
C 5  39042638.215     -521367.0502        311.084          36.250  
C12  25193523.491     2845304.5012      -1885.820          35.000  
C 1  37554374.268     -544363.7352        330.469          38.250  
C 7  39461779.462    -2729862.0282       1776.592          38.250  
G12  23143062.895    -4221481.487        2641.709          35.500  
G21  25209337.157    -3693608.823        2622.305          37.500  
> 2020  9 30  8 30  3.0000000  0 28                     
G10  21723099.327    -4685754.926        2757.891          46.500  
G15  23525754.372     3240262.201       -2010.371          42.250  
G18  21600633.472     3353885.103       -2421.924          45.250  
G20  19895585.436    -2052319.878         876.094          43.500  
G23  20298306.604    -2366823.577        1146.074          46.500  
G24  21011246.836     2548660.865       -1978.496          47.250  
G25  23794008.001    -5503566.809        3449.893          38.250  
C 6  36719673.099      -17515.8482         40.732          46.000  
C11  25994030.364      -77055.5502       -322.041          38.750  
C13  36088309.232     1042919.9112       -796.650          45.500  
C16  36641065.592       -5982.9562         23.887          46.750  
C21  22669621.282    -2673018.8472       1574.736          49.500  
C19  26466295.868     2609213.4432      -1720.859          40.750  
C26  23785353.007    -5745509.0462       3404.727          44.500  
C 9  36663971.114     -139509.7732         79.648          43.000  
C22  23058240.615      547914.3652       -498.330          48.500  
C 4  38752297.792     -475902.8892        308.242          34.250  
C10  40558227.196    -1856536.8862       1421.016          35.750  
C 2  37077531.119     -525635.1982        313.564          41.500  
C 3  36360780.945     -480708.9082        287.451          43.500  
G32  23126074.201    -3478414.880        2040.020          45.000  
C 8  37456304.079     1785046.9902      -1224.912          41.250  
C 5  39042578.483     -521678.1422        311.025          36.250  
C12  25193885.932     2847190.3552      -1885.928          35.000  
C 1  37554310.679     -544694.3162        330.439          38.250  
C 7  39461438.188    -2731638.7562       1776.621          38.250  
G12  23142560.364    -4224123.158        2641.572          35.750  
G21  25208837.994    -3696230.999        2622.031          37.250  
> 2020  9 30  8 30  4.0000000  0 28                     
G10  21722574.303    -4688512.793        2757.695          46.750  
G15  23526137.160     3242272.494       -2010.410          42.500  
G18  21601094.647     3356307.201       -2422.314          45.250  
G20  19895418.594    -2053195.765         875.586          43.500  
G23  20298088.511    -2367969.430        1145.596          46.500  
G24  21011623.430     2550639.579       -1978.965          47.250  
G25  23793351.419    -5507016.894        3450.020          38.250  
C 6  36719665.945      -17556.7192         40.762          46.000  
C11  25994092.260      -76733.2252       -322.627          39.000  
C13  36088462.305     1043716.5992       -796.865          45.750  
C16  36641060.898       -6006.9802         23.906          46.750  
C21  22669318.852    -2674593.6412       1574.668          49.500  
C19  26466626.357     2610934.2852      -1720.957          41.000  
C26  23784699.426    -5748913.7512       3404.531          44.500  
C 9  36663955.828     -139589.5692         79.688          43.000  
C22  23058336.312      548412.7332       -498.525          48.500  
C 4  38752238.409     -476211.2282        308.174          34.500  
C10  40557954.204    -1857958.1952       1421.270          35.500  
C 2  37077470.968     -525948.9212        313.594          41.750  
C 3  36360725.820     -480996.4842        287.461          43.500  
G32  23125686.020    -3480454.936        2039.932          45.250  
C 8  37456539.238     1786271.8722      -1225.010          41.250  
C 5  39042518.646     -521989.3132        311.113          36.500  
C12  25194248.390     2849076.2622      -1885.986          35.250  
C 1  37554247.091     -545024.9182        330.508          38.000  
C 7  39461096.931    -2733415.5352       1776.680          38.250  
G12  23142057.850    -4226764.584        2641.182          35.750  
G21  25208338.935    -3698852.859        2621.660          37.500  
> 2020  9 30  8 30  5.0000000  0 28                     
G10  21722049.662    -4691270.493        2757.686          46.750  
G15  23526520.017     3244282.757       -2010.244          42.500  
G18  21601555.838     3358729.626       -2422.510          45.250  
G20  19895251.944    -2054071.188         875.312          43.750  
G23  20297870.348    -2369114.935        1145.420          46.500  
G24  21012000.215     2552618.697       -1979.209          47.500  
G25  23792694.837    -5510467.014        3450.156          38.000  
C 6  36719657.778      -17597.6892         41.035          46.000  
C11  25994154.104      -76410.5502       -322.783          39.000  
C13  36088615.396     1044513.4142       -796.826          45.500  
C16  36641056.780       -6031.0792         24.102          46.750  
C21  22669016.440    -2676168.3612       1574.697          49.500  
C19  26466956.760     2612655.2072      -1720.967          41.000  
C26  23784045.846    -5752318.3032       3404.531          44.500  
C 9  36663940.437     -139669.3862         79.854          43.000  
C22  23058431.974      548911.2622       -498.564          48.500  
C 4  38752179.393     -476519.5762        308.457          34.250  
C10  40557681.091    -1859379.5512       1421.406          35.500  
C 2  37077410.572     -526262.6992        313.838          41.500  
C 3  36360670.555     -481284.1112        287.686          43.750  
G32  23125298.067    -3482494.928        2039.980          45.250  
C 8  37456774.258     1787496.8422      -1225.020          41.250  
C 5  39042458.844     -522300.4772        311.123          36.250  
C12  25194610.849     2850962.2182      -1886.025          35.500  
C 1  37554183.572     -545355.5652        330.645          38.250  
C 7  39460755.849    -2735192.4122       1776.865          38.250  
G12  23141555.318    -4229405.782        2641.104          35.750  
G21  25207840.120    -3701474.437        2621.484          37.250  
> 2020  9 30  8 30  6.0000000  0 28                     
G10  21721524.812    -4694028.004        2757.500          46.750  
G15  23526902.596     3246293.059       -2010.273          42.500  
G18  21602017.170     3361152.463       -2422.920          45.500  
G20  19895085.609    -2054946.068         874.775          43.500  
G23  20297652.465    -2370259.975        1144.961          46.500  
G24  21012376.895     2554598.313       -1979.688          47.500  
G25  23792038.395    -5513917.110        3450.068          38.000  
C 6  36719649.489      -17638.6682         41.035          46.000  
C11  25994216.244      -76087.4032       -323.203          38.750  
C13  36088768.417     1045310.4442       -797.021          45.500  
C16  36641052.661       -6055.1922         24.141          46.500  
C21  22668714.097    -2677742.9512       1574.600          49.500  
C19  26467287.302     2614376.3012      -1721.094          41.000  
C26  23783392.266    -5755722.6092       3404.277          44.750  
C 9  36663925.063     -139749.1882         79.834          43.000  
C22  23058527.810      549410.0292       -498.760          48.500  
C 4  38752120.167     -476827.9012        308.486          34.250  
C10  40557408.013    -1860801.0152       1421.494          35.250  
C 2  37077350.317     -526576.4152        313.799          41.500  
C 3  36360615.360     -481571.6552        287.568          43.500  
G32  23124910.027    -3484534.774        2039.834          45.250  
C 8  37457009.417     1788722.0202      -1225.137          41.250  
C 5  39042399.182     -522611.6112        311.191          36.250  
C12  25194973.115     2852848.3022      -1886.025          35.250  
C 1  37554120.158     -545686.1502        330.596          38.250  
C 7  39460414.506    -2736969.3082       1776.973          38.250  
G12  23141052.543    -4232046.704        2640.947          35.500  
G21  25207341.271    -3704095.689        2621.143          37.000  
> 2020  9 30  8 30  7.0000000  0 28                     
G10  21721000.432    -4696785.274        2757.227          46.750  
G15  23527285.122     3248303.386       -2010.283          42.500  
G18  21602478.205     3363575.697       -2423.330          45.250  
G20  19894919.186    -2055820.437         874.287          43.750  
G23  20297434.738    -2371404.596        1144.541          46.500  
G24  21012753.802     2556578.395       -1980.205          47.500  
G25  23791381.638    -5517367.248        3450.205          38.000  
C 6  36719641.444      -17679.6942         41.064          46.000  
C11  25994278.402      -75763.8222       -323.643          38.750  
C13  36088921.525     1046107.6962       -797.256          45.500  
C16  36641048.718       -6079.3182         24.150          46.750  
C21  22668411.563    -2679317.4312       1574.482          49.250  
C19  26467617.687     2616097.5542      -1721.201          41.000  
C26  23782738.354    -5759126.7012       3404.033          44.500  
C 9  36663910.161     -139828.9872         79.854          42.750  
C22  23058623.577      549909.0322       -499.053          48.500  
C 4  38752060.906     -477136.2002        308.271          34.500  
C10  40557134.725    -1862222.5522       1421.582          35.000  
C 2  37077289.939     -526890.1072        313.750          41.500  
C 3  36360560.217     -481859.2092        287.578          43.500  
G32  23124522.091    -3486574.482        2039.678          45.250  
C 8  37457244.733     1789947.3212      -1225.332          41.250  
C 5  39042339.275     -522922.7172        311.172          36.250  
C12  25195335.155     2854734.5032      -1886.162          35.000  
C 1  37554056.656     -546016.7332        330.586          38.250  
C 7  39460073.197    -2738746.2412       1776.982          38.250  
G12  23140549.819    -4234687.335        2640.615          35.750  
G21  25206842.334    -3706716.569        2620.781          37.250  
> 2020  9 30  8 30  8.0000000  0 28                     
G10  21720475.827    -4699542.458        2756.953          46.750  
G15  23527667.561     3250313.646       -2010.479          42.500  
G18  21602939.553     3365999.211       -2423.760          45.250  
G20  19894752.921    -2056694.391         873.682          43.750  
G23  20297216.838    -2372548.887        1143.994          46.250  
G24  21013130.814     2558558.819       -1980.703          47.500  
G25  23790725.039    -5520817.480        3450.039          38.000  
C 6  36719634.185      -17720.8472         41.045          46.000  
C11  25994340.594      -75439.8952       -324.160          38.750  
C13  36089074.773     1046905.0342       -797.549          45.500  
C16  36641044.407       -6103.5812         24.141          46.750  
C21  22668109.151    -2680891.8922       1574.277          49.250  
C19  26467948.403     2617818.8682      -1721.523          41.000  
C26  23782084.511    -5762530.6932       3403.779          44.500  
C 9  36663894.822     -139908.8922         79.766          43.000  
C22  23058719.553      550408.1452       -499.326          48.500  
C 4  38752001.819     -477444.5832        308.271          34.500  
C10  40556861.489    -1863644.2822       1421.641          35.000  
C 2  37077229.666     -527203.8902        313.633          41.500  
C 3  36360505.005     -482146.8572        287.500          43.500  
G32  23124133.789    -3488614.161        2039.492          45.250  
C 8  37457480.032     1791172.6732      -1225.547          41.250  
C 5  39042279.665     -523233.8772        311.016          36.250  
C12  25195697.456     2856620.6772      -1886.318          35.250  
C 1  37553993.207     -546347.3742        330.498          38.250  
C 7  39459731.993    -2740523.2782       1776.885          38.250  
G12  23140047.585    -4237327.761        2640.186          36.000  
G21  25206343.415    -3709337.260        2620.420          37.000  
> 2020  9 30  8 30  9.0000000  0 28                     
G10  21719951.064    -4702299.475        2757.012          46.750  
G15  23528050.070     3252323.859       -2010.195          42.250  
G18  21603400.518     3368423.087       -2423.936          45.250  
G20  19894586.812    -2057567.846         873.350          43.750  
G23  20296999.007    -2373692.792        1143.838          46.500  
G24  21013507.722     2560539.638       -1980.908          47.500  
G25  23790068.527    -5524267.772        3450.332          38.500  
C 6  36719626.612      -17762.0702         41.299          46.000  
C11  25994402.944      -75115.5972       -324.375          38.750  
C13  36089227.916     1047702.5072       -797.461          45.500  
C16  36641039.661       -6127.9012         24.355          46.750  
C21  22667806.564    -2682466.2732       1574.404          49.250  
C19  26468278.963     2619540.2862      -1721.406          41.000  
C26  23781430.599    -5765934.4972       3403.789          44.500  
C 9  36663879.658     -139988.7942         79.941          43.000  
C22  23058815.599      550907.4422       -499.297          48.500  
C 4  38751942.593     -477752.9942        308.496          34.500  
C10  40556588.324    -1865066.1292       1421.885          34.750  
C 2  37077169.428     -527517.6812        313.867          41.500  
C 3  36360449.583     -482434.5112        287.754          43.500  
G32  23123745.644    -3490653.764        2039.648          45.250  
C 8  37457715.488     1792398.1402      -1225.449          41.500  
C 5  39042219.793     -523545.1052        311.201          36.250  
C12  25196059.845     2858506.9442      -1886.318          34.750  
C 1  37553929.846     -546678.0762        330.742          38.250  
C 7  39459390.649    -2742300.4182       1777.227          38.500  
G12  23139545.140    -4239967.964        2640.117          35.750  
G21  25205844.653    -3711957.587        2620.303          37.000  
> 2020  9 30  8 30 10.0000000  0 28                     
G10  21719426.458    -4705056.384        2756.973          47.000  
G15  23528432.491     3254334.010       -2010.039          42.500  
G18  21603861.780     3370847.254       -2424.209          45.250  
G20  19894420.721    -2058440.883         872.979          43.750  
G23  20296781.542    -2374836.366        1143.545          46.500  
G24  21013884.699     2562520.845       -1981.240          47.500  
G25  23789412.224    -5527718.154        3450.449          38.750  
C 6  36719618.026      -17803.4262         41.426          46.000  
C11  25994465.171      -74790.9432       -324.629          38.750  
C13  36089380.902     1048500.0922       -797.529          45.500  
C16  36641034.094       -6152.3452         24.551          46.750  
C21  22667504.064    -2684040.6442       1574.434          49.250  
C19  26468609.644     2621261.7582      -1721.445          41.250  
C26  23780776.897    -5769338.1762       3403.711          44.500  
C 9  36663864.249     -140068.8272         80.098          43.000  
C22  23058911.366      551406.8772       -499.414          48.750  
C 4  38751883.367     -478061.4492        308.457          34.500  
C10  40556315.088    -1866488.1592       1422.148          34.750  
C 2  37077109.137     -527831.5472        313.926          41.500  
C 3  36360394.126     -482722.2262        287.783          43.500  
G32  23123357.463    -3492693.337        2039.658          45.000  
C 8  37457950.908     1793623.6512      -1225.449          41.250  
C 5  39042159.887     -523856.3742        311.338          36.250  
C12  25196421.954     2860393.2202      -1886.221          34.500  
C 1  37553866.222     -547008.8122        330.840          38.250  
C 7  39459049.462    -2744077.6592       1777.354          38.500  
G12  23139042.871    -4242607.973        2640.049          36.000  
G21  25205346.048    -3714577.724        2620.098          37.250  
> 2020  9 30  8 30 11.0000000  0 28                     
G10  21718901.695    -4707813.159        2756.699          47.000  
G15  23528815.105     3256344.117       -2010.146          42.250  
G18  21604323.077     3373271.731       -2424.648          45.250  
G20  19894254.734    -2059313.494         872.422          43.500  
G23  20296563.973    -2375979.601        1143.047          46.250  
G24  21014262.060     2564502.417       -1981.768          47.500  
G25  23788755.904    -5531168.636        3450.479          38.500  
C 6  36719609.476      -17844.9042         41.416          46.000  
C11  25994527.608      -74465.9132       -325.166          38.750  
C13  36089534.185     1049297.7922       -797.793          45.500  
C16  36641028.301       -6176.8922         24.521          46.750  
C21  22667201.914    -2685614.9732       1574.229          49.250  
C19  26468940.152     2622983.2982      -1721.631          41.250  
C26  23780123.351    -5772741.7402       3403.457          44.500  
C 9  36663848.823     -140148.9082         80.010          43.000  
C22  23059007.395      551906.4482       -499.688          48.750  
C 4  38751824.019     -478369.9762        308.252          34.250  
C10  40556041.765    -1867910.3612       1422.129          34.500  
C 2  37077049.109     -528145.4892        313.867          41.500  
C 3  36360339.018     -483010.0472        287.764          43.500  
G32  23122969.179    -3494732.845        2039.404          45.000  
C 8  37458186.329     1794849.2342      -1225.674          41.250  
C 5  39042100.451     -524167.7062        311.328          36.250  
C12  25196783.942     2862279.4992      -1886.387          34.000  
C 1  37553802.738     -547339.6302        330.732          38.250  
C 7  39458708.276    -2745855.0142       1777.334          38.250  
G12  23138540.479    -4245247.796        2639.707          36.000  
G21  25204847.443    -3717197.562        2619.668          37.500  
> 2020  9 30  8 30 12.0000000  0 27                     
G10  21718377.211    -4710569.875        2756.777          46.750  
G15  23529197.561     3258354.102       -2009.863          42.250  
G18  21604784.181     3375696.456       -2424.756          45.000  
G20  19894088.783    -2060185.720         872.178          43.500  
G23  20296346.543    -2377122.539        1142.891          46.250  
G24  21014639.089     2566484.313       -1981.963          47.500  
G25  23788099.567    -5534619.269        3450.752          38.750  
C 6  36719601.588      -17886.5682         41.758          46.000  
C11  25994590.115      -74140.5972       -325.361          38.750  
C13  36089687.397     1050095.5032       -797.666          45.500  
C16  36641023.607       -6201.6112         24.834          46.750  
C21  22666899.467    -2687189.3312       1574.414          49.250  
C19  26469270.781     2624704.8642      -1721.504          41.000  
C26  23779469.910    -5776145.2082       3403.496          44.500  
C 9  36663833.729     -140229.1462         80.352          43.000  
C22  23059103.197      552406.0992       -499.619          48.750  
C10  40555768.722    -1869332.7892       1422.549          34.250  
C 2  37076988.783     -528459.5342        314.131          41.750  
C 3  36360283.875     -483297.9412        287.988          43.750  
G32  23122581.086    -3496772.405        2039.629          45.000  
C 8  37458421.663     1796074.8542      -1225.576          41.250  
C 5  39042040.614     -524479.1802        311.533          36.500  
C12  25197145.720     2864165.7292      -1886.201          33.750  
C 1  37553739.342     -547670.5832        331.025          38.250  
C 7  39458367.037    -2747632.5402       1777.598          38.250  
G12  23138038.454    -4247887.466        2639.619          36.000  
G21  25204349.152    -3719817.246        2619.727          37.250  
> 2020  9 30  8 30 13.0000000  0 28                     
G10  21717852.762    -4713326.233        2756.270          46.750  
G15  23529579.686     3260364.244       -2010.107          42.000  
G18  21605245.478     3378121.723       -2425.400          45.000  
G20  19893922.866    -2061057.279         871.377          43.500  
G23  20296129.096    -2378264.908        1142.236          46.250  
G24  21015016.171     2568466.817       -1982.676          47.750  
G25  23787442.967    -5538069.738        3450.439          38.750  
C 6  36719594.277      -17928.0992         41.514          46.250  
C11  25994652.936      -73814.7022       -326.055          38.750  
C13  36089840.488     1050893.6062       -798.174          45.500  
C16  36641019.454       -6226.1972         24.590          46.750  
C21  22666597.229    -2688763.4132       1574.033          49.250  
C19  26469601.323     2626426.7172      -1721.943          41.250  
C26  23778816.260    -5779548.3252       3403.057          44.500  
C 9  36663818.180     -140309.2052         80.049          43.250  
C22  23059199.330      552906.1302       -500.117          48.750  
C 4  38751705.427     -478987.1843        308.467          34.250  
C10  40555495.382    -1870755.1542       1422.305          34.000  
C 2  37076928.371     -528773.4262        313.887          41.500  
C 3  36360228.803     -483585.6882        287.725          43.500  
G32  23122192.993    -3498811.655        2039.209          45.000  
C 8  37458656.962     1797300.7472      -1225.908          41.000  
C 5  39041980.708     -524790.4612        311.240          36.250  
C12  25197507.672     2866052.2372      -1886.543          33.500  
C 1  37553675.613     -548001.3452        330.801          38.250  
C 7  39458025.711    -2749409.9622       1777.471          38.500  
G12  23137536.463    -4250526.698        2639.209          36.250  
G21  25203850.774    -3722436.404        2619.043          37.250  
> 2020  9 30  8 30 14.0000000  0 28                     
G10  21717328.226    -4716082.542        2756.387          46.750  
G15  23529962.143     3262374.289       -2009.932          42.000  
G18  21605706.861     3380547.223       -2425.488          44.750  
G20  19893757.141    -2061928.475         871.211          43.750  
G23  20295911.631    -2379407.004        1142.129          46.250  
G24  21015393.444     2570449.629       -1982.812          47.500  
G25  23786786.350    -5541520.387        3450.771          38.500  
C 6  36719586.406      -17969.8302         41.885          46.250  
C11  25994715.582      -73488.5232       -326.201          38.750  
C13  36089993.928     1051691.7532       -798.057          45.500  
C16  36641015.231       -6250.9632         24.922          46.750  
C21  22666295.009    -2690337.5332       1574.209          49.250  
C19  26469932.196     2628148.5832      -1721.797          41.250  
C26  23778162.575    -5782951.3582       3403.096          44.500  
C 9  36663802.999     -140389.3982         80.312          43.250  
C22  23059295.341      553406.2282       -500.020          48.750  
C 4  38751646.184     -479295.8092        308.672          34.250  
C10  40555222.129    -1872177.7542       1422.773          33.750  
C 2  37076868.185     -529087.4232        314.121          41.500  
C 3  36360173.433     -483873.5632        287.969          43.500  
G32  23121804.900    -3500850.927        2039.365          45.000  
C 8  37458892.278     1798526.6492      -1225.811          41.000  
C 5  39041920.819     -525101.8742        311.582          36.250  
C12  25197869.555     2867938.7052      -1886.387          33.250  
C 1  37553612.164     -548332.2422        331.016          38.250  
C 7  39457684.332    -2751187.5542       1777.754          38.750  
G12  23137034.089    -4253165.802        2639.141          36.000  
G21  25203352.273    -3725055.368        2619.023          37.250  
> 2020  9 30  8 30 15.0000000  0 28                     
G10  21716803.690    -4718838.761        2756.289          46.750  
G15  23530344.774     3264384.206       -2009.775          42.250  
G18  21606168.559     3382972.997       -2425.771          45.000  
G20  19893591.452    -2062799.264         870.732          43.750  
G23  20295694.376    -2380548.781        1141.777          46.250  
G24  21015771.050     2572432.796       -1983.184          47.500  
G25  23786129.524    -5544971.173        3450.908          38.500  
C 6  36719577.891      -18011.7222         42.051          46.000  
C11  25994778.211      -73162.0112       -326.494          38.750  
C13  36090147.211     1052489.9542       -798.115          45.500  
C16  36641010.920       -6275.8782         25.049          46.500  
C21  22665992.701    -2691911.6522       1574.209          49.250  
C19  26470263.140     2629870.4732      -1721.758          41.250  
C26  23777508.960    -5786354.3062       3403.037          44.500  
C 9  36663787.398     -140469.7202         80.410          43.250  
C22  23059391.631      553906.4422       -500.176          48.750  
C 4  38751586.836     -479604.5662        308.887          34.250  
C10  40554948.806    -1873600.5412       1422.871          34.000  
C 2  37076807.859     -529401.5372        314.229          41.500  
C 3  36360118.378     -484161.5402        288.076          43.500  
G32  23121416.650    -3502890.211        2039.355          45.250  
C 8  37459127.699     1799752.5982      -1225.879          41.000  
C 5  39041860.912     -525413.3762        311.553          36.250  
C12  25198231.821     2869825.1152      -1886.387          33.250  
C 1  37553548.698     -548663.2552        331.104          38.500  
C 7  39457343.128    -2752965.2982       1777.910          38.750  
G12  23136531.942    -4255804.755        2639.023          36.000  
G21  25202854.052    -3727674.142        2618.809          37.500  
> 2020  9 30  8 30 16.0000000  0 28                     
G10  21716279.276    -4721594.645        2755.781          47.000  
G15  23530727.178     3266394.294       -2010.127          42.500  
G18  21606630.327     3385399.300       -2426.484          45.000  
G20  19893425.866    -2063669.419         869.941          43.750  
G23  20295477.260    -2381689.994        1141.045          46.500  
G24  21016148.463     2574416.557       -1983.936          47.750  
G25  23785472.593    -5548421.812        3450.596          38.250  
C 6  36719569.515      -18053.5012         41.729          46.250  
C11  25994841.049      -72834.9452       -327.285          38.500  
C13  36090300.563     1053288.4992       -798.623          45.750  
C16  36641006.348       -6300.6592         24.746          46.500  
C21  22665690.341    -2693485.5272       1573.770          49.250  
C19  26470593.874     2631592.6562      -1722.246          41.500  
C26  23776855.780    -5789756.8982       3402.441          44.500  
C 9  36663772.042     -140549.9052         80.107          43.000  
C22  23059487.695      554406.9952       -500.684          48.750  
C 4  38751527.470     -479913.1402        308.584          34.250  
C10  40554675.535    -1875023.3082       1422.764          34.000  
C 2  37076747.691     -529715.4632        313.867          41.750  
C 3  36360062.816     -484449.3692        287.793          43.750  
G32  23121028.627    -3504929.222        2038.896          45.250  
C 8  37459362.928     1800978.8032      -1226.328          40.750  
C 5  39041801.145     -525724.7252        311.211          36.250  
C12  25198593.843     2871711.8042      -1886.807          33.000  
C 1  37553485.179     -548994.0992        330.781          38.500  
C 7  39457001.610    -2754742.9252       1777.646          38.750  
G12  23136029.689    -4258443.268        2638.379          35.750  
G21  25202355.936    -3730292.421        2618.115          37.500  
> 2020  9 30  8 30 17.0000000  0 28                     
G10  21715755.124    -4724350.388        2755.801          47.000  
G15  23531109.686     3268404.347       -2009.961          42.250  
G18  21607092.217     3387825.931       -2426.641          45.000  
G20  19893260.334    -2064539.085         869.600          43.750  
G23  20295260.075    -2382830.847        1140.801          46.250  
G24  21016525.929     2576400.704       -1984.180          47.500  
G25  23784815.697    -5551872.543        3450.859          38.250  
C 6  36719561.924      -18095.3712         41.973          46.250  
C11  25994903.922      -72507.4832       -327.549          38.750  
C13  36090453.794     1054087.1462       -798.594          45.750  
C16  36641001.236       -6325.5422         24.980          46.500  
C21  22665388.138    -2695059.3442       1573.896          49.250  
C19  26470924.922     2633314.9502      -1722.256          41.500  
C26  23776202.601    -5793159.3312       3402.461          44.500  
C 9  36663756.668     -140630.1542         80.342          43.250  
C22  23059583.810      554907.7312       -500.693          48.750  
C 4  38751468.174     -480221.7382        308.789          34.250  
C10  40554402.178    -1876446.2362       1423.047          33.750  
C 2  37076687.296     -530029.4512        314.072          41.500  
C 3  36360007.534     -484737.2282        287.939          43.750  
G32  23120640.552    -3506968.159        2038.984          45.250  
C 8  37459598.209     1802205.0872      -1226.211          41.000  
C 5  39041741.396     -526036.1142        311.426          36.250  
C12  25198955.883     2873598.5312      -1886.650          33.000  
C 1  37553421.678     -549324.9742        330.986          38.250  
C 7  39456660.179    -2756520.6282       1777.734          38.750  
G12  23135527.542    -4261081.555        2638.242          35.500  
G21  25201857.750    -3732910.439        2617.959          37.500  
> 2020  9 30  8 30 18.0000000  0 28                     
G10  21715230.815    -4727105.896        2755.439          47.000  
G15  23531492.213     3270414.437       -2010.117          42.250  
G18  21607554.159     3390252.959       -2427.178          45.000  
G20  19893095.063    -2065408.243         868.965          43.750  
G23  20295043.151    -2383971.253        1140.273          46.500  
G24  21016903.673     2578385.321       -1984.746          47.750  
G25  23784159.063    -5555323.274        3450.713          38.250  
C 6  36719554.804      -18137.2622         41.865          46.000  
C11  25994966.848      -72179.6102       -328.027          38.750  
C13  36090607.286     1054886.0342       -798.994          45.500  
C16  36640995.529       -6350.4302         24.873          46.500  
C21  22665085.935    -2696633.0322       1573.662          49.250  
C19  26471255.796     2635037.3722      -1722.471          41.500  
C26  23775549.143    -5796561.5382       3402.119          44.750  
C 9  36663741.068     -140710.3592         80.186          43.000  
C22  23059680.101      555408.6852       -501.045          48.750  
C 4  38751408.948     -480530.3852        308.672          34.250  
C10  40554129.047    -1877869.1802       1423.018          34.000  
C 2  37076627.162     -530343.4092        313.906          41.750  
C 3  36359952.164     -485025.0662        287.842          43.750  
G32  23120252.546    -3509006.956        2038.721          45.250  
C 8  37459833.735     1803431.5752      -1226.562          41.000  
C 5  39041681.419     -526347.4682        311.357          36.250  
C12  25199317.940     2875485.3782      -1886.953          32.750  
C 1  37553358.194     -549655.8312        330.898          38.250  
C 7  39456318.713    -2758298.3732       1777.695          38.750  
G12  23135025.482    -4263719.572        2637.949          35.500  
G21  25201359.616    -3735528.105        2617.598          37.500  
> 2020  9 30  8 30 19.0000000  0 27                     
G10  21714706.610    -4729861.356        2755.449          47.000  
G15  23531874.826     3272424.407       -2009.912          42.250  
G18  21608016.171     3392680.238       -2427.314          45.250  
G20  19892929.757    -2066277.024         868.711          43.750  
G23  20294826.140    -2385111.387        1140.059          46.500  
G24  21017281.506     2580370.260       -1985.010          47.500  
G25  23783502.289    -5558774.128        3450.879          38.250  
C 6  36719546.323      -18179.3532         42.158          46.000  
C11  25995029.843      -71851.4102       -328.242          38.500  
C13  36090760.708     1055684.9482       -798.906          45.500  
C16  36640989.980       -6375.4942         25.117          46.750  
C21  22664783.715    -2698206.7522       1573.760          49.250  
C19  26471586.460     2636759.8312      -1722.383          41.500  
C26  23774895.789    -5799963.6752       3402.168          44.750  
C 9  36663726.043     -140790.7292         80.371          43.000  
C22  23059776.286      555909.7322       -501.055          48.750  
C10  40553855.742    -1879292.3742       1423.135          34.250  
C 2  37076566.697     -530657.4842        314.131          41.750  
C 3  36359897.004     -485313.0292        288.066          43.750  
G32  23119864.767    -3511045.782        2038.857          45.250  
C 8  37460069.295     1804658.0522      -1226.445          41.000  
C 5  39041621.547     -526658.9602        311.533          36.500  
C12  25199679.927     2877372.1752      -1886.768          32.500  
C 1  37553294.553     -549986.7982        330.986          38.250  
C 7  39455977.299    -2760076.3012       1778.037          38.750  
G12  23134523.613    -4266357.437        2637.822          35.500  
G21  25200861.726    -3738145.570        2617.422          37.500  
> 2020  9 30  8 30 20.0000000  0 27                     
G10  21714182.301    -4732616.519        2754.990          47.000  
G15  23532257.282     3274434.482       -2010.195          42.250  
G18  21608478.218     3395107.998       -2427.959          45.250  
G20  19892764.503    -2067145.185         867.891          43.500  
G24  21017659.355     2582355.768       -1985.742          47.500  
G25  23782845.376    -5562224.950        3450.742          38.250  
C 6  36719537.703      -18221.3562         41.865          46.000  
C11  25995092.926      -71522.6822       -328.955          38.500  
C13  36090914.252     1056484.1512       -799.385          45.750  
C16  36640985.234       -6400.4862         24.902          46.500  
C21  22664481.512    -2699780.2612       1573.369          49.000  
C19  26471916.967     2638482.5252      -1722.871          41.500  
C26  23774242.558    -5803365.4972       3401.660          44.750  
C 9  36663710.373     -140871.0002         80.156          43.250  
C22  23059872.908      556411.0872       -501.514          48.750  
C 4  38751290.356     -481147.7023        308.545          34.250  
C10  40553582.524    -1880715.5392       1423.018          34.000  
C 2  37076506.355     -530971.4482        313.896          41.500  
C 3  36359841.530     -485600.8812        287.783          43.500  
G32  23119476.901    -3513084.392        2038.438          45.250  
C 8  37460305.065     1805884.7532      -1226.875          41.000  
C 5  39041561.641     -526970.2962        311.250          36.250  
C12  25200042.019     2879259.1462      -1887.041          32.500  
C 1  37553230.877     -550317.6752        330.752          38.250  
C 7  39455635.868    -2761854.1412       1777.686          38.750  
G12  23134021.623    -4268994.921        2637.295          35.750  
G21  25200363.697    -3740762.621        2616.924          37.500  
> 2020  9 30  8 30 21.0000000  0 28                     
G10  21713658.079    -4735371.274        2754.736          47.000  
G15  23532639.983     3276444.789       -2010.332          42.250  
G18  21608940.439     3397536.331       -2428.438          45.250  
G20  19892599.372    -2068012.642         867.305          43.500  
G23  20294392.799    -2387389.9723       1138.838          46.500  
G24  21018037.309     2584341.926       -1986.289          47.500  
G25  23782188.672    -5565675.567        3450.664          38.250  
C 6  36719529.589      -18263.2342         41.885          46.000  
C11  25995156.148      -71193.3282       -329.453          38.500  
C13  36091067.919     1057283.7382       -799.658          45.750  
C16  36640980.923       -6425.3142         24.824          46.500  
C21  22664179.327    -2701353.4662       1573.164          49.250  
C19  26472247.666     2640205.5652      -1723.076          41.500  
C26  23773589.239    -5806766.9072       3401.357          44.500  
C 9  36663695.244     -140951.0492         80.068          43.250  
C22  23059969.216      556912.8592       -501.836          48.750  
C 4  38751231.183     -481456.0842        308.340          34.250  
C10  40553309.271    -1882138.6362       1423.135          34.250  
C 2  37076445.959     -531285.1912        313.750          41.500  
C 3  36359786.370     -485888.4982        287.617          43.750  
G32  23119089.053    -3515122.662        2038.242          45.500  
C 8  37460540.660     1807111.8102      -1227.100          41.000  
C 5  39041501.874     -527281.4802        311.133          36.250  
C12  25200404.216     2881146.4392      -1887.373          32.250  
C 1  37553167.446     -550648.3322        330.615          38.250  
C 7  39455294.629    -2763631.8242       1777.686          38.750  
G12  23133519.702    -4271631.978        2637.002          35.500  
G21  25199865.877    -3743379.126        2616.436          37.500  
> 2020  9 30  8 30 22.0000000  0 27                     
G10  21713133.874    -4738125.852        2754.551          47.000  
G15  23533022.579     3278455.090       -2010.293          42.250  
G18  21609402.608     3399965.041       -2428.799          45.000  
G20  19892434.275    -2068879.600         866.826          43.750  
G24  21018415.316     2586328.516       -1986.709          47.750  
G25  23781532.072    -5569126.181        3450.596          38.250  
C 6  36719522.155      -18305.1622         41.982          46.000  
C11  25995219.579      -70863.5952       -329.863          38.500  
C13  36091221.464     1058083.4952       -799.795          45.750  
C16  36640976.701       -6450.1932         24.883          46.500  
C21  22663877.246    -2702926.5742       1573.086          49.250  
C19  26472578.662     2641928.7422      -1723.213          41.500  
C26  23772935.886    -5810168.1272       3401.162          44.750  
C 9  36663679.853     -141031.1272         80.127          43.250  
C22  23060065.489      557414.8282       -502.031          48.750  
C 4  38751171.922     -481764.5183        308.477          34.000  
C10  40553035.861    -1883561.8392       1423.291          34.250  
C 2  37076385.669     -531598.9572        313.760          41.750  
C 3  36359730.930     -486176.1502        287.695          43.500  
G32  23118701.344    -3517160.847        2038.184          45.500  
C 8  37460776.168     1808339.0002      -1227.266          41.000  
C 5  39041442.107     -527592.6092        311.182          36.250  
C12  25200766.256     2883033.8282      -1887.461          32.250  
C 1  37553104.032     -550978.9802        330.684          38.500  
C 7  39454953.425    -2765409.5672       1777.773          38.750  
G12  23133017.991    -4274268.713        2636.719          35.750  
G21  25199368.179    -3745995.319        2616.182          37.250  
> 2020  9 30  8 30 23.0000000  0 27                     
G10  21712609.530    -4740880.289        2754.570          46.750  
G15  23533405.140     3280465.368       -2010.127          42.500  
G18  21609864.986     3402394.079       -2429.023          45.250  
G20  19892269.371    -2069746.085         866.494          43.500  
G24  21018793.253     2588315.498       -1986.934          47.750  
G25  23780875.421    -5572576.917        3450.938          38.250  
C 6  36719514.459      -18347.1782         42.207          46.000  
C11  25995283.028      -70533.4242       -330.127          38.500  
C13  36091375.025     1058883.3682       -799.746          45.750  
C16  36640972.408       -6475.1542         25.137          46.500  
C21  22663575.235    -2704499.6182       1573.164          49.000  
C19  26472909.710     2643652.0032      -1723.125          41.750  
C26  23772282.811    -5813569.1902       3401.172          44.500  
C 9  36663664.252     -141111.2502         80.273          43.250  
C22  23060162.023      557916.9642       -502.002          48.750  
C 4  38751112.783     -482072.9602        308.662          34.250  
C10  40552762.800    -1884985.1752       1423.594          34.250  
C 2  37076325.378     -531912.7392        313.936          41.750  
C 3  36359675.735     -486463.8282        287.861          43.500  
G32  23118313.495    -3519198.947        2038.252          45.250  
C 8  37461011.799     1809566.2682      -1227.139          41.000  
C 5  39041382.235     -527903.7852        311.318          36.250  
C12  25201128.505     2884921.2152      -1887.236          32.500  
C 1  37553040.216     -551309.7022        330.869          38.250  
C 7  39454611.785    -2767187.4332       1778.057          38.750  
G12  23132516.332    -4276905.243        2636.641          36.000  
G21  25198870.220    -3748611.221        2616.006          37.000  
> 2020  9 30  8 30 24.0000000  0 27                     
G10  21712085.518    -4743634.731        2754.316          46.750  
G15  23533787.719     3282475.428       -2010.127          42.500  
G18  21610327.138     3404823.272       -2429.375          45.250  
G20  19892104.588    -2070612.304         865.986          43.500  
G23  20293743.005    -2390804.7913       1137.832          46.250  
G24  21019171.643     2590302.715       -1987.412          47.750  
G25  23780218.542    -5576027.857        3450.967          38.250  
C 6  36719506.031      -18389.4592         42.197          46.000  
C11  25995346.320      -70203.0952       -330.537          38.750  
C13  36091528.832     1059683.2242       -799.980          45.750  
C16  36640967.749       -6500.3572         25.137          46.500  
C21  22663273.050    -2706072.7792       1573.047          49.000  
C19  26473240.740     2645375.1922      -1723.291          41.750  
C26  23771629.475    -5816970.2742       3400.996          44.500  
C 9  36663649.158     -141191.6002         80.303          43.250  
C22  23060258.436      558419.1032       -502.266          48.750  
C10  40552489.198    -1886408.8132       1423.594          34.000  
C 2  37076265.158     -532226.7352        313.945          41.750  
C 3  36359620.366     -486751.7132        287.812          43.500  
G32  23117925.647    -3521237.167        2038.105          45.250  
C 8  37461247.656     1810793.4702      -1227.275          41.000  
C 5  39041322.521     -528215.1912        311.328          36.250  
C12  25201490.737     2886808.5042      -1887.490          32.500  
C 1  37552976.470     -551640.6072        330.859          38.250  
C 7  39454270.354    -2768965.5142       1778.047          38.500  
G12  23132014.918    -4279541.712        2636.309          35.750  
G21  25198372.522    -3751227.024        2615.605          37.500  
> 2020  9 30  8 30 25.0000000  0 28                     
G10  21711561.610    -4746388.983        2754.209          46.750  
G15  23534170.315     3284485.512       -2009.990          42.500  
G18  21610789.551     3407252.859       -2429.639          45.250  
G20  19891939.754    -2071477.993         865.625          43.500  
G23  20293526.570    -2391942.3702       1137.510          46.500  
G24  21019549.737     2592290.377       -1987.744          47.750  
G25  23779561.925    -5579478.811        3451.006          38.250  
C 6  36719497.236      -18431.7862         42.393          46.000  
C11  25995409.874      -69872.3242       -330.781          38.500  
C13  36091682.568     1060483.2772       -800.078          45.750  
C16  36640962.653       -6525.5992         25.293          46.500  
C21  22662970.951    -2707645.8242       1573.057          49.250  
C19  26473571.614     2647098.5382      -1723.379          41.750  
C26  23770976.017    -5820371.1302       3400.859          44.250  
C 9  36663633.487     -141271.9402         80.381          43.250  
C22  23060354.970      558921.4502       -502.344          48.750  
C 4  38750994.383     -482690.2613        308.818          34.500  
C10  40552215.596    -1887832.5452       1423.848          34.250  
C 2  37076204.815     -532540.7122        314.014          41.750  
C 3  36359565.415     -487039.5862        287.930          43.750  
G32  23117537.851    -3523275.254        2038.115          45.250  
C 8  37461483.321     1812020.7982      -1227.334          41.000  
C 5  39041262.684     -528526.5592        311.338          36.250  
C12  25201853.352     2888695.8952      -1887.373          32.750  
C 1  37552913.039     -551971.4862        330.918          38.250  
C 7  39453928.679    -2770743.6322       1778.184          38.500  
G12  23131513.189    -4282177.903        2636.191          35.750  
G21  25197874.825    -3753842.474        2615.439          37.750  
> 2020  9 30  8 30 26.0000000  0 28                     
G10  21711037.266    -4749143.324        2754.385          46.750  
G15  23534552.667     3286495.330       -2009.736          42.250  
G18  21611251.947     3409682.542       -2429.707          45.250  
G20  19891775.006    -2072343.454         865.430          43.500  
G23  20293310.065    -2393079.8172       1137.402          46.250  
G24  21019927.918     2594278.207       -1987.832          47.750  
G25  23778905.274    -5582930.059        3451.318          38.500  
C 6  36719489.052      -18474.4132         42.725          46.000  
C11  25995473.428      -69541.3862       -330.928          38.750  
C13  36091836.270     1061283.2382       -799.893          45.750  
C16  36640956.615       -6551.1462         25.674          46.750  
C21  22662668.609    -2709219.0492       1573.311          49.250  
C19  26473902.453     2648821.7522      -1723.174          41.750  
C26  23770322.855    -5823772.0652       3400.977          44.250  
C 9  36663618.218     -141352.5572         80.732          43.250  
C22  23060451.208      559423.7512       -502.256          48.750  
C 4  38750935.245     -482999.1692        309.121          34.500  
C10  40551942.238    -1889256.6392       1424.219          34.250  
C 2  37076144.385     -532854.9442        314.346          41.500  
C 3  36359509.923     -487327.7282        288.213          43.500  
G32  23117149.967    -3525313.493        2038.301          45.250  
C 8  37461719.021     1813248.0032      -1227.129          41.250  
C 5  39041202.969     -528838.1962        311.729          36.250  
C12  25202215.915     2890583.0462      -1887.109          33.250  
C 1  37552849.677     -552302.6502        331.260          38.000  
C 7  39453587.108    -2772522.0682       1778.477          38.250  
G12  23131011.443    -4284814.122        2636.221          35.500  
G21  25197376.935    -3756457.903        2615.459          37.500  
> 2020  9 30  8 30 27.0000000  0 28                     
G10  21710512.799    -4751897.513        2754.248          46.750  
G15  23534935.158     3288505.098       -2009.736          42.250  
G18  21611714.221     3412112.545       -2430.000          45.250  
G20  19891610.259    -2073208.474         864.990          43.500  
G23  20293093.595    -2394216.9142       1137.080          46.250  
G24  21020306.379     2596266.431       -1988.232          47.750  
G25  23778248.709    -5586381.378        3451.406          38.750  
C 6  36719481.461      -18517.1672         42.871          46.250  
C11  25995537.156      -69210.0722       -331.348          38.750  
C13  36091989.866     1062083.3262       -800.059          45.750  
C16  36640951.153       -6576.7892         25.771          46.750  
C21  22662366.755    -2710792.2162       1573.232          49.250  
C19  26474233.291     2650545.0382      -1723.262          41.500  
C26  23769669.624    -5827172.8402       3400.820          44.250  
C 9  36663602.810     -141433.2402         80.791          43.000  
C22  23060547.865      559926.1982       -502.402          48.750  
C 4  38750875.861     -483308.1222        309.082          34.500  
C10  40551668.863    -1890680.9122       1424.395          34.250  
C 2  37076084.286     -533169.2332        314.395          41.500  
C 3  36359454.659     -487615.9082        288.281          43.500  
G32  23116762.014    -3527351.687        2038.252          45.250  
C 8  37461954.494     1814475.3072      -1227.305          41.000  
C 5  39041142.940     -529149.8642        311.826          36.250  
C12  25202578.426     2892470.3172      -1887.168          33.500  
C 1  37552785.966     -552633.8372        331.279          38.250  
C 7  39453245.415    -2774300.6142       1778.613          38.250  
G12  23130510.011    -4287450.117        2636.064          35.250  
G21  25196879.028    -3759073.041        2615.107          37.500  
> 2020  9 30  8 30 28.0000000  0 28                     
G10  21709988.804    -4754651.677        2754.121          46.750  
G15  23535317.824     3290514.725       -2009.600          42.500  
G18  21612176.791     3414542.747       -2430.293          45.250  
G20  19891445.581    -2074073.150         864.551          43.500  
G23  20292877.283    -2395353.7582       1136.758          46.250  
G24  21020684.804     2598254.929       -1988.623          47.750  
G25  23777592.302    -5589832.893        3451.514          38.750  
C 6  36719473.102      -18560.1282         43.008          46.000  
C11  25995600.832      -68878.5192       -331.680          38.750  
C13  36092143.428     1062883.4232       -800.137          45.750  
C16  36640946.459       -6602.6362         25.889          46.750  
C21  22662064.587    -2712365.4432       1573.223          49.000  
C19  26474564.165     2652268.3082      -1723.340          41.500  
C26  23769016.637    -5830573.5852       3400.703          44.250  
C 9  36663586.965     -141514.1112         80.908          43.250  
C22  23060644.278      560428.6962       -502.568          48.750  
C 4  38750816.426     -483617.2292        309.238          34.500  
C10  40551395.226    -1892105.4392       1424.482          34.000  
C 2  37076023.751     -533483.6952        314.482          41.500  
C 3  36359399.429     -487904.2652        288.359          43.500  
G32  23116374.218    -3529389.935        2038.223          45.250  
C 8  37462190.317     1815702.5372      -1227.285          41.000  
C 5  39041082.877     -529461.7172        311.982          36.250  
C12  25202941.234     2894357.4402      -1887.119          33.500  
C 1  37552722.256     -552965.2062        331.406          38.250  
C 7  39452903.792    -2776079.3702       1778.818          38.250  
G12  23130008.439    -4290085.982        2635.869          35.500  
G21  25196381.627    -3761688.017        2614.912          37.000  
> 2020  9 30  8 30 29.0000000  0 28                     
G10  21709464.722    -4757405.427        2753.672          46.750  
G15  23535700.228     3292524.566       -2009.863          42.250  
G18  21612639.152     3416973.566       -2430.957          45.250  
G20  19891281.252    -2074937.083         863.760          43.500  
G23  20292661.301    -2396489.9532       1136.084          46.250  
G24  21021063.387     2600244.078       -1989.307          47.750  
G25  23776935.511    -5593284.194        3451.260          38.750  
C 6  36719464.272      -18602.9172         42.812          46.000  
C11  25995664.717      -68546.3192       -332.354          38.750  
C13  36092296.973     1063683.9272       -800.586          45.750  
C16  36640942.219       -6628.2932         25.664          46.750  
C21  22661762.716    -2713938.3392       1572.852          49.000  
C19  26474895.143     2653991.9462      -1723.721          41.750  
C26  23768363.702    -5833973.9012       3400.244          44.250  
C 9  36663571.609     -141594.7502         80.605          43.250  
C22  23060740.620      560931.6182       -503.018          48.750  
C 4  38750757.148     -483926.1382        308.926          34.500  
C10  40551121.537    -1893529.8452       1424.375          34.250  
C 2  37075963.339     -533797.8962        314.199          41.500  
C 3  36359343.989     -488192.3802        288.086          43.500  
G32  23115986.230    -3531427.830        2037.871          45.250  
C 8  37462425.930     1816930.1522      -1227.666          41.000  
C 5  39041022.953     -529773.2962        311.562          36.250  
C12  25203303.814     2896244.8802      -1887.373          33.750  
C 1  37552658.754     -553296.3302        331.084          38.250  
C 7  39452562.239    -2777857.9272       1778.555          38.250  
