% ref pos   : -2191136.5960  5198839.0050  2965370.9860
%  UTC                       x-ecef(m)      y-ecef(m)      z-ecef(m)   Q  ns   sdx(m)   sdy(m)   sdz(m)  sdxy(m)  sdyz(m)  sdzx(m) age(s)  ratio





2020/06/29 08:13:00.000  -2191126.6466   5198841.8472   2965369.2750   2  22   1.8696   3.2914   1.7234  -2.0485   1.9397  -1.3336   0.00    0.0





2020/06/29 08:13:03.000  -2191126.7796   5198841.8098   2965369.4018   2  22   1.4294   2.4759   1.3003  -1.5530   1.4646  -1.0144   0.00    0.0





2020/06/29 08:13:06.000  -2191126.9418   5198841.9268   2965369.4939   2  22   1.1960   2.0551   1.0818  -1.2912   1.2164  -0.8449   0.00    0.0





2020/06/29 08:13:09.000  -2191127.0471   5198842.0743   2965369.5699   2  22   1.0438   1.7827   0.9408  -1.1191   1.0544  -0.7333   0.00    0.0





2020/06/29 08:13:12.000  -2191127.1066   5198842.1608   2965369.6117   2  22   0.9330   1.5847   0.8387  -0.9923   0.9359  -0.6512   0.00    0.0





2020/06/29 08:13:15.000  -2191127.1567   5198842.2503   2965369.6674   2  22   0.8468   1.4305   0.7595  -0.8923   0.8430  -0.5866   0.00    0.0





2020/06/29 08:13:18.000  -2191127.2361   5198842.4076   2965369.7283   2  22   0.7768   1.3046   0.6952  -0.8099   0.7669  -0.5335   0.00    0.0





2020/06/29 08:13:21.000  -2191127.2928   5198842.4914   2965369.7721   2  22   0.7181   1.1987   0.6412  -0.7397   0.7025  -0.4884   0.00    0.0





2020/06/29 08:13:24.000  -2191127.3470   5198842.5848   2965369.8276   2  22   0.6678   1.1075   0.5949  -0.6787   0.6468  -0.4493   0.00    0.0





2020/06/29 08:13:27.000  -2191127.3876   5198842.6077   2965369.8612   2  22   0.6240   1.0278   0.5544  -0.6249   0.5980  -0.4150   0.00    0.0





2020/06/29 08:13:30.000  -2191127.4026   5198842.6074   2965369.8715   2  22   0.5855   0.9572   0.5186  -0.5769   0.5547  -0.3846   0.00    0.0





2020/06/29 08:13:33.000  -2191127.7249   5198842.9279   2965370.5643   1  22   0.0193   0.0334   0.0174  -0.0215   0.0201  -0.0141   0.00    5.2





2020/06/29 08:13:36.000  -2191127.7241   5198842.9258   2965370.5642   1  22   0.0193   0.0334   0.0174  -0.0215   0.0201  -0.0141   0.00    5.5





2020/06/29 08:13:39.000  -2191127.7246   5198842.9261   2965370.5637   1  22   0.0193   0.0334   0.0173  -0.0215   0.0201  -0.0141   0.00    5.6





2020/06/29 08:13:42.000  -2191127.7249   5198842.9261   2965370.5646   1  22   0.0201   0.0339   0.0176  -0.0222   0.0206  -0.0147   0.00    5.7





2020/06/29 08:13:45.000  -2191127.7259   5198842.9280   2965370.5654   1  22   0.0195   0.0335   0.0174  -0.0217   0.0202  -0.0143   0.00    6.1





2020/06/29 08:13:48.000  -2191127.7266   5198842.9305   2965370.5652   1  22   0.0194   0.0334   0.0173  -0.0216   0.0201  -0.0142   0.00  408.8





2020/06/29 08:13:51.000  -2191127.7260   5198842.9277   2965370.5649   1  22   0.0194   0.0334   0.0173  -0.0215   0.0201  -0.0141   0.00  684.2





2020/06/29 08:13:54.000  -2191127.7263   5198842.9297   2965370.5654   1  22   0.0193   0.0333   0.0173  -0.0215   0.0201  -0.0141   0.00  934.6





2020/06/29 08:13:57.000  -2191127.7269   5198842.9298   2965370.5651   1  22   0.0193   0.0333   0.0172  -0.0215   0.0200  -0.0140   0.00  999.9





2020/06/29 08:14:00.000  -2191127.7278   5198842.9293   2965370.5653   1  22   0.0193   0.0333   0.0172  -0.0214   0.0200  -0.0140   0.00  999.9





2020/06/29 08:14:03.000  -2191127.7270   5198842.9288   2965370.5660   1  22   0.0193   0.0333   0.0172  -0.0214   0.0200  -0.0140   0.00  999.9





2020/06/29 08:14:06.000  -2191127.7276   5198842.9307   2965370.5668   1  22   0.0193   0.0333   0.0172  -0.0214   0.0200  -0.0140   0.00  999.9





2020/06/29 08:14:09.000  -2191127.7269   5198842.9294   2965370.5652   1  22   0.0193   0.0332   0.0172  -0.0214   0.0200  -0.0140   0.00  999.9





2020/06/29 08:14:12.000  -2191127.7266   5198842.9296   2965370.5665   1  22   0.0193   0.0332   0.0172  -0.0214   0.0199  -0.0140   0.00  999.9





2020/06/29 08:14:15.000  -2191127.7272   5198842.9299   2965370.5669   1  22   0.0193   0.0332   0.0172  -0.0214   0.0199  -0.0140   0.00  999.9





2020/06/29 08:14:18.000  -2191127.7286   5198842.9314   2965370.5668   1  22   0.0193   0.0332   0.0171  -0.0214   0.0199  -0.0140   0.00  999.9





2020/06/29 08:14:21.000  -2191127.7271   5198842.9305   2965370.5667   1  22   0.0193   0.0332   0.0171  -0.0214   0.0199  -0.0140   0.00  999.9





2020/06/29 08:14:24.000  -2191127.7283   5198842.9321   2965370.5677   1  22   0.0193   0.0332   0.0171  -0.0214   0.0199  -0.0140   0.00  999.9





2020/06/29 08:14:27.000  -2191127.7281   5198842.9325   2965370.5673   1  22   0.0192   0.0332   0.0171  -0.0214   0.0199  -0.0139   0.00  999.9





2020/06/29 08:14:30.000  -2191127.7298   5198842.9338   2965370.5685   1  22   0.0192   0.0331   0.0171  -0.0213   0.0199  -0.0139   0.00  999.9





2020/06/29 08:14:33.000  -2191127.7286   5198842.9332   2965370.5688   1  22   0.0192   0.0331   0.0171  -0.0213   0.0199  -0.0139   0.00  999.9





2020/06/29 08:14:36.000  -2191127.7282   5198842.9306   2965370.5662   1  22   0.0192   0.0331   0.0171  -0.0213   0.0199  -0.0139   0.00  999.9





2020/06/29 08:14:39.000  -2191127.7282   5198842.9322   2965370.5677   1  22   0.0192   0.0331   0.0171  -0.0213   0.0199  -0.0139   0.00  999.9





2020/06/29 08:14:42.000  -2191127.7277   5198842.9330   2965370.5686   1  22   0.0192   0.0331   0.0171  -0.0213   0.0198  -0.0139   0.00  999.9





2020/06/29 08:14:45.000  -2191127.7283   5198842.9324   2965370.5665   1  22   0.0192   0.0331   0.0171  -0.0213   0.0198  -0.0139   0.00  999.9





2020/06/29 08:14:48.000  -2191127.7273   5198842.9328   2965370.5682   1  22   0.0192   0.0331   0.0171  -0.0213   0.0198  -0.0139   0.00  999.9





2020/06/29 08:14:51.000  -2191127.7280   5198842.9321   2965370.5682   1  22   0.0192   0.0331   0.0170  -0.0213   0.0198  -0.0139   0.00  999.9





2020/06/29 08:14:54.000  -2191127.7258   5198842.9307   2965370.5665   1  22   0.0192   0.0331   0.0170  -0.0213   0.0198  -0.0139   0.00  999.9





2020/06/29 08:14:57.000  -2191127.7268   5198842.9313   2965370.5669   1  22   0.0192   0.0331   0.0170  -0.0213   0.0198  -0.0139   0.00  999.9





2020/06/29 08:15:04.000  -2191127.7254   5198842.9306   2965370.5649   1  22   0.0192   0.0331   0.0170  -0.0213   0.0198  -0.0139   0.00  999.9





2020/06/29 08:15:07.000  -2191127.7264   5198842.9312   2965370.5665   1  22   0.0204   0.0339   0.0175  -0.0225   0.0206  -0.0148   0.00  999.9





2020/06/29 08:15:10.000  -2191127.7264   5198842.9322   2965370.5674   1  22   0.0215   0.0348   0.0180  -0.0236   0.0213  -0.0157   0.00  999.9





2020/06/29 08:15:21.500  -2191127.7275   5198842.9325   2965370.5679   1  23   0.0196   0.0333   0.0171  -0.0216   0.0200  -0.0141   0.50  999.9





2020/06/29 08:15:24.500  -2191127.7253   5198842.9307   2965370.5671   1  23   0.0183   0.0314   0.0168  -0.0198   0.0190  -0.0132   0.50  999.9





2020/06/29 08:15:27.500  -2191127.7258   5198842.9308   2965370.5669   1  23   0.0181   0.0312   0.0167  -0.0195   0.0189  -0.0131   0.50  999.9





2020/06/29 08:15:30.500  -2191127.7269   5198842.9314   2965370.5678   1  23   0.0180   0.0311   0.0167  -0.0195   0.0188  -0.0131   0.50  999.9





2020/06/29 08:15:33.500  -2191127.7276   5198842.9327   2965370.5670   1  23   0.0180   0.0310   0.0167  -0.0194   0.0188  -0.0130   0.50  999.9





2020/06/29 08:15:36.500  -2191127.7256   5198842.9291   2965370.5667   1  23   0.0180   0.0310   0.0167  -0.0194   0.0188  -0.0130   0.50  999.9





2020/06/29 08:15:39.500  -2191127.7252   5198842.9282   2965370.5650   1  23   0.0180   0.0310   0.0167  -0.0193   0.0187  -0.0130   0.50  999.9





2020/06/29 08:15:42.500  -2191127.7251   5198842.9286   2965370.5647   1  23   0.0179   0.0310   0.0166  -0.0193   0.0187  -0.0130   0.50  999.9





2020/06/29 08:15:45.500  -2191127.7238   5198842.9280   2965370.5654   1  23   0.0179   0.0310   0.0166  -0.0193   0.0187  -0.0130   0.50  999.9





2020/06/29 08:15:48.500  -2191127.7253   5198842.9296   2965370.5665   1  23   0.0179   0.0309   0.0166  -0.0193   0.0187  -0.0130   0.50  999.9





2020/06/29 08:15:51.500  -2191127.7253   5198842.9285   2965370.5658   1  23   0.0179   0.0309   0.0166  -0.0193   0.0187  -0.0129   0.50  999.9





2020/06/29 08:15:54.500  -2191127.7239   5198842.9282   2965370.5643   1  23   0.0179   0.0309   0.0166  -0.0193   0.0187  -0.0129   0.50  999.9





2020/06/29 08:15:57.500  -2191127.7246   5198842.9282   2965370.5655   1  23   0.0179   0.0309   0.0166  -0.0193   0.0187  -0.0129   0.50  999.9





2020/06/29 08:16:00.500  -2191127.7243   5198842.9279   2965370.5646   1  23   0.0179   0.0309   0.0166  -0.0193   0.0187  -0.0129   0.50  999.9





2020/06/29 08:16:03.500  -2191127.7244   5198842.9292   2965370.5660   1  23   0.0179   0.0309   0.0166  -0.0192   0.0187  -0.0129   0.50  999.9





2020/06/29 08:16:06.500  -2191127.7246   5198842.9283   2965370.5647   1  23   0.0179   0.0309   0.0166  -0.0192   0.0186  -0.0129   0.50  999.9





2020/06/29 08:16:09.500  -2191127.7258   5198842.9301   2965370.5660   1  23   0.0179   0.0308   0.0166  -0.0192   0.0186  -0.0129   0.50  999.9





2020/06/29 08:16:12.500  -2191127.7243   5198842.9272   2965370.5647   1  23   0.0179   0.0308   0.0166  -0.0192   0.0186  -0.0129   0.50  999.9





2020/06/29 08:16:15.500  -2191127.7254   5198842.9283   2965370.5653   1  23   0.0182   0.0310   0.0167  -0.0195   0.0188  -0.0131   0.50  999.9





2020/06/29 08:16:18.500  -2191127.7257   5198842.9290   2965370.5652   1  23   0.0180   0.0309   0.0166  -0.0193   0.0187  -0.0130   0.50  999.9





2020/06/29 08:16:21.500  -2191127.7257   5198842.9283   2965370.5656   1  23   0.0180   0.0309   0.0166  -0.0193   0.0187  -0.0129   0.50  999.9





2020/06/29 08:16:24.500  -2191127.7246   5198842.9271   2965370.5658   1  23   0.0179   0.0308   0.0166  -0.0192   0.0186  -0.0129   0.50  999.9





2020/06/29 08:16:27.500  -2191127.7253   5198842.9278   2965370.5657   1  23   0.0179   0.0308   0.0166  -0.0192   0.0186  -0.0129   0.50  999.9





2020/06/29 08:16:30.500  -2191127.7260   5198842.9284   2965370.5661   1  23   0.0179   0.0308   0.0166  -0.0192   0.0186  -0.0129   0.50  999.9





2020/06/29 08:16:33.500  -2191127.7239   5198842.9256   2965370.5643   1  23   0.0179   0.0308   0.0166  -0.0192   0.0186  -0.0129   0.50  999.9





2020/06/29 08:16:36.500  -2191127.7232   5198842.9265   2965370.5656   1  23   0.0179   0.0308   0.0165  -0.0192   0.0186  -0.0129   0.50  999.9





2020/06/29 08:16:39.500  -2191127.7264   5198842.9293   2965370.5671   1  23   0.0179   0.0308   0.0166  -0.0192   0.0186  -0.0129   0.50  999.9





2020/06/29 08:16:42.500  -2191127.7259   5198842.9284   2965370.5671   1  23   0.0179   0.0307   0.0165  -0.0192   0.0186  -0.0128   0.50  999.9





2020/06/29 08:16:45.500  -2191127.7261   5198842.9289   2965370.5663   1  23   0.0179   0.0307   0.0165  -0.0192   0.0185  -0.0128   0.50  999.9





2020/06/29 08:16:48.500  -2191127.7249   5198842.9271   2965370.5659   1  23   0.0179   0.0307   0.0165  -0.0191   0.0185  -0.0128   0.50  999.9





2020/06/29 08:16:51.500  -2191127.7259   5198842.9294   2965370.5671   1  23   0.0178   0.0307   0.0165  -0.0191   0.0185  -0.0128   0.50  999.9





2020/06/29 08:16:54.500  -2191127.7260   5198842.9282   2965370.5663   1  23   0.0178   0.0307   0.0165  -0.0191   0.0185  -0.0128   0.50  999.9





2020/06/29 08:16:57.500  -2191127.7262   5198842.9289   2965370.5665   1  23   0.0178   0.0307   0.0165  -0.0191   0.0185  -0.0128   0.50  999.9





2020/06/29 08:17:00.500  -2191127.7250   5198842.9277   2965370.5662   1  23   0.0178   0.0307   0.0165  -0.0191   0.0185  -0.0128   0.50  999.9





2020/06/29 08:17:03.500  -2191127.7258   5198842.9282   2965370.5665   1  22   0.0195   0.0318   0.0173  -0.0208   0.0196  -0.0143   0.50  999.9





2020/06/29 08:17:06.500  -2191127.7248   5198842.9273   2965370.5662   1  23   0.0181   0.0309   0.0166  -0.0194   0.0187  -0.0130   0.50  999.9





2020/06/29 08:17:09.500  -2191127.7255   5198842.9281   2965370.5666   1  23   0.0180   0.0308   0.0166  -0.0192   0.0186  -0.0129   0.50  999.9





2020/06/29 08:17:12.500  -2191127.7246   5198842.9271   2965370.5659   1  23   0.0179   0.0307   0.0165  -0.0192   0.0185  -0.0129   0.50  999.9





2020/06/29 08:17:15.500  -2191127.7263   5198842.9300   2965370.5679   1  23   0.0179   0.0307   0.0165  -0.0191   0.0185  -0.0128   0.50  999.9





2020/06/29 08:17:18.500  -2191127.7257   5198842.9300   2965370.5674   1  23   0.0179   0.0307   0.0165  -0.0191   0.0185  -0.0128   0.50  999.9





2020/06/29 08:17:21.500  -2191127.7260   5198842.9311   2965370.5670   1  23   0.0179   0.0307   0.0165  -0.0191   0.0185  -0.0128   0.50  999.9





2020/06/29 08:17:24.500  -2191127.7253   5198842.9294   2965370.5667   1  23   0.0179   0.0306   0.0165  -0.0191   0.0185  -0.0128   0.50  999.9





2020/06/29 08:17:27.500  -2191127.7260   5198842.9321   2965370.5677   1  23   0.0178   0.0306   0.0165  -0.0191   0.0185  -0.0128   0.50  999.9





2020/06/29 08:17:30.500  -2191127.7262   5198842.9300   2965370.5673   1  23   0.0178   0.0306   0.0165  -0.0191   0.0184  -0.0128   0.50  999.9





2020/06/29 08:17:33.500  -2191127.7268   5198842.9312   2965370.5686   1  23   0.0178   0.0306   0.0165  -0.0191   0.0184  -0.0128   0.50  999.9





2020/06/29 08:17:36.500  -2191127.7269   5198842.9329   2965370.5695   1  23   0.0178   0.0306   0.0165  -0.0191   0.0184  -0.0127   0.50  999.9





2020/06/29 08:17:39.500  -2191127.7259   5198842.9315   2965370.5690   1  23   0.0178   0.0306   0.0165  -0.0190   0.0184  -0.0127   0.50  999.9





2020/06/29 08:17:42.500  -2191127.7258   5198842.9315   2965370.5684   1  23   0.0178   0.0306   0.0164  -0.0190   0.0184  -0.0128   0.50  999.9





2020/06/29 08:17:45.500  -2191127.7261   5198842.9303   2965370.5688   1  23   0.0178   0.0306   0.0164  -0.0190   0.0184  -0.0127   0.50  999.9





2020/06/29 08:17:48.500  -2191127.7267   5198842.9303   2965370.5684   1  23   0.0178   0.0306   0.0164  -0.0190   0.0184  -0.0127   0.50  999.9





2020/06/29 08:17:51.500  -2191127.7254   5198842.9299   2965370.5686   1  23   0.0178   0.0306   0.0164  -0.0190   0.0184  -0.0127   0.50  999.9





2020/06/29 08:17:54.500  -2191127.7246   5198842.9284   2965370.5676   1  23   0.0178   0.0305   0.0164  -0.0190   0.0184  -0.0127   0.50  999.9





2020/06/29 08:17:57.500  -2191127.7253   5198842.9287   2965370.5676   1  23   0.0178   0.0305   0.0164  -0.0190   0.0184  -0.0127   0.50  999.9





2020/06/29 08:18:00.500  -2191127.7237   5198842.9278   2965370.5676   1  23   0.0178   0.0305   0.0164  -0.0190   0.0184  -0.0127   0.50  999.9





2020/06/29 08:18:03.500  -2191127.7250   5198842.9303   2965370.5672   1  23   0.0178   0.0305   0.0164  -0.0190   0.0184  -0.0127   0.50  999.9





2020/06/29 08:18:06.500  -2191127.7244   5198842.9298   2965370.5677   1  23   0.0181   0.0307   0.0165  -0.0193   0.0185  -0.0129   0.50  999.9





2020/06/29 08:18:09.500  -2191127.7242   5198842.9287   2965370.5678   1  23   0.0179   0.0306   0.0165  -0.0191   0.0184  -0.0128   0.50  999.9





2020/06/29 08:18:12.500  -2191127.7253   5198842.9298   2965370.5687   1  23   0.0179   0.0306   0.0164  -0.0191   0.0184  -0.0128   0.50  999.9





2020/06/29 08:18:15.500  -2191127.7255   5198842.9303   2965370.5690   1  23   0.0178   0.0305   0.0164  -0.0190   0.0184  -0.0127   0.50  999.9





2020/06/29 08:18:18.500  -2191127.7246   5198842.9288   2965370.5673   1  23   0.0178   0.0305   0.0164  -0.0190   0.0183  -0.0127   0.50  999.9





2020/06/29 08:18:21.500  -2191127.7246   5198842.9297   2965370.5692   1  23   0.0178   0.0305   0.0164  -0.0190   0.0183  -0.0127   0.50  999.9





2020/06/29 08:18:24.500  -2191127.7241   5198842.9294   2965370.5682   1  23   0.0178   0.0305   0.0164  -0.0190   0.0183  -0.0127   0.50  999.9





2020/06/29 08:18:27.500  -2191127.7241   5198842.9284   2965370.5675   1  23   0.0178   0.0305   0.0164  -0.0190   0.0183  -0.0127   0.50  999.9





2020/06/29 08:18:30.500  -2191127.7247   5198842.9291   2965370.5686   1  23   0.0178   0.0305   0.0164  -0.0190   0.0183  -0.0127   0.50  999.9





2020/06/29 08:18:33.500  -2191127.7238   5198842.9279   2965370.5674   1  23   0.0178   0.0305   0.0164  -0.0190   0.0183  -0.0127   0.50  999.9





2020/06/29 08:18:36.500  -2191127.7230   5198842.9281   2965370.5676   1  23   0.0178   0.0305   0.0164  -0.0189   0.0183  -0.0127   0.50  999.9





2020/06/29 08:18:39.500  -2191127.7244   5198842.9283   2965370.5683   1  23   0.0178   0.0304   0.0164  -0.0189   0.0183  -0.0127   0.50  999.9





2020/06/29 08:18:42.500  -2191127.7234   5198842.9281   2965370.5679   1  23   0.0178   0.0304   0.0164  -0.0189   0.0183  -0.0126   0.50  999.9





2020/06/29 08:18:45.500  -2191127.7251   5198842.9285   2965370.5680   1  23   0.0178   0.0304   0.0164  -0.0189   0.0183  -0.0126   0.50  999.9





2020/06/29 08:18:48.500  -2191127.7250   5198842.9292   2965370.5676   1  23   0.0178   0.0304   0.0164  -0.0189   0.0183  -0.0126   0.50  999.9





2020/06/29 08:18:51.500  -2191127.7256   5198842.9297   2965370.5679   1  23   0.0178   0.0304   0.0163  -0.0189   0.0183  -0.0126   0.50  999.9





2020/06/29 08:18:54.500  -2191127.7263   5198842.9313   2965370.5699   1  23   0.0178   0.0304   0.0164  -0.0189   0.0182  -0.0126   0.50  999.9





2020/06/29 08:18:57.500  -2191127.7261   5198842.9282   2965370.5690   1  23   0.0177   0.0304   0.0163  -0.0189   0.0182  -0.0126   0.50  999.9





2020/06/29 08:19:00.500  -2191127.7264   5198842.9312   2965370.5694   1  23   0.0178   0.0304   0.0163  -0.0189   0.0182  -0.0126   0.50  999.9





2020/06/29 08:19:03.500  -2191127.7256   5198842.9309   2965370.5687   1  23   0.0178   0.0304   0.0163  -0.0189   0.0182  -0.0126   0.50  999.9





2020/06/29 08:19:06.500  -2191127.7275   5198842.9333   2965370.5701   1  23   0.0178   0.0304   0.0163  -0.0189   0.0182  -0.0126   0.50  999.9





2020/06/29 08:19:09.500  -2191127.7266   5198842.9314   2965370.5688   1  23   0.0177   0.0304   0.0163  -0.0189   0.0182  -0.0126   0.50  999.9





2020/06/29 08:19:12.500  -2191127.7268   5198842.9320   2965370.5692   1  23   0.0177   0.0303   0.0163  -0.0189   0.0182  -0.0126   0.50  999.9





2020/06/29 08:19:15.500  -2191127.7271   5198842.9329   2965370.5695   1  23   0.0177   0.0303   0.0163  -0.0189   0.0182  -0.0126   0.50  999.9





2020/06/29 08:19:18.500  -2191127.7269   5198842.9317   2965370.5685   1  23   0.0177   0.0303   0.0163  -0.0189   0.0182  -0.0126   0.50  999.9





2020/06/29 08:19:21.500  -2191127.7293   5198842.9341   2965370.5711   1  23   0.0177   0.0303   0.0163  -0.0188   0.0182  -0.0126   0.50  999.9





2020/06/29 08:19:24.500  -2191127.7276   5198842.9313   2965370.5697   1  23   0.0186   0.0309   0.0167  -0.0197   0.0187  -0.0133   0.50  999.9





2020/06/29 08:19:27.500  -2191127.7283   5198842.9320   2965370.5700   1  23   0.0180   0.0304   0.0164  -0.0190   0.0183  -0.0127   0.50  999.9





2020/06/29 08:19:30.500  -2191127.7288   5198842.9336   2965370.5695   1  23   0.0178   0.0304   0.0163  -0.0190   0.0182  -0.0127   0.50  999.9





2020/06/29 08:19:33.500  -2191127.7264   5198842.9317   2965370.5686   1  23   0.0178   0.0303   0.0163  -0.0189   0.0182  -0.0126   0.50  999.9





2020/06/29 08:19:36.500  -2191127.7273   5198842.9311   2965370.5688   1  23   0.0178   0.0303   0.0163  -0.0189   0.0182  -0.0126   0.50  999.9





2020/06/29 08:19:39.500  -2191127.7279   5198842.9337   2965370.5686   1  23   0.0178   0.0303   0.0163  -0.0189   0.0182  -0.0126   0.50  999.9





2020/06/29 08:19:42.500  -2191127.7280   5198842.9342   2965370.5707   1  23   0.0178   0.0303   0.0163  -0.0189   0.0182  -0.0126   0.50  999.9





2020/06/29 08:19:45.500  -2191127.7304   5198842.9366   2965370.5711   1  23   0.0178   0.0303   0.0163  -0.0188   0.0181  -0.0126   0.50  999.9





2020/06/29 08:19:48.500  -2191127.7288   5198842.9335   2965370.5698   1  23   0.0178   0.0303   0.0163  -0.0188   0.0181  -0.0126   0.50  999.9





2020/06/29 08:19:51.500  -2191127.7276   5198842.9338   2965370.5696   1  23   0.0178   0.0303   0.0163  -0.0188   0.0181  -0.0126   0.50  999.9





2020/06/29 08:19:54.500  -2191127.7284   5198842.9358   2965370.5706   1  23   0.0177   0.0303   0.0163  -0.0188   0.0181  -0.0125   0.50  999.9





2020/06/29 08:19:57.500  -2191127.7282   5198842.9340   2965370.5705   1  23   0.0177   0.0302   0.0163  -0.0188   0.0181  -0.0125   0.50  999.9





2020/06/29 08:20:00.500  -2191127.7289   5198842.9347   2965370.5709   1  23   0.0177   0.0302   0.0163  -0.0188   0.0181  -0.0125   0.50  999.9





2020/06/29 08:20:03.500  -2191127.7288   5198842.9359   2965370.5705   1  23   0.0177   0.0302   0.0163  -0.0188   0.0181  -0.0125   0.50  999.9





2020/06/29 08:20:06.500  -2191127.7294   5198842.9355   2965370.5716   1  23   0.0177   0.0302   0.0163  -0.0188   0.0181  -0.0125   0.50  999.9





2020/06/29 08:20:09.500  -2191127.7282   5198842.9353   2965370.5701   1  23   0.0177   0.0302   0.0163  -0.0188   0.0181  -0.0125   0.50  999.9





2020/06/29 08:20:12.500  -2191127.7289   5198842.9347   2965370.5696   1  23   0.0177   0.0302   0.0163  -0.0188   0.0181  -0.0125   0.50  999.9





2020/06/29 08:20:15.500  -2191127.7298   5198842.9369   2965370.5719   1  23   0.0180   0.0304   0.0164  -0.0190   0.0182  -0.0127   0.50  999.9





2020/06/29 08:20:18.500  -2191127.7287   5198842.9359   2965370.5706   1  23   0.0178   0.0303   0.0163  -0.0189   0.0181  -0.0126   0.50  999.9





2020/06/29 08:20:21.500  -2191127.7290   5198842.9366   2965370.5704   1  23   0.0178   0.0302   0.0163  -0.0188   0.0181  -0.0126   0.50  999.9





2020/06/29 08:20:24.500  -2191127.7297   5198842.9371   2965370.5710   1  23   0.0178   0.0302   0.0163  -0.0188   0.0181  -0.0126   0.50  999.9





2020/06/29 08:20:27.500  -2191127.7288   5198842.9354   2965370.5694   1  23   0.0178   0.0302   0.0162  -0.0188   0.0181  -0.0125   0.50  999.9





2020/06/29 08:20:30.500  -2191127.7288   5198842.9355   2965370.5703   1  23   0.0177   0.0302   0.0162  -0.0188   0.0181  -0.0125   0.50  999.9





2020/06/29 08:20:33.500  -2191127.7275   5198842.9334   2965370.5692   1  23   0.0177   0.0302   0.0162  -0.0188   0.0180  -0.0125   0.50  999.9





2020/06/29 08:20:36.500  -2191127.7299   5198842.9365   2965370.5707   1  23   0.0177   0.0302   0.0162  -0.0187   0.0180  -0.0125   0.50  999.9





2020/06/29 08:20:39.500  -2191127.7293   5198842.9352   2965370.5698   1  23   0.0177   0.0302   0.0162  -0.0187   0.0180  -0.0125   0.50  999.9





2020/06/29 08:20:42.500  -2191127.7294   5198842.9373   2965370.5707   1  23   0.0177   0.0301   0.0162  -0.0187   0.0180  -0.0125   0.50  999.9





2020/06/29 08:20:45.500  -2191127.7285   5198842.9361   2965370.5691   1  23   0.0177   0.0301   0.0162  -0.0187   0.0180  -0.0125   0.50  999.9





2020/06/29 08:20:48.500  -2191127.7290   5198842.9361   2965370.5697   1  23   0.0177   0.0301   0.0162  -0.0187   0.0180  -0.0125   0.50  999.9





2020/06/29 08:20:51.500  -2191127.7290   5198842.9352   2965370.5689   1  23   0.0177   0.0301   0.0162  -0.0187   0.0180  -0.0125   0.50  999.9





2020/06/29 08:20:54.500  -2191127.7296   5198842.9380   2965370.5701   1  23   0.0177   0.0301   0.0162  -0.0187   0.0180  -0.0125   0.50  999.9





2020/06/29 08:20:57.500  -2191127.7298   5198842.9374   2965370.5707   1  23   0.0177   0.0301   0.0162  -0.0187   0.0180  -0.0124   0.50  999.9





2020/06/29 08:21:00.500  -2191127.7296   5198842.9369   2965370.5696   1  23   0.0177   0.0301   0.0162  -0.0187   0.0180  -0.0124   0.50  999.9





2020/06/29 08:21:03.500  -2191127.7304   5198842.9376   2965370.5706   1  23   0.0181   0.0303   0.0164  -0.0191   0.0182  -0.0128   0.50  999.9





2020/06/29 08:21:06.500  -2191127.7305   5198842.9383   2965370.5711   1  23   0.0178   0.0302   0.0163  -0.0188   0.0181  -0.0126   0.50  999.9





2020/06/29 08:21:09.500  -2191127.7308   5198842.9377   2965370.5714   1  23   0.0185   0.0306   0.0165  -0.0195   0.0185  -0.0132   0.50  999.9





2020/06/29 08:21:12.500  -2191127.7298   5198842.9366   2965370.5701   1  23   0.0179   0.0302   0.0163  -0.0189   0.0181  -0.0126   0.50  999.9





2020/06/29 08:21:15.500  -2191127.7300   5198842.9369   2965370.5709   1  23   0.0178   0.0301   0.0162  -0.0188   0.0180  -0.0125   0.50  999.9





2020/06/29 08:21:18.500  -2191127.7309   5198842.9393   2965370.5709   1  23   0.0177   0.0301   0.0162  -0.0187   0.0180  -0.0125   0.50  999.9





2020/06/29 08:21:21.500  -2191127.7297   5198842.9367   2965370.5700   1  23   0.0177   0.0301   0.0162  -0.0187   0.0180  -0.0125   0.50  999.9





2020/06/29 08:21:24.500  -2191127.7297   5198842.9381   2965370.5695   1  23   0.0177   0.0301   0.0162  -0.0187   0.0179  -0.0124   0.50  999.9





2020/06/29 08:21:27.500  -2191127.7286   5198842.9358   2965370.5688   1  23   0.0177   0.0300   0.0162  -0.0187   0.0179  -0.0124   0.50  999.9





2020/06/29 08:21:30.500  -2191127.7300   5198842.9374   2965370.5700   1  23   0.0177   0.0300   0.0162  -0.0187   0.0179  -0.0124   0.50  999.9





2020/06/29 08:21:33.500  -2191127.7292   5198842.9360   2965370.5694   1  23   0.0185   0.0305   0.0165  -0.0194   0.0184  -0.0131   0.50  999.9





2020/06/29 08:21:36.500  -2191127.7290   5198842.9359   2965370.5687   1  23   0.0179   0.0301   0.0162  -0.0188   0.0180  -0.0126   0.50  999.9





2020/06/29 08:21:39.500  -2191127.7285   5198842.9357   2965370.5694   1  23   0.0178   0.0301   0.0162  -0.0187   0.0180  -0.0125   0.50  999.9





2020/06/29 08:21:42.500  -2191127.7302   5198842.9382   2965370.5693   1  23   0.0181   0.0303   0.0163  -0.0190   0.0181  -0.0127   0.50  999.9





2020/06/29 08:21:45.500  -2191127.7291   5198842.9358   2965370.5690   1  23   0.0181   0.0302   0.0163  -0.0190   0.0181  -0.0127   0.50  999.9





2020/06/29 08:21:48.500  -2191127.7315   5198842.9401   2965370.5703   1  23   0.0178   0.0301   0.0162  -0.0188   0.0180  -0.0125   0.50  999.9





2020/06/29 08:21:51.500  -2191127.7314   5198842.9375   2965370.5696   1  23   0.0177   0.0300   0.0162  -0.0187   0.0179  -0.0125   0.50  999.9





2020/06/29 08:21:54.500  -2191127.7304   5198842.9376   2965370.5706   1  23   0.0185   0.0305   0.0165  -0.0194   0.0184  -0.0131   0.50  999.9





2020/06/29 08:21:57.500  -2191127.7288   5198842.9359   2965370.5697   1  23   0.0179   0.0301   0.0162  -0.0188   0.0180  -0.0125   0.50  999.9





2020/06/29 08:22:00.500  -2191127.7303   5198842.9382   2965370.5699   1  23   0.0178   0.0300   0.0162  -0.0187   0.0179  -0.0124   0.50  999.9





2020/06/29 08:22:03.500  -2191127.7290   5198842.9350   2965370.5691   1  23   0.0177   0.0300   0.0161  -0.0186   0.0179  -0.0124   0.50  999.9





2020/06/29 08:22:06.500  -2191127.7299   5198842.9363   2965370.5692   1  23   0.0177   0.0300   0.0161  -0.0186   0.0179  -0.0124   0.50  999.9





2020/06/29 08:22:09.500  -2191127.7295   5198842.9368   2965370.5707   1  23   0.0177   0.0300   0.0161  -0.0186   0.0179  -0.0124   0.50  999.9





2020/06/29 08:22:12.500  -2191127.7296   5198842.9374   2965370.5698   1  23   0.0177   0.0300   0.0161  -0.0186   0.0178  -0.0124   0.50  999.9





2020/06/29 08:22:15.500  -2191127.7275   5198842.9356   2965370.5687   1  23   0.0177   0.0299   0.0161  -0.0186   0.0178  -0.0123   0.50  999.9





2020/06/29 08:22:18.500  -2191127.7285   5198842.9355   2965370.5693   1  23   0.0177   0.0299   0.0161  -0.0186   0.0178  -0.0123   0.50  999.9





2020/06/29 08:22:21.500  -2191127.7278   5198842.9353   2965370.5694   1  24   0.0175   0.0296   0.0155  -0.0184   0.0173  -0.0120   0.50   25.0





2020/06/29 08:22:24.500  -2191127.7273   5198842.9353   2965370.5686   1  24   0.0175   0.0296   0.0155  -0.0183   0.0173  -0.0120   0.50   59.1





2020/06/29 08:22:27.500  -2191127.7294   5198842.9372   2965370.5704   1  24   0.0175   0.0296   0.0155  -0.0183   0.0173  -0.0120   0.50   90.0





2020/06/29 08:22:30.500  -2191127.7283   5198842.9345   2965370.5686   1  24   0.0175   0.0296   0.0155  -0.0183   0.0173  -0.0120   0.50  120.1





2020/06/29 08:22:33.500  -2191127.7276   5198842.9363   2965370.5688   1  24   0.0179   0.0299   0.0156  -0.0187   0.0175  -0.0123   0.50  145.7





2020/06/29 08:22:36.500  -2191127.7277   5198842.9353   2965370.5695   1  24   0.0183   0.0301   0.0158  -0.0191   0.0178  -0.0126   0.50  168.1





2020/06/29 08:22:39.500  -2191127.7281   5198842.9354   2965370.5689   1  24   0.0177   0.0297   0.0155  -0.0185   0.0174  -0.0121   0.50   23.0





2020/06/29 08:22:42.500  -2191127.7273   5198842.9345   2965370.5697   1  24   0.0176   0.0297   0.0155  -0.0184   0.0173  -0.0120   0.50   65.4





2020/06/29 08:22:45.500  -2191127.7284   5198842.9349   2965370.5698   1  24   0.0176   0.0296   0.0155  -0.0184   0.0173  -0.0120   0.50  107.6





2020/06/29 08:22:48.500  -2191127.7270   5198842.9342   2965370.5679   1  24   0.0176   0.0296   0.0155  -0.0184   0.0173  -0.0120   0.50  143.4





2020/06/29 08:22:51.500  -2191127.7290   5198842.9385   2965370.5711   1  24   0.0176   0.0296   0.0155  -0.0183   0.0173  -0.0120   0.50  180.0





2020/06/29 08:22:54.500  -2191127.7285   5198842.9369   2965370.5703   1  24   0.0175   0.0296   0.0155  -0.0183   0.0173  -0.0119   0.50  215.3





2020/06/29 08:22:57.500  -2191127.7294   5198842.9370   2965370.5703   1  24   0.0175   0.0296   0.0155  -0.0183   0.0173  -0.0119   0.50  245.9





2020/06/29 08:23:00.500  -2191127.7289   5198842.9356   2965370.5700   1  24   0.0183   0.0300   0.0158  -0.0190   0.0177  -0.0126   0.50  274.8





2020/06/29 08:23:03.500  -2191127.7279   5198842.9373   2965370.5707   1  24   0.0177   0.0297   0.0155  -0.0185   0.0173  -0.0121   0.50  292.2





2020/06/29 08:23:06.500  -2191127.7278   5198842.9373   2965370.5704   1  24   0.0176   0.0296   0.0155  -0.0184   0.0173  -0.0120   0.50  313.4





2020/06/29 08:23:09.500  -2191127.7274   5198842.9353   2965370.5704   1  24   0.0176   0.0296   0.0155  -0.0183   0.0173  -0.0120   0.50  334.2





2020/06/29 08:23:12.500  -2191127.7282   5198842.9366   2965370.5706   1  24   0.0176   0.0296   0.0155  -0.0183   0.0173  -0.0119   0.50  356.1





2020/06/29 08:23:15.500  -2191127.7291   5198842.9366   2965370.5715   1  24   0.0175   0.0295   0.0155  -0.0183   0.0172  -0.0119   0.50  375.6





2020/06/29 08:23:18.500  -2191127.7283   5198842.9365   2965370.5706   1  24   0.0175   0.0295   0.0154  -0.0183   0.0172  -0.0119   0.50  398.2





2020/06/29 08:23:21.500  -2191127.7285   5198842.9376   2965370.5719   1  24   0.0175   0.0295   0.0154  -0.0183   0.0172  -0.0119   0.50  424.4





2020/06/29 08:23:24.500  -2191127.7290   5198842.9369   2965370.5714   1  24   0.0175   0.0295   0.0154  -0.0183   0.0172  -0.0119   0.50  454.3





2020/06/29 08:23:27.500  -2191127.7287   5198842.9366   2965370.5706   1  24   0.0175   0.0295   0.0154  -0.0183   0.0172  -0.0119   0.50  473.3





2020/06/29 08:23:30.500  -2191127.7301   5198842.9376   2965370.5708   1  24   0.0175   0.0295   0.0154  -0.0183   0.0172  -0.0119   0.50  492.9





2020/06/29 08:23:33.500  -2191127.7300   5198842.9380   2965370.5710   1  24   0.0183   0.0300   0.0157  -0.0190   0.0177  -0.0125   0.50  513.6





2020/06/29 08:23:36.500  -2191127.7314   5198842.9395   2965370.5728   1  24   0.0177   0.0296   0.0155  -0.0184   0.0173  -0.0120   0.50  530.5





2020/06/29 08:23:39.500  -2191127.7307   5198842.9398   2965370.5718   1  24   0.0176   0.0295   0.0154  -0.0183   0.0172  -0.0120   0.50  538.7





2020/06/29 08:23:42.500  -2191127.7310   5198842.9389   2965370.5724   1  24   0.0176   0.0295   0.0154  -0.0183   0.0172  -0.0119   0.50  558.0





2020/06/29 08:23:45.500  -2191127.7311   5198842.9391   2965370.5722   1  23   0.0191   0.0304   0.0160  -0.0197   0.0181  -0.0132   0.50  586.5





2020/06/29 08:23:48.500  -2191127.7321   5198842.9398   2965370.5716   1  24   0.0177   0.0296   0.0155  -0.0185   0.0173  -0.0121   0.50  611.8





2020/06/29 08:23:51.500  -2191127.7302   5198842.9378   2965370.5705   1  24   0.0176   0.0295   0.0154  -0.0183   0.0172  -0.0120   0.50  641.1





2020/06/29 08:23:54.500  -2191127.7310   5198842.9358   2965370.5695   1  24   0.0178   0.0296   0.0155  -0.0185   0.0173  -0.0121   0.50  665.5





2020/06/29 08:23:57.500  -2191127.7308   5198842.9381   2965370.5708   1  24   0.0176   0.0295   0.0154  -0.0183   0.0172  -0.0119   0.50  702.5





2020/06/29 08:24:00.500  -2191127.7318   5198842.9371   2965370.5705   1  24   0.0176   0.0295   0.0154  -0.0183   0.0172  -0.0119   0.50  715.4





2020/06/29 08:24:03.500  -2191127.7321   5198842.9370   2965370.5706   1  24   0.0175   0.0295   0.0154  -0.0182   0.0172  -0.0119   0.50  732.3





2020/06/29 08:24:06.500  -2191127.7326   5198842.9392   2965370.5718   1  24   0.0175   0.0295   0.0154  -0.0182   0.0171  -0.0119   0.50  748.6





2020/06/29 08:24:09.500  -2191127.7315   5198842.9384   2965370.5707   1  24   0.0175   0.0294   0.0154  -0.0182   0.0171  -0.0119   0.50  770.8





2020/06/29 08:24:12.500  -2191127.7316   5198842.9381   2965370.5711   1  25   0.0174   0.0292   0.0153  -0.0179   0.0170  -0.0117   0.50  791.9





2020/06/29 08:24:15.500  -2191127.7323   5198842.9373   2965370.5710   1  25   0.0173   0.0292   0.0153  -0.0179   0.0170  -0.0117   0.50  810.2





2020/06/29 08:24:18.500  -2191127.7320   5198842.9385   2965370.5707   1  25   0.0173   0.0291   0.0153  -0.0179   0.0169  -0.0117   0.50  823.3





2020/06/29 08:24:21.500  -2191127.7323   5198842.9387   2965370.5710   1  25   0.0173   0.0291   0.0153  -0.0179   0.0169  -0.0117   0.50  833.2





2020/06/29 08:24:24.500  -2191127.7313   5198842.9368   2965370.5699   1  25   0.0173   0.0291   0.0153  -0.0179   0.0169  -0.0117   0.50  851.1





2020/06/29 08:24:27.500  -2191127.7329   5198842.9388   2965370.5716   1  25   0.0181   0.0295   0.0156  -0.0186   0.0174  -0.0123   0.50  869.3





2020/06/29 08:24:30.500  -2191127.7322   5198842.9364   2965370.5698   1  25   0.0181   0.0295   0.0156  -0.0186   0.0174  -0.0123   0.50  876.8





2020/06/29 08:24:33.500  -2191127.7310   5198842.9363   2965370.5693   1  25   0.0181   0.0296   0.0156  -0.0186   0.0174  -0.0123   0.50  880.8





2020/06/29 08:24:36.500  -2191127.7308   5198842.9363   2965370.5689   1  25   0.0175   0.0292   0.0154  -0.0180   0.0170  -0.0118   0.50  884.6





2020/06/29 08:24:39.500  -2191127.7319   5198842.9359   2965370.5698   1  25   0.0174   0.0291   0.0154  -0.0180   0.0170  -0.0117   0.50  894.3





2020/06/29 08:24:42.500  -2191127.7306   5198842.9365   2965370.5701   1  25   0.0173   0.0291   0.0153  -0.0179   0.0169  -0.0117   0.50  891.1





2020/06/29 08:24:45.500  -2191127.7315   5198842.9383   2965370.5692   1  25   0.0173   0.0291   0.0153  -0.0179   0.0169  -0.0117   0.50  892.1





2020/06/29 08:24:48.500  -2191127.7307   5198842.9348   2965370.5688   1  25   0.0173   0.0291   0.0153  -0.0178   0.0169  -0.0117   0.50  887.3





2020/06/29 08:24:51.500  -2191127.7310   5198842.9355   2965370.5690   1  25   0.0173   0.0291   0.0153  -0.0178   0.0169  -0.0117   0.50  904.5





2020/06/29 08:24:54.500  -2191127.7304   5198842.9348   2965370.5694   1  25   0.0176   0.0292   0.0154  -0.0182   0.0171  -0.0119   0.50  922.4





2020/06/29 08:24:57.500  -2191127.7300   5198842.9353   2965370.5689   1  25   0.0174   0.0291   0.0153  -0.0179   0.0169  -0.0117   0.50  928.0





2020/06/29 08:25:00.500  -2191127.7309   5198842.9345   2965370.5691   1  25   0.0173   0.0291   0.0153  -0.0179   0.0169  -0.0117   0.50  930.2





2020/06/29 08:25:03.500  -2191127.7293   5198842.9346   2965370.5690   1  25   0.0173   0.0290   0.0153  -0.0178   0.0169  -0.0117   0.50  923.3





2020/06/29 08:25:06.500  -2191127.7290   5198842.9337   2965370.5691   1  25   0.0173   0.0290   0.0153  -0.0178   0.0169  -0.0117   0.50  913.6





2020/06/29 08:25:09.500  -2191127.7302   5198842.9351   2965370.5698   1  25   0.0173   0.0290   0.0153  -0.0178   0.0169  -0.0116   0.50  902.9





2020/06/29 08:25:12.500  -2191127.7292   5198842.9342   2965370.5692   1  25   0.0175   0.0291   0.0153  -0.0180   0.0170  -0.0118   0.50  893.4





2020/06/29 08:25:15.500  -2191127.7293   5198842.9343   2965370.5693   1  25   0.0174   0.0290   0.0153  -0.0179   0.0169  -0.0117   0.50  897.5





2020/06/29 08:25:18.500  -2191127.7279   5198842.9334   2965370.5690   1  25   0.0173   0.0290   0.0153  -0.0178   0.0169  -0.0117   0.50  904.3





2020/06/29 08:25:21.500  -2191127.7291   5198842.9331   2965370.5684   1  25   0.0173   0.0290   0.0153  -0.0178   0.0168  -0.0116   0.50  910.5





2020/06/29 08:25:24.500  -2191127.7290   5198842.9337   2965370.5696   1  25   0.0173   0.0290   0.0153  -0.0178   0.0168  -0.0116   0.50  908.2





2020/06/29 08:25:27.500  -2191127.7276   5198842.9329   2965370.5686   1  25   0.0173   0.0290   0.0152  -0.0178   0.0168  -0.0116   0.50  903.8





2020/06/29 08:25:30.500  -2191127.7282   5198842.9337   2965370.5684   1  25   0.0173   0.0290   0.0152  -0.0178   0.0168  -0.0116   0.50  902.4





2020/06/29 08:25:33.500  -2191127.7285   5198842.9335   2965370.5686   1  25   0.0172   0.0289   0.0152  -0.0177   0.0168  -0.0116   0.50  902.4





2020/06/29 08:25:36.500  -2191127.7290   5198842.9349   2965370.5698   1  25   0.0172   0.0289   0.0152  -0.0177   0.0168  -0.0116   0.50  894.6





2020/06/29 08:25:39.500  -2191127.7293   5198842.9351   2965370.5707   1  25   0.0172   0.0289   0.0152  -0.0177   0.0168  -0.0115   0.50  896.4





2020/06/29 08:25:42.500  -2191127.7276   5198842.9347   2965370.5698   1  25   0.0177   0.0292   0.0154  -0.0182   0.0170  -0.0120   0.50  897.7





2020/06/29 08:25:45.500  -2191127.7288   5198842.9342   2965370.5706   1  25   0.0180   0.0293   0.0155  -0.0184   0.0172  -0.0122   0.50  904.3





2020/06/29 08:25:48.500  -2191127.7287   5198842.9361   2965370.5708   1  25   0.0174   0.0290   0.0153  -0.0178   0.0169  -0.0117   0.50  905.9





2020/06/29 08:25:51.500  -2191127.7282   5198842.9352   2965370.5702   1  25   0.0173   0.0290   0.0153  -0.0178   0.0168  -0.0116   0.50  900.4





2020/06/29 08:25:54.500  -2191127.7288   5198842.9353   2965370.5704   1  25   0.0173   0.0289   0.0152  -0.0177   0.0168  -0.0116   0.50  901.7





2020/06/29 08:25:57.500  -2191127.7280   5198842.9357   2965370.5706   1  25   0.0173   0.0289   0.0152  -0.0177   0.0168  -0.0116   0.50  900.5





2020/06/29 08:26:00.500  -2191127.7282   5198842.9345   2965370.5708   1  25   0.0172   0.0289   0.0152  -0.0177   0.0167  -0.0115   0.50  899.7





2020/06/29 08:26:03.500  -2191127.7280   5198842.9320   2965370.5688   1  25   0.0172   0.0289   0.0152  -0.0177   0.0167  -0.0115   0.50  900.8





2020/06/29 08:26:06.500  -2191127.7289   5198842.9351   2965370.5710   1  25   0.0172   0.0289   0.0152  -0.0177   0.0167  -0.0115   0.50  901.7





2020/06/29 08:26:09.500  -2191127.7285   5198842.9344   2965370.5709   1  25   0.0176   0.0291   0.0153  -0.0180   0.0169  -0.0118   0.50  892.4





2020/06/29 08:26:12.500  -2191127.7269   5198842.9328   2965370.5697   1  25   0.0173   0.0289   0.0152  -0.0178   0.0168  -0.0116   0.50  880.8





2020/06/29 08:26:15.500  -2191127.7266   5198842.9320   2965370.5691   1  25   0.0173   0.0289   0.0152  -0.0177   0.0168  -0.0116   0.50  874.6





2020/06/29 08:26:18.500  -2191127.7277   5198842.9337   2965370.5699   1  25   0.0172   0.0289   0.0152  -0.0177   0.0167  -0.0115   0.50  865.1





2020/06/29 08:26:21.500  -2191127.7275   5198842.9340   2965370.5703   1  25   0.0172   0.0288   0.0152  -0.0177   0.0167  -0.0115   0.50  861.8





2020/06/29 08:26:24.500  -2191127.7286   5198842.9339   2965370.5699   1  25   0.0172   0.0288   0.0152  -0.0176   0.0167  -0.0115   0.50  859.6





2020/06/29 08:26:27.500  -2191127.7279   5198842.9352   2965370.5704   1  25   0.0174   0.0289   0.0153  -0.0178   0.0168  -0.0117   0.50  855.3





2020/06/29 08:26:30.500  -2191127.7273   5198842.9327   2965370.5702   1  25   0.0173   0.0289   0.0152  -0.0177   0.0167  -0.0116   0.50  854.7





2020/06/29 08:26:33.500  -2191127.7262   5198842.9330   2965370.5698   1  25   0.0173   0.0288   0.0152  -0.0177   0.0167  -0.0115   0.50  850.8





2020/06/29 08:26:36.500  -2191127.7280   5198842.9348   2965370.5716   1  25   0.0172   0.0288   0.0152  -0.0176   0.0167  -0.0115   0.50  848.5





2020/06/29 08:26:39.500  -2191127.7270   5198842.9335   2965370.5699   1  25   0.0172   0.0288   0.0152  -0.0176   0.0167  -0.0115   0.50  843.8





2020/06/29 08:26:42.500  -2191127.7272   5198842.9341   2965370.5704   1  25   0.0172   0.0288   0.0152  -0.0176   0.0167  -0.0115   0.50  844.4





2020/06/29 08:26:45.500  -2191127.7278   5198842.9350   2965370.5706   1  25   0.0172   0.0288   0.0152  -0.0176   0.0167  -0.0115   0.50  840.7





2020/06/29 08:26:48.500  -2191127.7268   5198842.9325   2965370.5710   1  25   0.0172   0.0288   0.0152  -0.0176   0.0167  -0.0115   0.50  837.6





2020/06/29 08:26:51.500  -2191127.7281   5198842.9340   2965370.5709   1  25   0.0172   0.0288   0.0152  -0.0176   0.0166  -0.0114   0.50  830.1





2020/06/29 08:26:54.500  -2191127.7270   5198842.9338   2965370.5705   1  25   0.0179   0.0291   0.0154  -0.0183   0.0171  -0.0121   0.50  829.1





2020/06/29 08:26:57.500  -2191127.7292   5198842.9353   2965370.5708   1  25   0.0173   0.0288   0.0152  -0.0177   0.0167  -0.0116   0.50  822.1





2020/06/29 08:27:00.500  -2191127.7280   5198842.9329   2965370.5709   1  25   0.0172   0.0288   0.0152  -0.0176   0.0167  -0.0115   0.50  816.3





2020/06/29 08:27:03.500  -2191127.7292   5198842.9340   2965370.5708   1  24   0.0187   0.0295   0.0157  -0.0189   0.0175  -0.0127   0.50  809.9





2020/06/29 08:27:06.500  -2191127.7285   5198842.9337   2965370.5709   1  25   0.0174   0.0289   0.0152  -0.0178   0.0167  -0.0117   0.50  803.1





2020/06/29 08:27:09.500  -2191127.7280   5198842.9323   2965370.5705   1  25   0.0173   0.0288   0.0152  -0.0176   0.0167  -0.0115   0.50  796.5





2020/06/29 08:27:12.500  -2191127.7275   5198842.9317   2965370.5695   1  25   0.0172   0.0287   0.0151  -0.0176   0.0166  -0.0115   0.50  792.8





2020/06/29 08:27:15.500  -2191127.7287   5198842.9320   2965370.5701   1  25   0.0172   0.0287   0.0151  -0.0176   0.0166  -0.0114   0.50  786.4





2020/06/29 08:27:18.500  -2191127.7301   5198842.9346   2965370.5718   1  25   0.0179   0.0291   0.0154  -0.0182   0.0170  -0.0120   0.50  779.9





2020/06/29 08:27:21.500  -2191127.7301   5198842.9324   2965370.5711   1  25   0.0173   0.0288   0.0152  -0.0177   0.0167  -0.0116   0.50  776.0





2020/06/29 08:27:24.500  -2191127.7287   5198842.9314   2965370.5705   1  25   0.0172   0.0287   0.0151  -0.0176   0.0166  -0.0115   0.50  772.8





2020/06/29 08:27:27.500  -2191127.7278   5198842.9322   2965370.5706   1  25   0.0172   0.0287   0.0151  -0.0176   0.0166  -0.0115   0.50  768.2





2020/06/29 08:27:30.500  -2191127.7295   5198842.9344   2965370.5713   1  24   0.0186   0.0295   0.0157  -0.0189   0.0174  -0.0127   0.50  765.4





2020/06/29 08:27:33.500  -2191127.7288   5198842.9333   2965370.5709   1  25   0.0174   0.0288   0.0152  -0.0177   0.0167  -0.0116   0.50  759.7





2020/06/29 08:27:36.500  -2191127.7275   5198842.9309   2965370.5712   1  24   0.0189   0.0310   0.0154  -0.0199   0.0176  -0.0124   0.50  750.6





2020/06/29 08:27:39.500  -2191127.7268   5198842.9356   2965370.5725   1  24   0.0184   0.0303   0.0153  -0.0193   0.0173  -0.0121   0.50  740.6





2020/06/29 08:27:42.500  -2191127.7353   5198842.9425   2965370.5727   1  25   0.0177   0.0294   0.0152  -0.0183   0.0169  -0.0117   0.50  733.7





2020/06/29 08:27:45.500  -2191127.7319   5198842.9391   2965370.5720   1  25   0.0180   0.0299   0.0152  -0.0188   0.0171  -0.0119   0.50  732.5





2020/06/29 08:27:48.500  -2191127.7258   5198842.9291   2965370.5695   1  25   0.0177   0.0294   0.0152  -0.0182   0.0169  -0.0117   0.50  728.9





2020/06/29 08:27:51.500  -2191127.7263   5198842.9297   2965370.5702   1  25   0.0173   0.0289   0.0151  -0.0177   0.0167  -0.0115   0.50  724.8





2020/06/29 08:27:54.500  -2191127.7270   5198842.9289   2965370.5684   1  25   0.0173   0.0288   0.0151  -0.0176   0.0166  -0.0114   0.50  722.9





2020/06/29 08:27:57.500  -2191127.7274   5198842.9304   2965370.5697   1  23   0.0202   0.0322   0.0158  -0.0214   0.0184  -0.0134   0.50  716.8





2020/06/29 08:28:00.500  -2191127.7375   5198842.9439   2965370.5772   1  23   0.0213   0.0329   0.0162  -0.0225   0.0190  -0.0142   0.50  716.8





2020/06/29 08:28:03.500  -2191127.7332   5198842.9374   2965370.5731   1  23   0.0194   0.0316   0.0155  -0.0206   0.0179  -0.0127   0.50  710.0





2020/06/29 08:28:06.500  -2191127.7329   5198842.9371   2965370.5675   1  23   0.0192   0.0315   0.0154  -0.0205   0.0178  -0.0126   0.50  713.7





2020/06/29 08:28:09.500  -2191127.7296   5198842.9333   2965370.5662   1  23   0.0193   0.0304   0.0158  -0.0198   0.0178  -0.0131   0.50  714.5





2020/06/29 08:28:12.500  -2191127.7384   5198842.9444   2965370.5699   1  25   0.0176   0.0291   0.0152  -0.0181   0.0168  -0.0117   0.50  716.1





2020/06/29 08:28:15.500  -2191127.7337   5198842.9374   2965370.5680   1  25   0.0178   0.0291   0.0153  -0.0181   0.0169  -0.0118   0.50  711.8





2020/06/29 08:28:18.500  -2191127.7265   5198842.9261   2965370.5705   1  24   0.0190   0.0300   0.0157  -0.0194   0.0176  -0.0129   0.50  704.6





2020/06/29 08:28:21.500  -2191127.7337   5198842.9358   2965370.5653   1  25   0.0181   0.0298   0.0153  -0.0188   0.0171  -0.0120   0.50  708.1





2020/06/29 08:28:24.500  -2191127.7321   5198842.9333   2965370.5649   1  25   0.0193   0.0312   0.0155  -0.0203   0.0177  -0.0126   0.50  707.9





2020/06/29 08:28:27.500  -2191127.7356   5198842.9418   2965370.5720   1  24   0.0202   0.0321   0.0158  -0.0214   0.0183  -0.0133   0.50  710.7





2020/06/29 08:28:30.500  -2191127.7295   5198842.9458   2965370.5656   1  25   0.0183   0.0295   0.0154  -0.0187   0.0171  -0.0122   0.50  730.9





2020/06/29 08:28:33.500  -2191127.7322   5198842.9710   2965370.5692   1  24   0.0190   0.0310   0.0154  -0.0200   0.0175  -0.0124   0.50  804.4





2020/06/29 08:28:36.500  -2191127.7436   5198842.9924   2965370.5741   1  25   0.0196   0.0317   0.0156  -0.0208   0.0180  -0.0129   0.50  889.4





2020/06/29 08:28:39.500  -2191127.7488   5198842.9988   2965370.5719   1  25   0.0176   0.0291   0.0152  -0.0180   0.0167  -0.0116   0.50  976.1





2020/06/29 08:28:42.500  -2191127.7532   5198843.0010   2965370.5762   1  25   0.0181   0.0292   0.0153  -0.0183   0.0170  -0.0120   0.50  999.9





2020/06/29 08:28:45.500  -2191127.7473   5198842.9929   2965370.5799   1  23   0.0207   0.0321   0.0160  -0.0217   0.0185  -0.0138   0.50  999.9





2020/06/29 08:28:48.500  -2191127.7503   5198842.9951   2965370.5834   1  25   0.0183   0.0299   0.0153  -0.0189   0.0171  -0.0120   0.50  999.9





2020/06/29 08:28:51.500  -2191127.7517   5198842.9976   2965370.5836   1  25   0.0181   0.0293   0.0153  -0.0184   0.0170  -0.0121   0.50  999.9





2020/06/29 08:28:54.500  -2191127.7494   5198842.9994   2965370.5809   1  23   0.0212   0.0328   0.0161  -0.0224   0.0189  -0.0141   0.50  999.9





2020/06/29 08:28:57.500  -2191127.7526   5198843.0035   2965370.5858   1  22   0.0213   0.0328   0.0161  -0.0224   0.0189  -0.0141   0.50  999.9





2020/06/29 08:29:00.500  -2191127.7547   5198843.0072   2965370.5877   1  22   0.0213   0.0328   0.0161  -0.0224   0.0189  -0.0141   0.50  999.9





2020/06/29 08:29:03.500  -2191127.7535   5198843.0061   2965370.5866   1  23   0.0197   0.0308   0.0158  -0.0203   0.0180  -0.0132   0.50  929.2





2020/06/29 08:29:06.500  -2191127.7451   5198843.0046   2965370.5830   1  24   0.0179   0.0294   0.0152  -0.0184   0.0169  -0.0118   0.50  843.3





2020/06/29 08:29:09.500  -2191127.7415   5198843.0150   2965370.5861   1  24   0.0177   0.0293   0.0152  -0.0182   0.0168  -0.0117   1.50  766.3





2020/06/29 08:29:12.500  -2191127.7335   5198843.0243   2965370.5862   1  24   0.0175   0.0291   0.0151  -0.0180   0.0167  -0.0116   0.50  694.0





2020/06/29 08:29:15.500  -2191127.7344   5198843.0251   2965370.5865   1  24   0.0175   0.0290   0.0151  -0.0179   0.0167  -0.0115   0.50  624.3





2020/06/29 08:29:18.500  -2191127.7352   5198843.0260   2965370.5854   1  24   0.0178   0.0292   0.0152  -0.0182   0.0169  -0.0118   0.50  564.1





2020/06/29 08:29:21.500  -2191127.7357   5198843.0274   2965370.5878   1  24   0.0182   0.0294   0.0154  -0.0185   0.0171  -0.0121   0.50  509.8





2020/06/29 08:29:24.500  -2191127.7355   5198843.0284   2965370.5887   1  24   0.0176   0.0291   0.0151  -0.0180   0.0167  -0.0116   0.50  461.2





2020/06/29 08:29:27.500  -2191127.7359   5198843.0275   2965370.5886   1  24   0.0182   0.0294   0.0154  -0.0185   0.0170  -0.0121   0.50  419.3





2020/06/29 08:29:30.500  -2191127.7329   5198843.0236   2965370.5872   1  24   0.0176   0.0290   0.0151  -0.0180   0.0167  -0.0116   0.50  383.4





2020/06/29 08:29:33.500  -2191127.7352   5198843.0228   2965370.5879   1  24   0.0194   0.0309   0.0156  -0.0202   0.0177  -0.0128   0.50  351.4





2020/06/29 08:29:36.500  -2191127.7382   5198843.0280   2965370.5893   1  25   0.0178   0.0291   0.0152  -0.0182   0.0168  -0.0118   0.50  322.3





2020/06/29 08:29:39.500  -2191127.7374   5198843.0277   2965370.5892   1  25   0.0187   0.0294   0.0156  -0.0189   0.0173  -0.0126   0.50  296.6





2020/06/29 08:29:42.500  -2191127.7381   5198843.0272   2965370.5898   1  25   0.0180   0.0293   0.0153  -0.0184   0.0169  -0.0119   0.50  274.0





2020/06/29 08:29:45.500  -2191127.7555   5198843.0128   2965370.5778   1  25   0.0190   0.0303   0.0155  -0.0196   0.0175  -0.0125   0.50  254.8





2020/06/29 08:29:48.500  -2191127.7467   5198843.0078   2965370.5773   1  25   0.0175   0.0289   0.0151  -0.0179   0.0166  -0.0116   0.50  238.0





2020/06/29 08:29:51.500  -2191127.7466   5198843.0041   2965370.5813   1  25   0.0182   0.0298   0.0152  -0.0188   0.0170  -0.0119   0.50  221.6





2020/06/29 08:29:54.500  -2191127.7411   5198843.0042   2965370.5785   1  25   0.0177   0.0289   0.0151  -0.0180   0.0167  -0.0117   0.50  207.0





2020/06/29 08:29:57.500  -2191127.7424   5198843.0022   2965370.5790   1  25   0.0173   0.0287   0.0151  -0.0176   0.0165  -0.0114   0.50  194.5





2020/06/29 08:30:00.500  -2191127.7454   5198843.0091   2965370.5816   1  24   0.0187   0.0307   0.0152  -0.0197   0.0173  -0.0121   0.50  182.3





2020/06/29 08:30:03.500  -2191127.7484   5198843.0127   2965370.5845   1  23   0.0206   0.0319   0.0159  -0.0215   0.0184  -0.0136   0.50  171.2





2020/06/29 08:30:06.500  -2191127.7487   5198843.0119   2965370.5822   1  25   0.0182   0.0297   0.0152  -0.0188   0.0169  -0.0119   0.50  161.7





2020/06/29 08:30:09.500  -2191127.7490   5198843.0095   2965370.5813   1  25   0.0174   0.0288   0.0150  -0.0177   0.0165  -0.0114   0.50  153.0





2020/06/29 08:30:12.500  -2191127.7492   5198843.0113   2965370.5839   1  25   0.0189   0.0301   0.0154  -0.0194   0.0173  -0.0124   0.50  145.1





2020/06/29 08:30:15.500  -2191127.7474   5198843.0085   2965370.5824   1  25   0.0175   0.0288   0.0151  -0.0178   0.0165  -0.0115   0.50  137.8





2020/06/29 08:30:18.500  -2191127.7476   5198843.0082   2965370.5819   1  25   0.0173   0.0286   0.0150  -0.0175   0.0164  -0.0113   0.50  131.2





2020/06/29 08:30:21.500  -2191127.7473   5198843.0065   2965370.5803   1  25   0.0172   0.0285   0.0150  -0.0174   0.0164  -0.0113   0.50  125.4





2020/06/29 08:30:24.500  -2191127.7472   5198843.0063   2965370.5798   1  25   0.0171   0.0284   0.0150  -0.0173   0.0163  -0.0112   0.50  119.9





2020/06/29 08:30:27.500  -2191127.7463   5198843.0058   2965370.5793   1  25   0.0171   0.0284   0.0150  -0.0173   0.0163  -0.0112   0.50  115.0





2020/06/29 08:30:30.500  -2191127.7467   5198843.0070   2965370.5801   1  25   0.0171   0.0284   0.0150  -0.0173   0.0163  -0.0112   0.50  110.4





2020/06/29 08:30:33.500  -2191127.7476   5198843.0067   2965370.5809   1  25   0.0171   0.0284   0.0149  -0.0172   0.0163  -0.0112   0.50  106.1





2020/06/29 08:30:36.500  -2191127.7447   5198843.0042   2965370.5787   1  25   0.0170   0.0283   0.0149  -0.0172   0.0163  -0.0112   0.50  102.1





2020/06/29 08:30:39.500  -2191127.7459   5198843.0058   2965370.5802   1  25   0.0170   0.0283   0.0149  -0.0172   0.0163  -0.0111   0.50   98.3





2020/06/29 08:30:42.500  -2191127.7467   5198843.0078   2965370.5808   1  25   0.0174   0.0285   0.0151  -0.0175   0.0164  -0.0115   0.50   94.6





2020/06/29 08:30:45.500  -2191127.7468   5198843.0074   2965370.5804   1  25   0.0177   0.0287   0.0152  -0.0178   0.0166  -0.0118   0.50   91.3





2020/06/29 08:30:48.500  -2191127.7464   5198843.0077   2965370.5813   1  25   0.0172   0.0284   0.0150  -0.0173   0.0163  -0.0113   0.50   88.1





2020/06/29 08:30:51.500  -2191127.7450   5198843.0050   2965370.5795   1  25   0.0171   0.0283   0.0149  -0.0172   0.0163  -0.0112   0.50   85.1





2020/06/29 08:30:54.500  -2191127.7429   5198843.0061   2965370.5803   1  25   0.0171   0.0283   0.0149  -0.0172   0.0163  -0.0112   0.50   82.3





2020/06/29 08:30:57.500  -2191127.7512   5198843.0120   2965370.5810   1  25   0.0179   0.0294   0.0150  -0.0184   0.0167  -0.0116   0.50   79.8





2020/06/29 08:31:00.500  -2191127.7894   5198842.9989   2965370.5825   1  24   0.0186   0.0305   0.0151  -0.0195   0.0171  -0.0120   0.50   77.3





2020/06/29 08:31:03.500  -2191127.7863   5198843.0021   2965370.5837   1  25   0.0185   0.0299   0.0151  -0.0191   0.0170  -0.0120   0.50   81.5





2020/06/29 08:31:06.500  -2191127.7871   5198843.0030   2965370.5828   1  24   0.0187   0.0296   0.0152  -0.0190   0.0170  -0.0121   0.50   78.7





2020/06/29 08:31:09.500  -2191127.7894   5198843.0050   2965370.5839   1  24   0.0186   0.0294   0.0152  -0.0188   0.0169  -0.0120   0.50   76.1





2020/06/29 08:31:12.500  -2191127.7922   5198843.0047   2965370.5834   1  24   0.0191   0.0308   0.0152  -0.0200   0.0173  -0.0122   0.50   73.7





2020/06/29 08:31:15.500  -2191127.7920   5198843.0053   2965370.5837   1  23   0.0205   0.0319   0.0155  -0.0215   0.0179  -0.0130   0.50   71.3





2020/06/29 08:31:18.500  -2191127.7932   5198843.0063   2965370.5842   1  25   0.0192   0.0299   0.0154  -0.0195   0.0173  -0.0126   0.50   69.2





2020/06/29 08:31:21.500  -2191127.7964   5198843.0086   2965370.5846   1  24   0.0191   0.0308   0.0152  -0.0200   0.0173  -0.0123   0.50   67.3





2020/06/29 08:31:24.500  -2191127.8002   5198843.0154   2965370.5847   1  24   0.0207   0.0320   0.0155  -0.0216   0.0180  -0.0132   0.50   65.7





2020/06/29 08:31:27.500  -2191127.8012   5198843.0149   2965370.5859   1  24   0.0190   0.0307   0.0152  -0.0199   0.0172  -0.0122   0.50   64.1





2020/06/29 08:31:30.500  -2191127.8010   5198843.0149   2965370.5852   1  24   0.0188   0.0306   0.0152  -0.0197   0.0171  -0.0121   0.50   62.7





2020/06/29 08:31:33.500  -2191127.8019   5198843.0163   2965370.5861   1  24   0.0187   0.0305   0.0151  -0.0196   0.0171  -0.0120   0.50   61.3





2020/06/29 08:31:36.500  -2191127.7994   5198843.0136   2965370.5840   1  24   0.0190   0.0307   0.0152  -0.0198   0.0172  -0.0122   0.50   60.0





2020/06/29 08:31:39.500  -2191127.7979   5198843.0129   2965370.5844   1  24   0.0188   0.0306   0.0152  -0.0196   0.0171  -0.0121   0.50   58.7





2020/06/29 08:31:42.500  -2191127.7765   5198843.0255   2965370.5858   1  24   0.0196   0.0303   0.0156  -0.0199   0.0176  -0.0129   0.50   57.5





2020/06/29 08:31:45.500  -2191127.7688   5198843.0245   2965370.5865   1  24   0.0196   0.0310   0.0154  -0.0204   0.0176  -0.0127   0.50   56.3





2020/06/29 08:31:48.500  -2191127.7558   5198843.0205   2965370.5887   1  25   0.0189   0.0306   0.0152  -0.0197   0.0171  -0.0121   0.50   54.8





2020/06/29 08:31:51.500  -2191127.7568   5198843.0239   2965370.5908   1  25   0.0177   0.0290   0.0152  -0.0178   0.0167  -0.0115   0.50   53.4





2020/06/29 08:31:54.500  -2191127.7575   5198843.0253   2965370.5903   1  24   0.0206   0.0317   0.0158  -0.0213   0.0182  -0.0135   0.50   52.1





2020/06/29 08:31:57.500  -2191127.7659   5198843.0283   2965370.5878   1  24   0.0189   0.0306   0.0152  -0.0197   0.0172  -0.0121   0.50   51.1





2020/06/29 08:32:00.500  -2191127.7673   5198843.0301   2965370.5896   1  25   0.0174   0.0287   0.0150  -0.0176   0.0164  -0.0113   0.50   50.2





2020/06/29 08:32:03.500  -2191127.7669   5198843.0303   2965370.5895   1  25   0.0172   0.0284   0.0149  -0.0173   0.0163  -0.0112   0.50   49.3





2020/06/29 08:32:06.500  -2191127.7653   5198843.0306   2965370.5889   1  24   0.0185   0.0290   0.0154  -0.0185   0.0170  -0.0123   0.50   48.4





2020/06/29 08:32:09.500  -2191127.7641   5198843.0293   2965370.5892   1  23   0.0209   0.0321   0.0155  -0.0218   0.0181  -0.0133   0.50   47.4





2020/06/29 08:32:12.500  -2191127.7548   5198843.0222   2965370.5900   1  25   0.0183   0.0293   0.0151  -0.0185   0.0168  -0.0119   0.50   46.3





2020/06/29 08:32:15.500  -2191127.7542   5198843.0282   2965370.5864   1  25   0.0181   0.0289   0.0151  -0.0182   0.0167  -0.0118   0.50   45.4





2020/06/29 08:32:18.500  -2191127.7414   5198843.0363   2965370.5828   1  24   0.0179   0.0291   0.0151  -0.0182   0.0166  -0.0116   0.50   44.6





2020/06/29 08:32:21.500  -2191127.7432   5198843.0433   2965370.5844   1  24   0.0177   0.0290   0.0150  -0.0180   0.0166  -0.0115   0.50   43.8





2020/06/29 08:32:24.500  -2191127.7439   5198843.0425   2965370.5837   1  24   0.0176   0.0289   0.0150  -0.0179   0.0165  -0.0114   0.50   43.0





2020/06/29 08:32:27.500  -2191127.7447   5198843.0435   2965370.5846   1  24   0.0175   0.0288   0.0150  -0.0178   0.0165  -0.0114   0.50   42.2





2020/06/29 08:32:30.500  -2191127.7439   5198843.0443   2965370.5846   1  24   0.0175   0.0288   0.0149  -0.0177   0.0164  -0.0113   0.50   41.5





2020/06/29 08:32:33.500  -2191127.7437   5198843.0425   2965370.5828   1  24   0.0174   0.0288   0.0149  -0.0177   0.0164  -0.0113   0.50   40.8





2020/06/29 08:32:36.500  -2191127.7418   5198843.0419   2965370.5812   1  25   0.0184   0.0292   0.0151  -0.0186   0.0168  -0.0119   0.50   40.2





2020/06/29 08:32:39.500  -2191127.7442   5198843.0458   2965370.5831   1  25   0.0181   0.0295   0.0150  -0.0186   0.0167  -0.0116   0.50   39.6





2020/06/29 08:32:42.500  -2191127.7464   5198843.0495   2965370.5838   1  25   0.0177   0.0291   0.0150  -0.0181   0.0165  -0.0115   0.50   39.0





2020/06/29 08:32:45.500  -2191127.7469   5198843.0509   2965370.5845   1  25   0.0180   0.0294   0.0150  -0.0184   0.0166  -0.0115   0.50   38.4





2020/06/29 08:32:48.500  -2191127.7474   5198843.0513   2965370.5849   1  25   0.0173   0.0285   0.0149  -0.0174   0.0163  -0.0112   0.50   37.8





2020/06/29 08:32:51.500  -2191127.7446   5198843.0472   2965370.5830   1  25   0.0179   0.0293   0.0149  -0.0183   0.0165  -0.0115   0.50   37.3





2020/06/29 08:32:54.500  -2191127.7629   5198843.0362   2965370.5829   1  25   0.0172   0.0284   0.0149  -0.0173   0.0162  -0.0111   0.50   36.8





2020/06/29 08:32:57.500  -2191127.7689   5198843.0446   2965370.5883   1  25   0.0171   0.0283   0.0148  -0.0172   0.0161  -0.0111   0.50   36.2





2020/06/29 08:33:00.500  -2191127.7652   5198843.0321   2965370.5873   1  24   0.0195   0.0302   0.0155  -0.0198   0.0174  -0.0128   0.50   35.7





2020/06/29 08:33:03.500  -2191127.7640   5198843.0271   2965370.5890   1  25   0.0187   0.0291   0.0154  -0.0186   0.0170  -0.0123   0.50   35.3





