% ref pos   : -2191136.5960  5198839.0050  2965370.9860
%  UTC                       x-ecef(m)      y-ecef(m)      z-ecef(m)   Q  ns   sdx(m)   sdy(m)   sdz(m)  sdxy(m)  sdyz(m)  sdzx(m) age(s)  ratio
2020/06/29 09:02:04.500  -2191127.8373   5198843.8177   2965371.3556   2  27   2.3075   3.8579   2.1168  -2.1840   2.1283  -1.4120  -0.50    0.0
2020/06/29 09:02:05.000  -2191127.8344   5198843.8078   2965371.2420   2  27   2.0604   3.4466   1.8848  -1.9251   1.8991  -1.2466   0.00    0.0
2020/06/29 09:02:05.500  -2191127.8223   5198843.7795   2965371.1515   2  27   1.8789   3.1442   1.7154  -1.7396   1.7311  -1.1278   0.50    0.0
2020/06/29 09:02:06.000  -2191127.7973   5198843.7239   2965371.0526   2  27   1.7383   2.9094   1.5847  -1.5983   1.6009  -1.0372   0.00    0.0
2020/06/29 09:02:06.500  -2191127.7759   5198843.6888   2965370.9700   2  27   1.6251   2.7202   1.4798  -1.4861   1.4961  -0.9651   0.50    0.0
2020/06/29 09:02:07.000  -2191127.7713   5198843.6666   2965370.9084   2  27   1.5314   2.5633   1.3932  -1.3942   1.4093  -0.9061   0.00    0.0
2020/06/29 09:02:07.500  -2191127.7560   5198843.6429   2965370.8542   2  27   1.4522   2.4304   1.3201  -1.3171   1.3358  -0.8564   0.50    0.0
2020/06/29 09:02:08.000  -2191127.7626   5198843.6616   2965370.8308   2  27   1.3840   2.3159   1.2573  -1.2511   1.2725  -0.8140   0.00    0.0
2020/06/29 09:02:08.500  -2191127.7681   5198843.6962   2965370.8264   2  27   1.3245   2.2157   1.2025  -1.1938   1.2171  -0.7771   0.50    0.0
2020/06/29 09:02:09.000  -2191127.7721   5198843.7208   2965370.8207   2  26   1.2786   2.1289   1.1560  -1.1483   1.1706  -0.7503   0.00    0.0
2020/06/29 09:02:09.500  -2191127.7731   5198843.7272   2965370.8181   2  26   1.2371   2.0511   1.1144  -1.1073   1.1288  -0.7260   0.50    0.0
2020/06/29 09:02:10.000  -2191127.7261   5198843.6867   2965370.7933   2  27   1.1795   1.9775   1.0726  -1.0584   1.0858  -0.6890   0.00    0.0
2020/06/29 09:02:10.500  -2191127.7133   5198843.6608   2965370.7810   2  27   1.1417   1.9126   1.0375  -1.0220   1.0500  -0.6656   0.50    0.0
2020/06/29 09:02:11.000  -2191127.7044   5198843.6186   2965370.7697   2  27   1.1072   1.8534   1.0055  -0.9887   1.0172  -0.6443   0.00    0.0
2020/06/29 09:02:11.500  -2191127.6937   5198843.5656   2965370.7551   2  27   1.0756   1.7990   0.9761  -0.9582   0.9871  -0.6247   0.50    0.0
2020/06/29 09:02:12.000  -2191127.6884   5198843.5429   2965370.7570   2  27   1.0464   1.7487   0.9490  -0.9301   0.9593  -0.6067   0.00    0.0
2020/06/29 09:02:12.500  -2191127.6841   5198843.5300   2965370.7642   2  27   1.0194   1.7021   0.9239  -0.9041   0.9334  -0.5900   0.50    0.0
2020/06/29 09:02:13.000  -2191127.6860   5198843.5280   2965370.7797   2  27   0.9943   1.6586   0.9006  -0.8798   0.9093  -0.5744   0.00    0.0
2020/06/29 09:02:13.500  -2191127.6861   5198843.5333   2965370.7991   2  27   0.9709   1.6179   0.8789  -0.8571   0.8868  -0.5599   0.50    0.0
2020/06/29 09:02:14.000  -2191127.6866   5198843.5379   2965370.8107   2  27   0.9490   1.5797   0.8585  -0.8358   0.8656  -0.5463   0.00    0.0
2020/06/29 09:02:14.500  -2191127.6793   5198843.5146   2965370.8125   2  27   0.9284   1.5438   0.8393  -0.8158   0.8457  -0.5335   0.50    0.0
2020/06/29 09:02:15.000  -2191127.6681   5198843.4909   2965370.8086   2  27   0.9090   1.5099   0.8212  -0.7969   0.8269  -0.5214   0.00    0.0
2020/06/29 09:02:15.500  -2191127.6581   5198843.4611   2965370.8033   2  27   0.8907   1.4777   0.8042  -0.7790   0.8090  -0.5100   0.50    0.0
2020/06/29 09:02:16.000  -2191127.6502   5198843.4567   2965370.8045   2  27   0.8734   1.4472   0.7880  -0.7620   0.7921  -0.4992   0.00    0.0
2020/06/29 09:02:16.500  -2191127.6438   5198843.4526   2965370.8015   2  27   0.8569   1.4182   0.7727  -0.7458   0.7759  -0.4889   0.50    0.0
2020/06/29 09:02:17.000  -2191127.6370   5198843.4505   2965370.7981   2  27   0.8413   1.3906   0.7581  -0.7303   0.7606  -0.4791   0.00    0.0
2020/06/29 09:02:17.500  -2191127.6359   5198843.4503   2965370.7974   2  27   0.8265   1.3642   0.7442  -0.7156   0.7459  -0.4697   0.50    0.0
2020/06/29 09:02:18.000  -2191127.6289   5198843.4416   2965370.7971   2  27   0.8123   1.3389   0.7309  -0.7015   0.7318  -0.4607   0.00    0.0
2020/06/29 09:02:18.500  -2191127.6241   5198843.4390   2965370.8002   2  27   0.7988   1.3147   0.7182  -0.6879   0.7183  -0.4522   0.50    0.0
2020/06/29 09:02:19.000  -2191127.6264   5198843.4438   2965370.8079   2  26   0.7874   1.2918   0.7064  -0.6760   0.7059  -0.4453   0.00    0.0
2020/06/29 09:02:19.500  -2191127.6314   5198843.4499   2965370.8206   2  26   0.7764   1.2698   0.6951  -0.6645   0.6939  -0.4386   0.50    0.0
2020/06/29 09:02:20.000  -2191127.6326   5198843.4649   2965370.8304   2  27   0.7610   1.2479   0.6833  -0.6507   0.6812  -0.4285   0.00    0.0
2020/06/29 09:02:20.500  -2191127.6289   5198843.4693   2965370.8388   2  27   0.7496   1.2271   0.6725  -0.6390   0.6696  -0.4212   0.50    0.0
2020/06/29 09:02:21.000  -2191127.6257   5198843.4709   2965370.8433   2  27   0.7386   1.2071   0.6621  -0.6278   0.6584  -0.4141   0.00    0.0
2020/06/29 09:02:21.500  -2191127.6238   5198843.4704   2965370.8470   2  27   0.7281   1.1878   0.6521  -0.6169   0.6476  -0.4072   0.50    0.0
2020/06/29 09:02:22.000  -2191127.6218   5198843.4707   2965370.8502   2  27   0.7179   1.1691   0.6424  -0.6063   0.6371  -0.4006   0.00    0.0
2020/06/29 09:02:22.500  -2191127.6166   5198843.4613   2965370.8483   2  27   0.7081   1.1510   0.6330  -0.5961   0.6270  -0.3942   0.50    0.0
2020/06/29 09:02:23.000  -2191127.6116   5198843.4568   2965370.8450   2  27   0.6986   1.1335   0.6240  -0.5862   0.6172  -0.3880   0.00    0.0
2020/06/29 09:02:23.500  -2191127.6071   5198843.4553   2965370.8392   2  27   0.6894   1.1165   0.6152  -0.5765   0.6076  -0.3820   0.50    0.0
2020/06/29 09:02:24.000  -2191127.6054   5198843.4637   2965370.8463   2  27   0.6805   1.1000   0.6067  -0.5672   0.5984  -0.3761   0.00    0.0
2020/06/29 09:02:24.500  -2191127.6032   5198843.4634   2965370.8473   2  27   0.6719   1.0840   0.5985  -0.5581   0.5894  -0.3704   0.50    0.0
2020/06/29 09:02:25.000  -2191127.5999   5198843.4509   2965370.8402   2  27   0.6636   1.0684   0.5905  -0.5492   0.5806  -0.3649   0.00    0.0
2020/06/29 09:02:25.500  -2191127.5911   5198843.4293   2965370.8286   2  27   0.6556   1.0532   0.5827  -0.5406   0.5721  -0.3595   0.50    0.0
2020/06/29 09:02:26.000  -2191127.5858   5198843.4208   2965370.8240   2  27   0.6477   1.0385   0.5752  -0.5321   0.5638  -0.3543   0.00    0.0
2020/06/29 09:02:26.500  -2191127.5812   5198843.4125   2965370.8188   2  27   0.6401   1.0241   0.5678  -0.5239   0.5557  -0.3492   0.50    0.0
2020/06/29 09:02:27.000  -2191127.5847   5198843.4188   2965370.8244   2  27   0.6327   1.0101   0.5607  -0.5159   0.5478  -0.3443   0.00    0.0
2020/06/29 09:02:27.500  -2191127.5807   5198843.4176   2965370.8242   2  27   0.6256   0.9964   0.5537  -0.5081   0.5401  -0.3394   0.50    0.0
2020/06/29 09:02:28.000  -2191127.5805   5198843.4189   2965370.8284   2  27   0.6186   0.9831   0.5469  -0.5004   0.5326  -0.3347   0.00    0.0
2020/06/29 09:02:28.500  -2191127.5839   5198843.4285   2965370.8370   2  27   0.6118   0.9701   0.5403  -0.4929   0.5253  -0.3301   0.50    0.0
2020/06/29 09:02:29.000  -2191127.5793   5198843.4306   2965370.8347   2  27   0.6052   0.9574   0.5338  -0.4856   0.5181  -0.3256   0.00    0.0
2020/06/29 09:02:29.500  -2191127.5740   5198843.4223   2965370.8288   2  27   0.5987   0.9450   0.5275  -0.4784   0.5111  -0.3212   0.50    0.0
2020/06/29 09:02:30.000  -2191127.7350   5198842.9414   2965370.5789   1  27   0.0159   0.0275   0.0144  -0.0145   0.0150  -0.0094   0.00   15.1
2020/06/29 09:02:30.500  -2191127.7353   5198842.9395   2965370.5767   1  27   0.0159   0.0275   0.0144  -0.0145   0.0150  -0.0094   0.50   14.9
2020/06/29 09:02:31.000  -2191127.7336   5198842.9389   2965370.5783   1  27   0.0159   0.0275   0.0144  -0.0145   0.0150  -0.0094   0.00   15.1
2020/06/29 09:02:31.500  -2191127.7354   5198842.9404   2965370.5777   1  27   0.0159   0.0275   0.0144  -0.0145   0.0150  -0.0093   0.50   14.9
2020/06/29 09:02:32.000  -2191127.7347   5198842.9404   2965370.5781   1  27   0.0159   0.0274   0.0144  -0.0145   0.0150  -0.0093   0.00   14.8
2020/06/29 09:02:32.500  -2191127.7349   5198842.9384   2965370.5771   1  27   0.0159   0.0274   0.0144  -0.0145   0.0150  -0.0093   0.50   14.7
2020/06/29 09:02:33.000  -2191127.7335   5198842.9394   2965370.5764   1  27   0.0159   0.0274   0.0144  -0.0145   0.0150  -0.0093   0.00   14.7
2020/06/29 09:02:33.500  -2191127.7334   5198842.9393   2965370.5766   1  27   0.0159   0.0274   0.0144  -0.0145   0.0150  -0.0093   0.50   14.5
2020/06/29 09:02:34.000  -2191127.7363   5198842.9397   2965370.5773   1  27   0.0158   0.0274   0.0144  -0.0145   0.0150  -0.0093   0.00   14.4
2020/06/29 09:02:34.500  -2191127.7351   5198842.9386   2965370.5787   1  27   0.0159   0.0274   0.0143  -0.0145   0.0150  -0.0093   0.50   14.4
2020/06/29 09:02:35.000  -2191127.7350   5198842.9398   2965370.5789   1  27   0.0158   0.0274   0.0144  -0.0145   0.0150  -0.0093   0.00   14.5
2020/06/29 09:02:35.500  -2191127.7350   5198842.9396   2965370.5781   1  27   0.0158   0.0274   0.0144  -0.0145   0.0150  -0.0093   0.50   14.5
2020/06/29 09:02:36.000  -2191127.7365   5198842.9391   2965370.5777   1  27   0.0158   0.0274   0.0143  -0.0144   0.0150  -0.0093   0.00   14.6
2020/06/29 09:02:36.500  -2191127.7346   5198842.9368   2965370.5765   1  27   0.0158   0.0274   0.0144  -0.0144   0.0150  -0.0093   0.50   14.7
2020/06/29 09:02:37.000  -2191127.7349   5198842.9414   2965370.5796   1  27   0.0158   0.0273   0.0143  -0.0144   0.0150  -0.0093   0.00   14.8
2020/06/29 09:02:37.500  -2191127.7339   5198842.9387   2965370.5774   1  27   0.0158   0.0273   0.0143  -0.0144   0.0150  -0.0093   0.50   15.0
2020/06/29 09:02:38.000  -2191127.7324   5198842.9390   2965370.5766   1  27   0.0158   0.0273   0.0143  -0.0144   0.0149  -0.0093   0.00   15.4
2020/06/29 09:02:38.500  -2191127.7344   5198842.9380   2965370.5772   1  27   0.0158   0.0273   0.0143  -0.0144   0.0150  -0.0093   0.50   15.7
2020/06/29 09:02:39.000  -2191127.7340   5198842.9378   2965370.5774   1  27   0.0158   0.0273   0.0143  -0.0144   0.0149  -0.0093   0.00   16.0
2020/06/29 09:02:39.500  -2191127.7350   5198842.9365   2965370.5764   1  27   0.0158   0.0273   0.0143  -0.0144   0.0149  -0.0093   0.50   16.5
2020/06/29 09:02:40.000  -2191127.7336   5198842.9386   2965370.5783   1  27   0.0158   0.0273   0.0143  -0.0144   0.0149  -0.0093   0.00   16.9
2020/06/29 09:02:40.500  -2191127.7338   5198842.9388   2965370.5788   1  27   0.0158   0.0273   0.0143  -0.0144   0.0149  -0.0093   0.50   17.5
2020/06/29 09:02:41.000  -2191127.7341   5198842.9382   2965370.5779   1  27   0.0158   0.0273   0.0143  -0.0144   0.0149  -0.0093   0.00   17.5
2020/06/29 09:02:41.500  -2191127.7332   5198842.9366   2965370.5769   1  27   0.0158   0.0273   0.0143  -0.0144   0.0149  -0.0093   0.50   17.7
2020/06/29 09:02:42.000  -2191127.7340   5198842.9385   2965370.5782   1  27   0.0158   0.0273   0.0143  -0.0144   0.0149  -0.0093   0.00   18.1
2020/06/29 09:02:42.500  -2191127.7348   5198842.9394   2965370.5795   1  27   0.0158   0.0273   0.0143  -0.0144   0.0149  -0.0093   0.50   18.5
2020/06/29 09:02:43.000  -2191127.7347   5198842.9393   2965370.5776   1  27   0.0158   0.0272   0.0143  -0.0144   0.0149  -0.0093   0.00   18.8
2020/06/29 09:02:43.500  -2191127.7354   5198842.9373   2965370.5774   1  27   0.0158   0.0272   0.0143  -0.0144   0.0149  -0.0093   0.50   19.1
2020/06/29 09:02:44.000  -2191127.7337   5198842.9392   2965370.5775   1  27   0.0158   0.0272   0.0143  -0.0144   0.0149  -0.0093   0.00   19.9
2020/06/29 09:02:44.500  -2191127.7329   5198842.9368   2965370.5772   1  27   0.0158   0.0272   0.0143  -0.0144   0.0149  -0.0093   0.50   20.5
2020/06/29 09:02:45.000  -2191127.7357   5198842.9397   2965370.5794   1  27   0.0158   0.0272   0.0143  -0.0144   0.0149  -0.0093   0.00  361.4
2020/06/29 09:02:45.500  -2191127.7354   5198842.9367   2965370.5767   1  27   0.0158   0.0272   0.0143  -0.0144   0.0149  -0.0093   0.50  546.3
2020/06/29 09:02:46.000  -2191127.7346   5198842.9382   2965370.5768   1  27   0.0158   0.0272   0.0143  -0.0144   0.0149  -0.0093   0.00  669.3
2020/06/29 09:02:46.500  -2191127.7355   5198842.9410   2965370.5781   1  27   0.0158   0.0272   0.0143  -0.0144   0.0149  -0.0093   0.50  776.5
2020/06/29 09:02:47.000  -2191127.7341   5198842.9390   2965370.5784   1  27   0.0158   0.0272   0.0143  -0.0144   0.0149  -0.0093   0.00  889.2
2020/06/29 09:02:47.500  -2191127.7345   5198842.9396   2965370.5782   1  27   0.0158   0.0272   0.0143  -0.0144   0.0149  -0.0093   0.50  999.9
2020/06/29 09:02:48.000  -2191127.7331   5198842.9380   2965370.5769   1  27   0.0158   0.0272   0.0143  -0.0143   0.0149  -0.0093   0.00  999.9
2020/06/29 09:02:48.500  -2191127.7330   5198842.9382   2965370.5766   1  27   0.0158   0.0272   0.0143  -0.0144   0.0149  -0.0093   0.50  999.9
2020/06/29 09:02:49.000  -2191127.7362   5198842.9380   2965370.5769   1  27   0.0158   0.0272   0.0143  -0.0143   0.0149  -0.0093   0.00  999.9
2020/06/29 09:02:49.500  -2191127.7351   5198842.9382   2965370.5769   1  27   0.0158   0.0272   0.0143  -0.0143   0.0149  -0.0093   0.50  999.9
2020/06/29 09:02:50.000  -2191127.7331   5198842.9397   2965370.5774   1  27   0.0158   0.0272   0.0143  -0.0143   0.0149  -0.0092   0.00  999.9
2020/06/29 09:02:50.500  -2191127.7348   5198842.9390   2965370.5771   1  27   0.0158   0.0272   0.0143  -0.0143   0.0149  -0.0093   0.50  999.9
2020/06/29 09:02:51.000  -2191127.7355   5198842.9382   2965370.5790   1  27   0.0158   0.0272   0.0143  -0.0143   0.0149  -0.0093   0.00  999.9
2020/06/29 09:02:51.500  -2191127.7344   5198842.9387   2965370.5783   1  27   0.0158   0.0272   0.0143  -0.0143   0.0149  -0.0093   0.50  999.9
2020/06/29 09:02:52.000  -2191127.7353   5198842.9398   2965370.5784   1  27   0.0157   0.0271   0.0143  -0.0143   0.0149  -0.0093   0.00  999.9
2020/06/29 09:02:52.500  -2191127.7339   5198842.9395   2965370.5786   1  27   0.0157   0.0271   0.0143  -0.0143   0.0149  -0.0093   0.50  999.9
2020/06/29 09:02:53.000  -2191127.7328   5198842.9376   2965370.5778   1  27   0.0157   0.0271   0.0143  -0.0143   0.0149  -0.0093   0.00  999.9
2020/06/29 09:02:53.500  -2191127.7328   5198842.9384   2965370.5784   1  27   0.0157   0.0271   0.0143  -0.0143   0.0149  -0.0093   0.50  999.9
2020/06/29 09:02:54.000  -2191127.7351   5198842.9376   2965370.5776   1  27   0.0158   0.0271   0.0143  -0.0143   0.0149  -0.0092   0.00  999.9
2020/06/29 09:02:54.500  -2191127.7352   5198842.9339   2965370.5760   1  27   0.0157   0.0271   0.0143  -0.0143   0.0149  -0.0093   0.50  999.9
2020/06/29 09:02:55.000  -2191127.7329   5198842.9362   2965370.5785   1  27   0.0157   0.0271   0.0143  -0.0143   0.0149  -0.0093   0.00  999.9
2020/06/29 09:02:55.500  -2191127.7332   5198842.9361   2965370.5786   1  27   0.0157   0.0271   0.0143  -0.0143   0.0149  -0.0093   0.50  999.9
2020/06/29 09:02:56.000  -2191127.7335   5198842.9370   2965370.5776   1  27   0.0157   0.0271   0.0143  -0.0143   0.0149  -0.0093   0.00  999.9
2020/06/29 09:02:56.500  -2191127.7340   5198842.9371   2965370.5771   1  27   0.0157   0.0271   0.0143  -0.0143   0.0149  -0.0093   0.50  999.9
2020/06/29 09:02:57.000  -2191127.7335   5198842.9392   2965370.5791   1  27   0.0157   0.0271   0.0143  -0.0143   0.0149  -0.0092   0.00  999.9
2020/06/29 09:02:57.500  -2191127.7331   5198842.9385   2965370.5794   1  27   0.0157   0.0271   0.0143  -0.0143   0.0149  -0.0093   0.50  999.9
2020/06/29 09:02:58.000  -2191127.7335   5198842.9369   2965370.5768   1  27   0.0169   0.0274   0.0146  -0.0152   0.0153  -0.0103   0.00  999.9
2020/06/29 09:02:58.500  -2191127.7336   5198842.9389   2965370.5778   1  27   0.0163   0.0273   0.0144  -0.0147   0.0151  -0.0098   0.50  999.9
2020/06/29 09:02:59.000  -2191127.7365   5198842.9412   2965370.5797   1  27   0.0161   0.0272   0.0144  -0.0146   0.0150  -0.0096   0.00  999.9
2020/06/29 09:02:59.500  -2191127.7368   5198842.9407   2965370.5796   1  27   0.0160   0.0272   0.0144  -0.0145   0.0150  -0.0095   0.50  999.9
2020/06/29 09:03:00.000  -2191127.7341   5198842.9384   2965370.5778   1  27   0.0160   0.0272   0.0143  -0.0145   0.0150  -0.0094   0.00  999.9
2020/06/29 09:03:00.500  -2191127.7364   5198842.9391   2965370.5788   1  27   0.0159   0.0272   0.0143  -0.0144   0.0150  -0.0094   0.50  999.9
2020/06/29 09:03:01.000  -2191127.7352   5198842.9390   2965370.5786   1  27   0.0159   0.0271   0.0143  -0.0144   0.0149  -0.0094   0.00  999.9
2020/06/29 09:03:01.500  -2191127.7353   5198842.9400   2965370.5779   1  27   0.0159   0.0271   0.0143  -0.0144   0.0149  -0.0094   0.50  999.9
2020/06/29 09:03:02.000  -2191127.7339   5198842.9390   2965370.5783   1  27   0.0159   0.0271   0.0143  -0.0144   0.0149  -0.0094   0.00  999.9
2020/06/29 09:03:02.500  -2191127.7347   5198842.9384   2965370.5785   1  27   0.0158   0.0271   0.0143  -0.0144   0.0149  -0.0094   0.50  999.9
2020/06/29 09:03:03.000  -2191127.7337   5198842.9381   2965370.5779   1  27   0.0158   0.0271   0.0143  -0.0143   0.0149  -0.0093   0.00  999.9
2020/06/29 09:03:03.500  -2191127.7332   5198842.9381   2965370.5776   1  27   0.0158   0.0271   0.0143  -0.0143   0.0149  -0.0093   0.50  999.9
2020/06/29 09:03:04.000  -2191127.7347   5198842.9386   2965370.5778   1  27   0.0158   0.0271   0.0143  -0.0143   0.0149  -0.0093   0.00  999.9
2020/06/29 09:03:04.500  -2191127.7328   5198842.9369   2965370.5760   1  27   0.0158   0.0271   0.0143  -0.0143   0.0149  -0.0093   0.50  999.9
2020/06/29 09:03:05.000  -2191127.7350   5198842.9390   2965370.5786   1  27   0.0158   0.0271   0.0143  -0.0143   0.0149  -0.0093   0.00  999.9
2020/06/29 09:03:05.500  -2191127.7331   5198842.9386   2965370.5781   1  27   0.0158   0.0271   0.0143  -0.0143   0.0149  -0.0093   0.50  999.9
2020/06/29 09:03:06.000  -2191127.7341   5198842.9383   2965370.5783   1  27   0.0158   0.0271   0.0143  -0.0143   0.0149  -0.0093   0.00  999.9
2020/06/29 09:03:06.500  -2191127.7353   5198842.9404   2965370.5787   1  27   0.0158   0.0271   0.0143  -0.0143   0.0149  -0.0093   0.50  999.9
2020/06/29 09:03:07.000  -2191127.7343   5198842.9382   2965370.5774   1  27   0.0158   0.0271   0.0143  -0.0143   0.0149  -0.0093   0.00  999.9
2020/06/29 09:03:07.500  -2191127.7336   5198842.9379   2965370.5776   1  27   0.0157   0.0271   0.0143  -0.0143   0.0149  -0.0093   0.50  999.9
2020/06/29 09:03:08.000  -2191127.7357   5198842.9372   2965370.5780   1  27   0.0158   0.0271   0.0143  -0.0143   0.0149  -0.0093   0.00  999.9
2020/06/29 09:03:08.500  -2191127.7344   5198842.9357   2965370.5776   1  27   0.0157   0.0271   0.0142  -0.0143   0.0149  -0.0093   0.50  999.9
2020/06/29 09:03:09.000  -2191127.7322   5198842.9362   2965370.5774   1  27   0.0158   0.0271   0.0143  -0.0143   0.0149  -0.0093   0.00  999.9
2020/06/29 09:03:09.500  -2191127.7336   5198842.9365   2965370.5777   1  27   0.0157   0.0271   0.0143  -0.0143   0.0149  -0.0093   0.50  999.9
2020/06/29 09:03:10.000  -2191127.7342   5198842.9369   2965370.5776   1  26   0.0169   0.0274   0.0146  -0.0151   0.0153  -0.0103   0.00  999.9
2020/06/29 09:03:10.500  -2191127.7337   5198842.9381   2965370.5771   1  26   0.0169   0.0274   0.0146  -0.0151   0.0153  -0.0103   0.50  999.9
2020/06/29 09:03:11.000  -2191127.7341   5198842.9347   2965370.5769   1  27   0.0169   0.0274   0.0146  -0.0151   0.0153  -0.0103   0.00  999.9
2020/06/29 09:03:11.500  -2191127.7339   5198842.9366   2965370.5782   1  27   0.0163   0.0272   0.0144  -0.0147   0.0151  -0.0097   0.50  999.9
2020/06/29 09:03:12.000  -2191127.7333   5198842.9363   2965370.5782   1  27   0.0161   0.0271   0.0144  -0.0145   0.0150  -0.0096   0.00  999.9
2020/06/29 09:03:12.500  -2191127.7340   5198842.9367   2965370.5782   1  27   0.0160   0.0271   0.0143  -0.0145   0.0150  -0.0095   0.50  999.9
2020/06/29 09:03:13.000  -2191127.7348   5198842.9385   2965370.5787   1  27   0.0159   0.0271   0.0143  -0.0144   0.0150  -0.0094   0.00  999.9
2020/06/29 09:03:13.500  -2191127.7348   5198842.9381   2965370.5786   1  27   0.0159   0.0271   0.0143  -0.0144   0.0150  -0.0094   0.50  999.9
2020/06/29 09:03:14.000  -2191127.7376   5198842.9415   2965370.5790   1  27   0.0159   0.0271   0.0143  -0.0144   0.0149  -0.0094   0.00  999.9
2020/06/29 09:03:14.500  -2191127.7350   5198842.9378   2965370.5774   1  27   0.0158   0.0271   0.0143  -0.0144   0.0149  -0.0094   0.50  999.9
2020/06/29 09:03:15.000  -2191127.7344   5198842.9383   2965370.5802   1  27   0.0158   0.0271   0.0143  -0.0143   0.0149  -0.0093   0.00  999.9
2020/06/29 09:03:15.500  -2191127.7343   5198842.9382   2965370.5787   1  27   0.0158   0.0271   0.0143  -0.0143   0.0149  -0.0093   0.50  999.9
2020/06/29 09:03:16.000  -2191127.7342   5198842.9373   2965370.5783   1  27   0.0158   0.0271   0.0143  -0.0143   0.0149  -0.0093   0.00  999.9
2020/06/29 09:03:16.500  -2191127.7341   5198842.9367   2965370.5780   1  27   0.0158   0.0271   0.0142  -0.0143   0.0149  -0.0093   0.50  999.9
2020/06/29 09:03:17.000  -2191127.7348   5198842.9387   2965370.5785   1  27   0.0158   0.0270   0.0143  -0.0143   0.0149  -0.0093   0.00  999.9
2020/06/29 09:03:17.500  -2191127.7352   5198842.9379   2965370.5793   1  27   0.0158   0.0271   0.0143  -0.0143   0.0149  -0.0093   0.50  999.9
2020/06/29 09:03:18.000  -2191127.7345   5198842.9386   2965370.5774   1  27   0.0158   0.0270   0.0142  -0.0143   0.0149  -0.0093   0.00  999.9
2020/06/29 09:03:18.500  -2191127.7345   5198842.9376   2965370.5787   1  27   0.0158   0.0270   0.0143  -0.0143   0.0149  -0.0093   0.50  999.9
2020/06/29 09:03:19.000  -2191127.7346   5198842.9371   2965370.5785   1  27   0.0157   0.0270   0.0142  -0.0143   0.0149  -0.0093   0.00  999.9
2020/06/29 09:03:19.500  -2191127.7326   5198842.9380   2965370.5788   1  27   0.0158   0.0270   0.0142  -0.0143   0.0149  -0.0093   0.50  999.9
2020/06/29 09:03:20.000  -2191127.7336   5198842.9370   2965370.5788   1  27   0.0157   0.0270   0.0143  -0.0143   0.0149  -0.0093   0.00  999.9
2020/06/29 09:03:20.500  -2191127.7327   5198842.9378   2965370.5786   1  27   0.0157   0.0270   0.0143  -0.0143   0.0149  -0.0093   0.50  999.9
2020/06/29 09:03:21.000  -2191127.7340   5198842.9385   2965370.5778   1  27   0.0157   0.0270   0.0142  -0.0142   0.0149  -0.0093   0.00  999.9
2020/06/29 09:03:21.500  -2191127.7326   5198842.9395   2965370.5771   1  27   0.0157   0.0270   0.0142  -0.0143   0.0149  -0.0093   0.50  999.9
2020/06/29 09:03:22.000  -2191127.7339   5198842.9392   2965370.5781   1  27   0.0157   0.0270   0.0142  -0.0142   0.0149  -0.0093   0.00  999.9
2020/06/29 09:03:22.500  -2191127.7330   5198842.9380   2965370.5771   1  27   0.0157   0.0270   0.0142  -0.0142   0.0149  -0.0093   0.50  999.9
2020/06/29 09:03:23.000  -2191127.7342   5198842.9387   2965370.5788   1  27   0.0157   0.0270   0.0142  -0.0142   0.0149  -0.0093   0.00  999.9
2020/06/29 09:03:23.500  -2191127.7332   5198842.9376   2965370.5790   1  27   0.0157   0.0270   0.0142  -0.0142   0.0149  -0.0093   0.50  999.9
2020/06/29 09:03:24.000  -2191127.7331   5198842.9377   2965370.5791   1  27   0.0157   0.0270   0.0142  -0.0142   0.0149  -0.0093   0.00  999.9
2020/06/29 09:03:24.500  -2191127.7331   5198842.9369   2965370.5793   1  27   0.0157   0.0270   0.0142  -0.0142   0.0149  -0.0093   0.50  999.9
2020/06/29 09:03:25.000  -2191127.7345   5198842.9373   2965370.5794   1  27   0.0157   0.0270   0.0142  -0.0142   0.0149  -0.0093   0.00  999.9
2020/06/29 09:03:25.500  -2191127.7364   5198842.9387   2965370.5799   1  27   0.0157   0.0270   0.0143  -0.0142   0.0149  -0.0092   0.50  999.9
2020/06/29 09:03:26.000  -2191127.7325   5198842.9352   2965370.5771   1  27   0.0157   0.0270   0.0143  -0.0142   0.0149  -0.0092   0.00  999.9
2020/06/29 09:03:26.500  -2191127.7322   5198842.9355   2965370.5770   1  27   0.0157   0.0270   0.0143  -0.0142   0.0149  -0.0092   0.50  999.9
2020/06/29 09:03:27.000  -2191127.7344   5198842.9387   2965370.5777   1  27   0.0157   0.0270   0.0142  -0.0142   0.0149  -0.0092   0.00  999.9
2020/06/29 09:03:27.500  -2191127.7351   5198842.9381   2965370.5785   1  27   0.0157   0.0270   0.0142  -0.0142   0.0149  -0.0093   0.50  999.9
2020/06/29 09:03:28.000  -2191127.7336   5198842.9384   2965370.5767   1  27   0.0157   0.0270   0.0142  -0.0142   0.0149  -0.0092   0.00  999.9
2020/06/29 09:03:28.500  -2191127.7354   5198842.9394   2965370.5783   1  27   0.0157   0.0270   0.0142  -0.0142   0.0149  -0.0092   0.50  999.9
2020/06/29 09:03:29.000  -2191127.7344   5198842.9371   2965370.5788   1  27   0.0157   0.0270   0.0142  -0.0142   0.0149  -0.0092   0.00  999.9
2020/06/29 09:03:29.500  -2191127.7347   5198842.9367   2965370.5797   1  27   0.0157   0.0270   0.0142  -0.0142   0.0149  -0.0092   0.50  999.9
2020/06/29 09:03:30.000  -2191127.7348   5198842.9359   2965370.5787   1  27   0.0157   0.0270   0.0142  -0.0142   0.0149  -0.0092   0.00  999.9
2020/06/29 09:03:30.500  -2191127.7352   5198842.9406   2965370.5795   1  27   0.0157   0.0270   0.0142  -0.0142   0.0149  -0.0092   0.50  999.9
2020/06/29 09:03:31.000  -2191127.7347   5198842.9365   2965370.5789   1  27   0.0157   0.0270   0.0142  -0.0142   0.0149  -0.0092   0.00  999.9
2020/06/29 09:03:31.500  -2191127.7356   5198842.9378   2965370.5796   1  27   0.0157   0.0270   0.0142  -0.0142   0.0149  -0.0092   0.50  999.9
2020/06/29 09:03:32.000  -2191127.7326   5198842.9391   2965370.5787   1  27   0.0157   0.0270   0.0142  -0.0142   0.0149  -0.0092   0.00  999.9
2020/06/29 09:03:32.500  -2191127.7331   5198842.9387   2965370.5789   1  27   0.0157   0.0270   0.0142  -0.0142   0.0149  -0.0092   0.50  999.9
2020/06/29 09:03:33.000  -2191127.7350   5198842.9361   2965370.5777   1  27   0.0157   0.0270   0.0142  -0.0142   0.0149  -0.0092   0.00  999.9
2020/06/29 09:03:33.500  -2191127.7363   5198842.9366   2965370.5786   1  27   0.0157   0.0270   0.0142  -0.0142   0.0149  -0.0092   0.50  999.9
2020/06/29 09:03:34.000  -2191127.7344   5198842.9364   2965370.5783   1  27   0.0157   0.0270   0.0142  -0.0142   0.0149  -0.0092   0.00  999.9
2020/06/29 09:03:34.500  -2191127.7335   5198842.9356   2965370.5777   1  27   0.0157   0.0270   0.0142  -0.0142   0.0149  -0.0092   0.50  999.9
2020/06/29 09:03:35.000  -2191127.7330   5198842.9364   2965370.5779   1  27   0.0157   0.0270   0.0142  -0.0142   0.0149  -0.0092   0.00  999.9
2020/06/29 09:03:35.500  -2191127.7328   5198842.9339   2965370.5778   1  27   0.0157   0.0270   0.0142  -0.0142   0.0149  -0.0092   0.50  999.9
2020/06/29 09:03:36.000  -2191127.7350   5198842.9381   2965370.5781   1  27   0.0157   0.0270   0.0142  -0.0142   0.0149  -0.0092   0.00  999.9
2020/06/29 09:03:36.500  -2191127.7355   5198842.9370   2965370.5783   1  27   0.0157   0.0270   0.0142  -0.0142   0.0149  -0.0093   0.50  999.9
2020/06/29 09:03:37.000  -2191127.7364   5198842.9390   2965370.5804   1  27   0.0157   0.0270   0.0142  -0.0142   0.0149  -0.0092   0.00  999.9
2020/06/29 09:03:37.500  -2191127.7346   5198842.9367   2965370.5791   1  27   0.0157   0.0270   0.0143  -0.0142   0.0149  -0.0092   0.50  999.9
2020/06/29 09:03:38.000  -2191127.7357   5198842.9375   2965370.5780   1  27   0.0157   0.0270   0.0142  -0.0142   0.0149  -0.0092   0.00  999.9
2020/06/29 09:03:38.500  -2191127.7326   5198842.9350   2965370.5769   1  27   0.0157   0.0270   0.0142  -0.0142   0.0149  -0.0092   0.50  999.9
2020/06/29 09:03:39.000  -2191127.7364   5198842.9372   2965370.5776   1  27   0.0157   0.0270   0.0142  -0.0142   0.0149  -0.0092   0.00  999.9
2020/06/29 09:03:39.500  -2191127.7361   5198842.9357   2965370.5772   1  27   0.0157   0.0270   0.0142  -0.0142   0.0149  -0.0092   0.50  999.9
2020/06/29 09:03:40.000  -2191127.7360   5198842.9402   2965370.5803   1  27   0.0157   0.0270   0.0142  -0.0142   0.0149  -0.0092   0.00  999.9
2020/06/29 09:03:40.500  -2191127.7348   5198842.9381   2965370.5768   1  27   0.0157   0.0270   0.0142  -0.0142   0.0149  -0.0092   0.50  999.9
2020/06/29 09:03:41.000  -2191127.7344   5198842.9386   2965370.5782   1  27   0.0157   0.0270   0.0142  -0.0142   0.0149  -0.0092   0.00  999.9
2020/06/29 09:03:41.500  -2191127.7345   5198842.9398   2965370.5788   1  27   0.0157   0.0270   0.0142  -0.0142   0.0149  -0.0092   0.50  999.9
2020/06/29 09:03:42.000  -2191127.7356   5198842.9394   2965370.5794   1  27   0.0157   0.0270   0.0142  -0.0142   0.0149  -0.0092   0.00  999.9
