% ref pos   : -2191136.5960  5198839.0050  2965370.9860
%  UTC                       x-ecef(m)      y-ecef(m)      z-ecef(m)   Q  ns   sdx(m)   sdy(m)   sdz(m)  sdxy(m)  sdyz(m)  sdzx(m) age(s)  ratio
2020/06/29 08:12:57.500  -2191126.6451   5198841.9662   2965369.2586   2  22   2.8998   5.4027   2.8009  -3.2567   3.1273  -2.0928  -0.50    0.0
2020/06/29 08:12:58.000  -2191126.6261   5198841.8844   2965369.2623   2  22   2.5620   4.6691   2.4305  -2.8498   2.7226  -1.8411   0.00    0.0
2020/06/29 08:12:58.500  -2191126.6386   5198841.8385   2965369.2756   2  22   2.3203   4.1716   2.1767  -2.5659   2.4431  -1.6629   0.50    0.0
2020/06/29 08:12:59.000  -2191126.6561   5198841.8188   2965369.2872   2  22   2.1362   3.8053   1.9886  -2.3529   2.2349  -1.5279   0.00    0.0
2020/06/29 08:12:59.500  -2191126.6890   5198841.8176   2965369.3110   2  22   1.9897   3.5209   1.8420  -2.1851   2.0719  -1.4211   0.50    0.0
2020/06/29 08:13:00.000  -2191126.7130   5198841.8170   2965369.3361   2  22   1.8696   3.2914   1.7234  -2.0485   1.9397  -1.3336   0.00    0.0
2020/06/29 08:13:00.500  -2191126.7300   5198841.8017   2965369.3513   2  22   1.7686   3.1012   1.6249  -1.9343   1.8296  -1.2603   0.50    0.0
2020/06/29 08:13:01.000  -2191126.7583   5198841.8104   2965369.3795   2  22   1.6822   2.9400   1.5413  -1.8368   1.7359  -1.1976   0.00    0.0
2020/06/29 08:13:01.500  -2191126.7795   5198841.8058   2965369.4049   2  22   1.6071   2.8010   1.4692  -1.7523   1.6549  -1.1432   0.50    0.0
2020/06/29 08:13:02.000  -2191126.8012   5198841.8134   2965369.4210   2  22   1.5410   2.6795   1.4061  -1.6781   1.5839  -1.0953   0.00    0.0
2020/06/29 08:13:02.500  -2191126.8258   5198841.8281   2965369.4396   2  22   1.4821   2.5719   1.3502  -1.6121   1.5210  -1.0527   0.50    0.0
2020/06/29 08:13:03.000  -2191126.8591   5198841.8579   2965369.4535   2  22   1.4294   2.4759   1.3003  -1.5530   1.4646  -1.0144   0.00    0.0
2020/06/29 08:13:03.500  -2191126.8867   5198841.8852   2965369.4660   2  22   1.3816   2.3893   1.2553  -1.4995   1.4137  -0.9798   0.50    0.0
2020/06/29 08:13:04.000  -2191126.9136   5198841.9027   2965369.4763   2  22   1.3381   2.3106   1.2145  -1.4507   1.3674  -0.9483   0.00    0.0
2020/06/29 08:13:04.500  -2191126.9430   5198841.9222   2965369.4929   2  22   1.2983   2.2388   1.1772  -1.4060   1.3250  -0.9193   0.50    0.0
2020/06/29 08:13:05.000  -2191126.9688   5198841.9556   2965369.5124   2  22   1.2616   2.1727   1.1429  -1.3648   1.2860  -0.8926   0.00    0.0
2020/06/29 08:13:05.500  -2191126.9805   5198841.9693   2965369.5237   2  22   1.2276   2.1117   1.1112  -1.3267   1.2499  -0.8679   0.50    0.0
2020/06/29 08:13:06.000  -2191126.9950   5198841.9876   2965369.5374   2  22   1.1960   2.0551   1.0818  -1.2912   1.2164  -0.8449   0.00    0.0
2020/06/29 08:13:06.500  -2191127.0112   5198842.0179   2965369.5530   2  22   1.1666   2.0023   1.0544  -1.2580   1.1851  -0.8234   0.50    0.0
2020/06/29 08:13:07.000  -2191127.0335   5198842.0508   2965369.5647   2  22   1.1390   1.9529   1.0288  -1.2269   1.1558  -0.8032   0.00    0.0
2020/06/29 08:13:07.500  -2191127.0460   5198842.0731   2965369.5708   2  22   1.1131   1.9066   1.0048  -1.1976   1.1282  -0.7842   0.50    0.0
2020/06/29 08:13:08.000  -2191127.0619   5198842.0988   2965369.5743   2  22   1.0887   1.8629   0.9823  -1.1700   1.1022  -0.7663   0.00    0.0
2020/06/29 08:13:08.500  -2191127.0799   5198842.1262   2965369.5814   2  22   1.0656   1.8217   0.9609  -1.1439   1.0777  -0.7494   0.50    0.0
2020/06/29 08:13:09.000  -2191127.0885   5198842.1395   2965369.5862   2  22   1.0438   1.7827   0.9408  -1.1191   1.0544  -0.7333   0.00    0.0
2020/06/29 08:13:09.500  -2191127.1009   5198842.1565   2965369.5954   2  22   1.0230   1.7457   0.9216  -1.0955   1.0323  -0.7180   0.50    0.0
2020/06/29 08:13:10.000  -2191127.1034   5198842.1572   2965369.6042   2  22   1.0033   1.7104   0.9035  -1.0730   1.0112  -0.7034   0.00    0.0
2020/06/29 08:13:10.500  -2191127.1057   5198842.1621   2965369.6116   2  22   0.9845   1.6769   0.8861  -1.0515   0.9912  -0.6895   0.50    0.0
2020/06/29 08:13:11.000  -2191127.1107   5198842.1643   2965369.6194   2  22   0.9666   1.6448   0.8696  -1.0309   0.9720  -0.6762   0.00    0.0
2020/06/29 08:13:11.500  -2191127.1144   5198842.1630   2965369.6244   2  22   0.9494   1.6141   0.8538  -1.0112   0.9536  -0.6635   0.50    0.0
2020/06/29 08:13:12.000  -2191127.1267   5198842.1918   2965369.6387   2  22   0.9330   1.5847   0.8387  -0.9923   0.9359  -0.6512   0.00    0.0
2020/06/29 08:13:12.500  -2191127.1334   5198842.2079   2965369.6458   2  22   0.9172   1.5565   0.8242  -0.9741   0.9190  -0.6395   0.50    0.0
2020/06/29 08:13:13.000  -2191127.1446   5198842.2247   2965369.6557   2  22   0.9020   1.5294   0.8103  -0.9566   0.9027  -0.6281   0.00    0.0
2020/06/29 08:13:13.500  -2191127.1527   5198842.2433   2965369.6643   2  22   0.8875   1.5033   0.7969  -0.9397   0.8870  -0.6172   0.50    0.0
2020/06/29 08:13:14.000  -2191127.1729   5198842.2829   2965369.6821   2  22   0.8734   1.4782   0.7840  -0.9234   0.8718  -0.6067   0.00    0.0
2020/06/29 08:13:14.500  -2191127.1887   5198842.3166   2965369.6940   2  22   0.8599   1.4539   0.7715  -0.9076   0.8572  -0.5965   0.50    0.0
2020/06/29 08:13:15.000  -2191127.2021   5198842.3459   2965369.7071   2  22   0.8468   1.4305   0.7595  -0.8923   0.8430  -0.5866   0.00    0.0
2020/06/29 08:13:15.500  -2191127.2129   5198842.3689   2965369.7163   2  22   0.8342   1.4078   0.7479  -0.8776   0.8294  -0.5771   0.50    0.0
2020/06/29 08:13:16.000  -2191127.2247   5198842.3886   2965369.7228   2  22   0.8220   1.3859   0.7367  -0.8632   0.8161  -0.5678   0.00    0.0
2020/06/29 08:13:16.500  -2191127.2357   5198842.4085   2965369.7276   2  22   0.8101   1.3646   0.7259  -0.8493   0.8032  -0.5589   0.50    0.0
2020/06/29 08:13:17.000  -2191127.2477   5198842.4258   2965369.7345   2  22   0.7987   1.3440   0.7153  -0.8358   0.7908  -0.5501   0.00    0.0
2020/06/29 08:13:17.500  -2191127.2530   5198842.4369   2965369.7427   2  22   0.7876   1.3240   0.7051  -0.8227   0.7787  -0.5417   0.50    0.0
2020/06/29 08:13:18.000  -2191127.2618   5198842.4469   2965369.7502   2  22   0.7768   1.3046   0.6952  -0.8099   0.7669  -0.5335   0.00    0.0
2020/06/29 08:13:18.500  -2191127.2728   5198842.4637   2965369.7564   2  22   0.7663   1.2858   0.6856  -0.7974   0.7554  -0.5254   0.50    0.0
2020/06/29 08:13:19.000  -2191127.2851   5198842.4787   2965369.7647   2  22   0.7561   1.2674   0.6762  -0.7853   0.7443  -0.5176   0.00    0.0
2020/06/29 08:13:19.500  -2191127.2933   5198842.4900   2965369.7714   2  22   0.7462   1.2495   0.6671  -0.7735   0.7334  -0.5101   0.50    0.0
2020/06/29 08:13:20.000  -2191127.3002   5198842.5055   2965369.7804   2  22   0.7366   1.2321   0.6583  -0.7619   0.7228  -0.5026   0.00    0.0
2020/06/29 08:13:20.500  -2191127.3138   5198842.5298   2965369.7926   2  22   0.7272   1.2152   0.6496  -0.7507   0.7125  -0.4954   0.50    0.0
2020/06/29 08:13:21.000  -2191127.3192   5198842.5418   2965369.8043   2  22   0.7181   1.1987   0.6412  -0.7397   0.7025  -0.4884   0.00    0.0
2020/06/29 08:13:21.500  -2191127.3274   5198842.5599   2965369.8108   2  22   0.7092   1.1826   0.6330  -0.7290   0.6926  -0.4815   0.50    0.0
2020/06/29 08:13:22.000  -2191127.3364   5198842.5764   2965369.8200   2  22   0.7005   1.1668   0.6250  -0.7185   0.6831  -0.4748   0.00    0.0
2020/06/29 08:13:22.500  -2191127.3445   5198842.5836   2965369.8262   2  22   0.6920   1.1515   0.6172  -0.7082   0.6737  -0.4682   0.50    0.0
2020/06/29 08:13:23.000  -2191127.3600   5198842.5945   2965369.8367   2  22   0.6838   1.1365   0.6096  -0.6982   0.6645  -0.4618   0.00    0.0
2020/06/29 08:13:23.500  -2191127.3681   5198842.5950   2965369.8411   2  22   0.6757   1.1218   0.6022  -0.6883   0.6556  -0.4555   0.50    0.0
2020/06/29 08:13:24.000  -2191127.3786   5198842.6080   2965369.8514   2  22   0.6678   1.1075   0.5949  -0.6787   0.6468  -0.4493   0.00    0.0
2020/06/29 08:13:24.500  -2191127.3830   5198842.6078   2965369.8521   2  22   0.6601   1.0935   0.5878  -0.6693   0.6383  -0.4433   0.50    0.0
2020/06/29 08:13:25.000  -2191127.3869   5198842.6071   2965369.8586   2  22   0.6526   1.0798   0.5808  -0.6601   0.6299  -0.4374   0.00    0.0
2020/06/29 08:13:25.500  -2191127.3858   5198842.5972   2965369.8583   2  22   0.6452   1.0664   0.5740  -0.6510   0.6217  -0.4317   0.50    0.0
2020/06/29 08:13:26.000  -2191127.3902   5198842.6081   2965369.8668   2  22   0.6380   1.0532   0.5673  -0.6421   0.6136  -0.4260   0.00    0.0
2020/06/29 08:13:26.500  -2191127.3933   5198842.6116   2965369.8694   2  22   0.6309   1.0404   0.5608  -0.6334   0.6057  -0.4205   0.50    0.0
2020/06/29 08:13:27.000  -2191127.3963   5198842.6136   2965369.8674   2  22   0.6240   1.0278   0.5544  -0.6249   0.5980  -0.4150   0.00    0.0
2020/06/29 08:13:27.500  -2191127.4022   5198842.6127   2965369.8688   2  22   0.6173   1.0154   0.5482  -0.6165   0.5904  -0.4097   0.50    0.0
2020/06/29 08:13:28.000  -2191127.4008   5198842.6086   2965369.8714   2  22   0.6106   1.0033   0.5420  -0.6083   0.5830  -0.4045   0.00    0.0
2020/06/29 08:13:28.500  -2191127.4000   5198842.6042   2965369.8716   2  22   0.6042   0.9915   0.5360  -0.6002   0.5757  -0.3994   0.50    0.0
2020/06/29 08:13:29.000  -2191127.4048   5198842.6011   2965369.8714   2  22   0.5978   0.9798   0.5301  -0.5923   0.5686  -0.3943   0.00    0.0
2020/06/29 08:13:29.500  -2191127.4134   5198842.6096   2965369.8773   2  22   0.5916   0.9684   0.5243  -0.5845   0.5616  -0.3894   0.50    0.0
2020/06/29 08:13:30.000  -2191127.4212   5198842.6187   2965369.8856   2  22   0.5855   0.9572   0.5186  -0.5769   0.5547  -0.3846   0.00    0.0
2020/06/29 08:13:30.500  -2191127.7253   5198842.9286   2965370.5635   1  22   0.0194   0.0335   0.0174  -0.0215   0.0202  -0.0141   0.50    5.1
2020/06/29 08:13:31.000  -2191127.7238   5198842.9274   2965370.5645   1  22   0.0194   0.0335   0.0174  -0.0215   0.0202  -0.0141   0.00    5.1
2020/06/29 08:13:31.500  -2191127.7257   5198842.9285   2965370.5650   1  22   0.0194   0.0335   0.0174  -0.0215   0.0202  -0.0141   0.50    5.1
2020/06/29 08:13:32.000  -2191127.7255   5198842.9277   2965370.5649   1  22   0.0193   0.0334   0.0174  -0.0215   0.0202  -0.0141   0.00    5.1
2020/06/29 08:13:32.500  -2191127.7232   5198842.9250   2965370.5633   1  22   0.0193   0.0334   0.0174  -0.0215   0.0202  -0.0141   0.50    5.2
2020/06/29 08:13:33.000  -2191127.7229   5198842.9263   2965370.5647   1  22   0.0193   0.0334   0.0174  -0.0215   0.0201  -0.0141   0.00    5.2
2020/06/29 08:13:33.500  -2191127.7232   5198842.9251   2965370.5641   1  22   0.0193   0.0334   0.0174  -0.0215   0.0202  -0.0141   0.50    5.2
2020/06/29 08:13:34.000  -2191127.7237   5198842.9238   2965370.5623   1  22   0.0193   0.0334   0.0174  -0.0215   0.0201  -0.0141   0.00    5.3
2020/06/29 08:13:34.500  -2191127.7240   5198842.9265   2965370.5644   1  22   0.0193   0.0334   0.0174  -0.0215   0.0201  -0.0141   0.50    5.3
2020/06/29 08:13:35.000  -2191127.7245   5198842.9257   2965370.5641   1  22   0.0193   0.0334   0.0174  -0.0215   0.0201  -0.0141   0.00    5.4
2020/06/29 08:13:35.500  -2191127.7263   5198842.9285   2965370.5645   1  22   0.0193   0.0334   0.0174  -0.0215   0.0201  -0.0141   0.50    5.5
2020/06/29 08:13:36.000  -2191127.7242   5198842.9227   2965370.5635   1  22   0.0193   0.0334   0.0174  -0.0215   0.0201  -0.0141   0.00    5.5
2020/06/29 08:13:36.500  -2191127.7250   5198842.9256   2965370.5649   1  22   0.0193   0.0334   0.0174  -0.0215   0.0201  -0.0141   0.50    5.5
2020/06/29 08:13:37.000  -2191127.7250   5198842.9276   2965370.5653   1  22   0.0193   0.0334   0.0174  -0.0215   0.0201  -0.0141   0.00    5.5
2020/06/29 08:13:37.500  -2191127.7236   5198842.9252   2965370.5629   1  22   0.0193   0.0334   0.0174  -0.0215   0.0201  -0.0141   0.50    5.5
2020/06/29 08:13:38.000  -2191127.7242   5198842.9275   2965370.5629   1  22   0.0193   0.0334   0.0174  -0.0215   0.0201  -0.0141   0.00    5.5
2020/06/29 08:13:38.500  -2191127.7247   5198842.9249   2965370.5633   1  22   0.0193   0.0334   0.0173  -0.0215   0.0201  -0.0141   0.50    5.5
2020/06/29 08:13:39.000  -2191127.7246   5198842.9277   2965370.5642   1  22   0.0193   0.0334   0.0173  -0.0215   0.0201  -0.0141   0.00    5.6
2020/06/29 08:13:39.500  -2191127.7246   5198842.9251   2965370.5636   1  22   0.0193   0.0334   0.0173  -0.0215   0.0201  -0.0141   0.50    5.6
2020/06/29 08:13:40.000  -2191127.7252   5198842.9274   2965370.5656   1  21   0.0215   0.0351   0.0183  -0.0238   0.0217  -0.0160   0.00    5.6
2020/06/29 08:13:40.500  -2191127.7264   5198842.9310   2965370.5660   1  21   0.0215   0.0351   0.0183  -0.0238   0.0217  -0.0160   0.50    5.5
2020/06/29 08:13:41.000  -2191127.7250   5198842.9258   2965370.5646   1  22   0.0215   0.0351   0.0183  -0.0238   0.0216  -0.0160   0.00    5.6
2020/06/29 08:13:41.500  -2191127.7245   5198842.9246   2965370.5633   1  22   0.0204   0.0342   0.0178  -0.0226   0.0209  -0.0150   0.50    5.6
2020/06/29 08:13:42.000  -2191127.7273   5198842.9312   2965370.5656   1  22   0.0201   0.0339   0.0176  -0.0222   0.0206  -0.0147   0.00    5.7
2020/06/29 08:13:42.500  -2191127.7242   5198842.9277   2965370.5632   1  22   0.0199   0.0338   0.0176  -0.0220   0.0205  -0.0145   0.50    5.7
2020/06/29 08:13:43.000  -2191127.7262   5198842.9284   2965370.5655   1  22   0.0197   0.0337   0.0175  -0.0219   0.0204  -0.0144   0.00    5.8
2020/06/29 08:13:43.500  -2191127.7256   5198842.9266   2965370.5660   1  22   0.0197   0.0336   0.0175  -0.0218   0.0203  -0.0144   0.50    5.9
2020/06/29 08:13:44.000  -2191127.7258   5198842.9280   2965370.5648   1  22   0.0196   0.0336   0.0174  -0.0218   0.0203  -0.0143   0.00    6.0
2020/06/29 08:13:44.500  -2191127.7279   5198842.9315   2965370.5668   1  22   0.0196   0.0336   0.0174  -0.0217   0.0202  -0.0143   0.50    6.1
2020/06/29 08:13:45.000  -2191127.7254   5198842.9267   2965370.5642   1  22   0.0195   0.0335   0.0174  -0.0217   0.0202  -0.0143   0.00    6.1
2020/06/29 08:13:45.500  -2191127.7249   5198842.9260   2965370.5640   1  22   0.0195   0.0335   0.0174  -0.0217   0.0202  -0.0142   0.50  154.3
2020/06/29 08:13:46.000  -2191127.7260   5198842.9295   2965370.5659   1  22   0.0195   0.0335   0.0174  -0.0216   0.0202  -0.0142   0.00  208.7
2020/06/29 08:13:46.500  -2191127.7273   5198842.9309   2965370.5659   1  22   0.0195   0.0335   0.0174  -0.0216   0.0202  -0.0142   0.50  256.9
2020/06/29 08:13:47.000  -2191127.7287   5198842.9340   2965370.5655   1  22   0.0195   0.0334   0.0173  -0.0216   0.0202  -0.0142   0.00  307.6
2020/06/29 08:13:47.500  -2191127.7264   5198842.9312   2965370.5643   1  22   0.0194   0.0334   0.0173  -0.0216   0.0201  -0.0142   0.50  357.1
2020/06/29 08:13:48.000  -2191127.7241   5198842.9250   2965370.5625   1  22   0.0194   0.0334   0.0173  -0.0216   0.0201  -0.0142   0.00  408.8
2020/06/29 08:13:48.500  -2191127.7246   5198842.9271   2965370.5635   1  22   0.0194   0.0334   0.0173  -0.0216   0.0201  -0.0142   0.50  470.4
2020/06/29 08:13:49.000  -2191127.7255   5198842.9279   2965370.5654   1  22   0.0194   0.0334   0.0173  -0.0215   0.0201  -0.0141   0.00  526.9
2020/06/29 08:13:49.500  -2191127.7267   5198842.9281   2965370.5663   1  22   0.0194   0.0334   0.0173  -0.0215   0.0201  -0.0141   0.50  565.3
2020/06/29 08:13:50.000  -2191127.7271   5198842.9286   2965370.5645   1  22   0.0194   0.0334   0.0173  -0.0215   0.0201  -0.0141   0.00  603.8
2020/06/29 08:13:50.500  -2191127.7258   5198842.9265   2965370.5648   1  22   0.0194   0.0334   0.0173  -0.0215   0.0201  -0.0141   0.50  643.1
2020/06/29 08:13:51.000  -2191127.7248   5198842.9263   2965370.5647   1  22   0.0194   0.0334   0.0173  -0.0215   0.0201  -0.0141   0.00  684.2
2020/06/29 08:13:51.500  -2191127.7265   5198842.9307   2965370.5655   1  22   0.0194   0.0334   0.0173  -0.0215   0.0201  -0.0141   0.50  732.5
2020/06/29 08:13:52.000  -2191127.7259   5198842.9278   2965370.5644   1  22   0.0194   0.0334   0.0173  -0.0215   0.0201  -0.0141   0.00  769.6
2020/06/29 08:13:52.500  -2191127.7267   5198842.9294   2965370.5657   1  22   0.0194   0.0334   0.0173  -0.0215   0.0201  -0.0141   0.50  812.7
2020/06/29 08:13:53.000  -2191127.7256   5198842.9300   2965370.5659   1  22   0.0194   0.0333   0.0173  -0.0215   0.0201  -0.0141   0.00  868.8
2020/06/29 08:13:53.500  -2191127.7266   5198842.9296   2965370.5652   1  22   0.0193   0.0333   0.0173  -0.0215   0.0201  -0.0141   0.50  897.1
2020/06/29 08:13:54.000  -2191127.7265   5198842.9323   2965370.5654   1  22   0.0193   0.0333   0.0173  -0.0215   0.0200  -0.0141   0.00  934.6
2020/06/29 08:13:54.500  -2191127.7270   5198842.9300   2965370.5663   1  22   0.0194   0.0333   0.0173  -0.0215   0.0201  -0.0141   0.50  979.6
2020/06/29 08:13:55.000  -2191127.7261   5198842.9298   2965370.5641   1  22   0.0193   0.0333   0.0173  -0.0215   0.0200  -0.0141   0.00  999.9
2020/06/29 08:13:55.500  -2191127.7267   5198842.9304   2965370.5646   1  22   0.0193   0.0333   0.0173  -0.0215   0.0200  -0.0141   0.50  999.9
2020/06/29 08:13:56.000  -2191127.7277   5198842.9295   2965370.5655   1  22   0.0193   0.0333   0.0173  -0.0215   0.0200  -0.0141   0.00  999.9
2020/06/29 08:13:56.500  -2191127.7271   5198842.9269   2965370.5654   1  22   0.0193   0.0333   0.0173  -0.0215   0.0200  -0.0141   0.50  999.9
2020/06/29 08:13:57.000  -2191127.7242   5198842.9274   2965370.5631   1  22   0.0193   0.0333   0.0173  -0.0215   0.0200  -0.0141   0.00  999.9
2020/06/29 08:13:57.500  -2191127.7265   5198842.9289   2965370.5647   1  22   0.0193   0.0333   0.0172  -0.0215   0.0200  -0.0141   0.50  999.9
2020/06/29 08:13:58.000  -2191127.7267   5198842.9253   2965370.5634   1  22   0.0193   0.0333   0.0172  -0.0215   0.0200  -0.0140   0.00  999.9
2020/06/29 08:13:58.500  -2191127.7280   5198842.9278   2965370.5657   1  22   0.0193   0.0333   0.0172  -0.0215   0.0200  -0.0140   0.50  999.9
2020/06/29 08:13:59.000  -2191127.7289   5198842.9312   2965370.5656   1  22   0.0193   0.0333   0.0172  -0.0215   0.0200  -0.0140   0.00  999.9
2020/06/29 08:13:59.500  -2191127.7287   5198842.9319   2965370.5666   1  22   0.0193   0.0333   0.0172  -0.0215   0.0200  -0.0140   0.50  999.9
2020/06/29 08:14:00.000  -2191127.7275   5198842.9292   2965370.5664   1  22   0.0193   0.0333   0.0172  -0.0214   0.0200  -0.0140   0.00  999.9
2020/06/29 08:14:00.500  -2191127.7268   5198842.9300   2965370.5660   1  22   0.0193   0.0333   0.0172  -0.0215   0.0200  -0.0141   0.50  999.9
2020/06/29 08:14:01.000  -2191127.7265   5198842.9264   2965370.5650   1  22   0.0193   0.0333   0.0172  -0.0214   0.0200  -0.0140   0.00  999.9
2020/06/29 08:14:01.500  -2191127.7268   5198842.9257   2965370.5647   1  22   0.0193   0.0333   0.0172  -0.0214   0.0200  -0.0140   0.50  999.9
2020/06/29 08:14:02.000  -2191127.7275   5198842.9301   2965370.5669   1  22   0.0193   0.0333   0.0172  -0.0214   0.0200  -0.0140   0.00  999.9
2020/06/29 08:14:02.500  -2191127.7280   5198842.9305   2965370.5682   1  22   0.0193   0.0333   0.0172  -0.0214   0.0200  -0.0140   0.50  999.9
2020/06/29 08:14:03.000  -2191127.7273   5198842.9307   2965370.5681   1  22   0.0193   0.0333   0.0172  -0.0214   0.0200  -0.0140   0.00  999.9
2020/06/29 08:14:03.500  -2191127.7288   5198842.9319   2965370.5675   1  22   0.0193   0.0333   0.0172  -0.0214   0.0200  -0.0140   0.50  999.9
2020/06/29 08:14:04.000  -2191127.7274   5198842.9299   2965370.5673   1  22   0.0193   0.0333   0.0172  -0.0214   0.0200  -0.0140   0.00  999.9
2020/06/29 08:14:04.500  -2191127.7271   5198842.9318   2965370.5678   1  22   0.0193   0.0333   0.0172  -0.0214   0.0200  -0.0140   0.50  999.9
2020/06/29 08:14:05.000  -2191127.7269   5198842.9291   2965370.5655   1  22   0.0193   0.0333   0.0172  -0.0214   0.0200  -0.0140   0.00  999.9
2020/06/29 08:14:05.500  -2191127.7283   5198842.9304   2965370.5650   1  22   0.0193   0.0333   0.0172  -0.0214   0.0200  -0.0140   0.50  999.9
2020/06/29 08:14:06.000  -2191127.7290   5198842.9330   2965370.5674   1  22   0.0193   0.0333   0.0172  -0.0214   0.0200  -0.0140   0.00  999.9
2020/06/29 08:14:06.500  -2191127.7273   5198842.9304   2965370.5662   1  22   0.0193   0.0333   0.0172  -0.0214   0.0200  -0.0140   0.50  999.9
2020/06/29 08:14:07.000  -2191127.7273   5198842.9285   2965370.5656   1  22   0.0193   0.0332   0.0172  -0.0214   0.0200  -0.0140   0.00  999.9
2020/06/29 08:14:07.500  -2191127.7257   5198842.9300   2965370.5652   1  22   0.0193   0.0333   0.0172  -0.0214   0.0200  -0.0140   0.50  999.9
2020/06/29 08:14:08.000  -2191127.7263   5198842.9281   2965370.5640   1  22   0.0193   0.0332   0.0172  -0.0214   0.0200  -0.0140   0.00  999.9
2020/06/29 08:14:08.500  -2191127.7280   5198842.9298   2965370.5647   1  22   0.0193   0.0333   0.0172  -0.0214   0.0200  -0.0140   0.50  999.9
2020/06/29 08:14:09.000  -2191127.7290   5198842.9345   2965370.5675   1  22   0.0193   0.0332   0.0172  -0.0214   0.0200  -0.0140   0.00  999.9
2020/06/29 08:14:09.500  -2191127.7263   5198842.9298   2965370.5665   1  22   0.0193   0.0332   0.0172  -0.0214   0.0200  -0.0140   0.50  999.9
2020/06/29 08:14:10.000  -2191127.7260   5198842.9278   2965370.5653   1  22   0.0193   0.0332   0.0172  -0.0214   0.0200  -0.0140   0.00  999.9
2020/06/29 08:14:10.500  -2191127.7257   5198842.9292   2965370.5656   1  22   0.0193   0.0332   0.0172  -0.0214   0.0200  -0.0140   0.50  999.9
2020/06/29 08:14:11.000  -2191127.7276   5198842.9299   2965370.5673   1  22   0.0193   0.0332   0.0172  -0.0214   0.0200  -0.0140   0.00  999.9
2020/06/29 08:14:11.500  -2191127.7279   5198842.9306   2965370.5681   1  22   0.0193   0.0332   0.0172  -0.0214   0.0200  -0.0140   0.50  999.9
2020/06/29 08:14:12.000  -2191127.7262   5198842.9290   2965370.5672   1  22   0.0193   0.0332   0.0172  -0.0214   0.0199  -0.0140   0.00  999.9
2020/06/29 08:14:12.500  -2191127.7264   5198842.9309   2965370.5666   1  22   0.0193   0.0332   0.0172  -0.0214   0.0199  -0.0140   0.50  999.9
2020/06/29 08:14:13.000  -2191127.7274   5198842.9294   2965370.5664   1  22   0.0193   0.0332   0.0172  -0.0214   0.0199  -0.0140   0.00  999.9
2020/06/29 08:14:13.500  -2191127.7271   5198842.9277   2965370.5670   1  22   0.0193   0.0332   0.0172  -0.0214   0.0199  -0.0140   0.50  999.9
2020/06/29 08:14:14.000  -2191127.7271   5198842.9297   2965370.5670   1  22   0.0193   0.0332   0.0172  -0.0214   0.0199  -0.0140   0.00  999.9
2020/06/29 08:14:14.500  -2191127.7282   5198842.9305   2965370.5677   1  22   0.0193   0.0332   0.0172  -0.0214   0.0199  -0.0140   0.50  999.9
2020/06/29 08:14:15.000  -2191127.7285   5198842.9299   2965370.5666   1  22   0.0193   0.0332   0.0171  -0.0214   0.0199  -0.0140   0.00  999.9
2020/06/29 08:14:15.500  -2191127.7293   5198842.9333   2965370.5678   1  22   0.0193   0.0332   0.0172  -0.0214   0.0199  -0.0140   0.50  999.9
2020/06/29 08:14:16.000  -2191127.7277   5198842.9295   2965370.5660   1  22   0.0193   0.0332   0.0171  -0.0214   0.0199  -0.0140   0.00  999.9
2020/06/29 08:14:16.500  -2191127.7271   5198842.9292   2965370.5654   1  22   0.0193   0.0332   0.0172  -0.0214   0.0199  -0.0140   0.50  999.9
2020/06/29 08:14:17.000  -2191127.7295   5198842.9327   2965370.5678   1  22   0.0193   0.0332   0.0172  -0.0214   0.0199  -0.0140   0.00  999.9
2020/06/29 08:14:17.500  -2191127.7288   5198842.9321   2965370.5667   1  22   0.0193   0.0332   0.0171  -0.0214   0.0199  -0.0140   0.50  999.9
2020/06/29 08:14:18.000  -2191127.7248   5198842.9283   2965370.5660   1  22   0.0193   0.0332   0.0171  -0.0214   0.0199  -0.0140   0.00  999.9
2020/06/29 08:14:18.500  -2191127.7264   5198842.9294   2965370.5662   1  22   0.0193   0.0332   0.0171  -0.0214   0.0199  -0.0140   0.50  999.9
2020/06/29 08:14:19.000  -2191127.7260   5198842.9299   2965370.5658   1  22   0.0193   0.0332   0.0171  -0.0214   0.0199  -0.0140   0.00  999.9
2020/06/29 08:14:19.500  -2191127.7284   5198842.9325   2965370.5669   1  22   0.0193   0.0332   0.0171  -0.0214   0.0199  -0.0140   0.50  999.9
2020/06/29 08:14:20.000  -2191127.7275   5198842.9311   2965370.5671   1  22   0.0193   0.0332   0.0171  -0.0214   0.0199  -0.0140   0.00  999.9
2020/06/29 08:14:20.500  -2191127.7273   5198842.9306   2965370.5678   1  22   0.0193   0.0332   0.0172  -0.0214   0.0199  -0.0140   0.50  999.9
2020/06/29 08:14:21.000  -2191127.7269   5198842.9313   2965370.5659   1  22   0.0193   0.0332   0.0171  -0.0214   0.0199  -0.0140   0.00  999.9
2020/06/29 08:14:21.500  -2191127.7281   5198842.9314   2965370.5667   1  22   0.0193   0.0332   0.0171  -0.0214   0.0199  -0.0140   0.50  999.9
2020/06/29 08:14:22.000  -2191127.7309   5198842.9361   2965370.5696   1  22   0.0193   0.0332   0.0171  -0.0214   0.0199  -0.0140   0.00  999.9
2020/06/29 08:14:22.500  -2191127.7289   5198842.9333   2965370.5676   1  22   0.0193   0.0332   0.0171  -0.0214   0.0199  -0.0140   0.50  999.9
2020/06/29 08:14:23.000  -2191127.7276   5198842.9284   2965370.5672   1  22   0.0193   0.0332   0.0171  -0.0214   0.0199  -0.0139   0.00  999.9
2020/06/29 08:14:23.500  -2191127.7280   5198842.9315   2965370.5683   1  22   0.0193   0.0332   0.0171  -0.0214   0.0199  -0.0140   0.50  999.9
2020/06/29 08:14:24.000  -2191127.7279   5198842.9297   2965370.5669   1  22   0.0193   0.0332   0.0171  -0.0214   0.0199  -0.0140   0.00  999.9
2020/06/29 08:14:24.500  -2191127.7288   5198842.9307   2965370.5676   1  22   0.0193   0.0332   0.0171  -0.0214   0.0199  -0.0139   0.50  999.9
2020/06/29 08:14:25.000  -2191127.7280   5198842.9321   2965370.5674   1  22   0.0193   0.0332   0.0171  -0.0213   0.0199  -0.0139   0.00  999.9
2020/06/29 08:14:25.500  -2191127.7283   5198842.9333   2965370.5668   1  22   0.0193   0.0332   0.0171  -0.0214   0.0199  -0.0139   0.50  999.9
2020/06/29 08:14:26.000  -2191127.7280   5198842.9331   2965370.5680   1  22   0.0192   0.0332   0.0171  -0.0214   0.0199  -0.0140   0.00  999.9
2020/06/29 08:14:26.500  -2191127.7268   5198842.9323   2965370.5668   1  22   0.0193   0.0332   0.0171  -0.0214   0.0199  -0.0139   0.50  999.9
2020/06/29 08:14:27.000  -2191127.7273   5198842.9338   2965370.5690   1  22   0.0193   0.0332   0.0171  -0.0214   0.0199  -0.0139   0.00  999.9
2020/06/29 08:14:27.500  -2191127.7281   5198842.9325   2965370.5685   1  22   0.0193   0.0332   0.0171  -0.0214   0.0199  -0.0139   0.50  999.9
2020/06/29 08:14:28.000  -2191127.7288   5198842.9325   2965370.5685   1  22   0.0192   0.0332   0.0171  -0.0214   0.0199  -0.0139   0.00  999.9
2020/06/29 08:14:28.500  -2191127.7299   5198842.9323   2965370.5683   1  22   0.0193   0.0332   0.0171  -0.0214   0.0199  -0.0140   0.50  999.9
2020/06/29 08:14:29.000  -2191127.7307   5198842.9363   2965370.5685   1  22   0.0193   0.0332   0.0171  -0.0213   0.0199  -0.0139   0.00  999.9
2020/06/29 08:14:29.500  -2191127.7312   5198842.9365   2965370.5692   1  22   0.0193   0.0332   0.0171  -0.0214   0.0199  -0.0139   0.50  999.9
2020/06/29 08:14:30.000  -2191127.7311   5198842.9376   2965370.5702   1  22   0.0193   0.0331   0.0171  -0.0213   0.0199  -0.0139   0.00  999.9
2020/06/29 08:14:30.500  -2191127.7291   5198842.9360   2965370.5686   1  22   0.0192   0.0332   0.0171  -0.0214   0.0199  -0.0139   0.50  999.9
2020/06/29 08:14:31.000  -2191127.7274   5198842.9321   2965370.5677   1  22   0.0192   0.0331   0.0171  -0.0213   0.0199  -0.0139   0.00  999.9
2020/06/29 08:14:31.500  -2191127.7258   5198842.9292   2965370.5660   1  22   0.0193   0.0332   0.0171  -0.0213   0.0199  -0.0139   0.50  999.9
2020/06/29 08:14:32.000  -2191127.7292   5198842.9329   2965370.5701   1  22   0.0192   0.0331   0.0171  -0.0213   0.0199  -0.0139   0.00  999.9
2020/06/29 08:14:32.500  -2191127.7301   5198842.9347   2965370.5706   1  22   0.0193   0.0332   0.0171  -0.0213   0.0199  -0.0139   0.50  999.9
2020/06/29 08:14:33.000  -2191127.7293   5198842.9338   2965370.5700   1  22   0.0192   0.0331   0.0171  -0.0213   0.0199  -0.0139   0.00  999.9
2020/06/29 08:14:33.500  -2191127.7283   5198842.9317   2965370.5681   1  22   0.0193   0.0332   0.0171  -0.0214   0.0199  -0.0139   0.50  999.9
2020/06/29 08:14:34.000  -2191127.7279   5198842.9303   2965370.5661   1  22   0.0192   0.0331   0.0171  -0.0213   0.0199  -0.0139   0.00  999.9
2020/06/29 08:14:34.500  -2191127.7282   5198842.9298   2965370.5658   1  22   0.0192   0.0331   0.0171  -0.0214   0.0199  -0.0139   0.50  999.9
2020/06/29 08:14:35.000  -2191127.7281   5198842.9325   2965370.5665   1  22   0.0192   0.0331   0.0171  -0.0213   0.0199  -0.0139   0.00  999.9
2020/06/29 08:14:35.500  -2191127.7284   5198842.9294   2965370.5654   1  22   0.0193   0.0331   0.0171  -0.0213   0.0199  -0.0139   0.50  999.9
2020/06/29 08:14:36.000  -2191127.7266   5198842.9333   2965370.5670   1  22   0.0192   0.0331   0.0171  -0.0213   0.0199  -0.0139   0.00  999.9
2020/06/29 08:14:36.500  -2191127.7263   5198842.9310   2965370.5670   1  22   0.0192   0.0331   0.0171  -0.0214   0.0199  -0.0139   0.50  999.9
2020/06/29 08:14:37.000  -2191127.7292   5198842.9309   2965370.5676   1  22   0.0192   0.0331   0.0171  -0.0213   0.0199  -0.0139   0.00  999.9
2020/06/29 08:14:37.500  -2191127.7279   5198842.9333   2965370.5680   1  22   0.0193   0.0331   0.0171  -0.0213   0.0199  -0.0139   0.50  999.9
2020/06/29 08:14:38.000  -2191127.7277   5198842.9324   2965370.5674   1  22   0.0192   0.0331   0.0171  -0.0213   0.0199  -0.0139   0.00  999.9
2020/06/29 08:14:38.500  -2191127.7291   5198842.9356   2965370.5690   1  22   0.0192   0.0331   0.0171  -0.0213   0.0199  -0.0139   0.50  999.9
2020/06/29 08:14:39.000  -2191127.7270   5198842.9312   2965370.5671   1  22   0.0192   0.0331   0.0171  -0.0213   0.0198  -0.0139   0.00  999.9
2020/06/29 08:14:39.500  -2191127.7280   5198842.9329   2965370.5669   1  22   0.0193   0.0331   0.0171  -0.0213   0.0199  -0.0139   0.50  999.9
2020/06/29 08:14:40.000  -2191127.7271   5198842.9305   2965370.5681   1  22   0.0192   0.0331   0.0171  -0.0213   0.0199  -0.0139   0.00  999.9
2020/06/29 08:14:40.500  -2191127.7259   5198842.9297   2965370.5680   1  22   0.0192   0.0331   0.0171  -0.0213   0.0199  -0.0139   0.50  999.9
2020/06/29 08:14:41.000  -2191127.7291   5198842.9366   2965370.5705   1  22   0.0192   0.0331   0.0171  -0.0213   0.0198  -0.0139   0.00  999.9
2020/06/29 08:14:41.500  -2191127.7278   5198842.9357   2965370.5697   1  22   0.0192   0.0331   0.0171  -0.0213   0.0199  -0.0139   0.50  999.9
2020/06/29 08:14:42.000  -2191127.7282   5198842.9322   2965370.5665   1  22   0.0192   0.0331   0.0171  -0.0213   0.0198  -0.0139   0.00  999.9
2020/06/29 08:14:42.500  -2191127.7287   5198842.9334   2965370.5656   1  22   0.0192   0.0331   0.0171  -0.0213   0.0198  -0.0139   0.50  999.9
2020/06/29 08:14:43.000  -2191127.7282   5198842.9328   2965370.5682   1  22   0.0192   0.0331   0.0171  -0.0213   0.0198  -0.0139   0.00  999.9
2020/06/29 08:14:43.500  -2191127.7285   5198842.9320   2965370.5662   1  22   0.0192   0.0331   0.0171  -0.0213   0.0198  -0.0139   0.50  999.9
2020/06/29 08:14:44.000  -2191127.7270   5198842.9323   2965370.5673   1  22   0.0192   0.0331   0.0171  -0.0213   0.0198  -0.0139   0.00  999.9
2020/06/29 08:14:44.500  -2191127.7282   5198842.9322   2965370.5660   1  22   0.0192   0.0331   0.0171  -0.0213   0.0198  -0.0139   0.50  999.9
2020/06/29 08:14:45.000  -2191127.7278   5198842.9329   2965370.5683   1  22   0.0192   0.0331   0.0171  -0.0213   0.0198  -0.0139   0.00  999.9
2020/06/29 08:14:45.500  -2191127.7275   5198842.9334   2965370.5687   1  22   0.0192   0.0331   0.0171  -0.0213   0.0198  -0.0139   0.50  999.9
2020/06/29 08:14:46.000  -2191127.7272   5198842.9326   2965370.5691   1  22   0.0192   0.0331   0.0171  -0.0213   0.0198  -0.0139   0.00  999.9
2020/06/29 08:14:46.500  -2191127.7271   5198842.9324   2965370.5681   1  22   0.0192   0.0331   0.0171  -0.0213   0.0198  -0.0139   0.50  999.9
2020/06/29 08:14:47.000  -2191127.7269   5198842.9328   2965370.5666   1  22   0.0192   0.0331   0.0171  -0.0213   0.0198  -0.0139   0.00  999.9
2020/06/29 08:14:47.500  -2191127.7280   5198842.9328   2965370.5679   1  22   0.0192   0.0331   0.0171  -0.0213   0.0198  -0.0139   0.50  999.9
2020/06/29 08:14:48.000  -2191127.7279   5198842.9333   2965370.5679   1  22   0.0192   0.0331   0.0171  -0.0213   0.0198  -0.0139   0.00  999.9
2020/06/29 08:14:48.500  -2191127.7284   5198842.9341   2965370.5670   1  22   0.0192   0.0331   0.0171  -0.0213   0.0198  -0.0139   0.50  999.9
2020/06/29 08:14:49.000  -2191127.7285   5198842.9315   2965370.5679   1  22   0.0192   0.0331   0.0170  -0.0213   0.0198  -0.0139   0.00  999.9
2020/06/29 08:14:49.500  -2191127.7282   5198842.9325   2965370.5681   1  22   0.0192   0.0331   0.0171  -0.0213   0.0198  -0.0139   0.50  999.9
2020/06/29 08:14:50.000  -2191127.7274   5198842.9321   2965370.5689   1  22   0.0192   0.0331   0.0171  -0.0213   0.0198  -0.0139   0.00  999.9
2020/06/29 08:14:50.500  -2191127.7253   5198842.9288   2965370.5685   1  22   0.0193   0.0331   0.0171  -0.0213   0.0198  -0.0139   0.50  999.9
2020/06/29 08:14:51.000  -2191127.7272   5198842.9293   2965370.5664   1  22   0.0192   0.0331   0.0171  -0.0213   0.0198  -0.0139   0.00  999.9
2020/06/29 08:14:51.500  -2191127.7250   5198842.9310   2965370.5665   1  22   0.0192   0.0331   0.0171  -0.0213   0.0198  -0.0139   0.50  999.9
2020/06/29 08:14:52.000  -2191127.7253   5198842.9312   2965370.5672   1  22   0.0192   0.0331   0.0171  -0.0213   0.0198  -0.0139   0.00  999.9
2020/06/29 08:14:52.500  -2191127.7255   5198842.9303   2965370.5666   1  22   0.0192   0.0331   0.0170  -0.0213   0.0198  -0.0139   0.50  999.9
2020/06/29 08:14:53.000  -2191127.7270   5198842.9310   2965370.5663   1  22   0.0192   0.0331   0.0170  -0.0213   0.0198  -0.0139   0.00  999.9
2020/06/29 08:14:53.500  -2191127.7265   5198842.9289   2965370.5662   1  22   0.0192   0.0331   0.0170  -0.0213   0.0198  -0.0139   0.50  999.9
2020/06/29 08:14:54.000  -2191127.7271   5198842.9314   2965370.5676   1  22   0.0192   0.0331   0.0170  -0.0213   0.0198  -0.0139   0.00  999.9
2020/06/29 08:14:54.500  -2191127.7276   5198842.9320   2965370.5674   1  22   0.0193   0.0331   0.0171  -0.0213   0.0198  -0.0139   0.50  999.9
2020/06/29 08:14:55.000  -2191127.7261   5198842.9311   2965370.5668   1  22   0.0192   0.0331   0.0170  -0.0213   0.0198  -0.0139   0.00  999.9
2020/06/29 08:14:55.500  -2191127.7261   5198842.9310   2965370.5665   1  22   0.0192   0.0331   0.0170  -0.0213   0.0198  -0.0139   0.50  999.9
2020/06/29 08:14:56.000  -2191127.7269   5198842.9286   2965370.5654   1  22   0.0192   0.0331   0.0170  -0.0213   0.0198  -0.0139   0.00  999.9
2020/06/29 08:14:56.500  -2191127.7274   5198842.9323   2965370.5675   1  22   0.0192   0.0331   0.0170  -0.0213   0.0198  -0.0139   0.50  999.9
2020/06/29 08:14:57.000  -2191127.7276   5198842.9327   2965370.5684   1  22   0.0192   0.0331   0.0170  -0.0213   0.0198  -0.0139   0.00  999.9
2020/06/29 08:15:01.500  -2191127.7261   5198842.9301   2965370.5649   1  22   0.0192   0.0331   0.0170  -0.0213   0.0198  -0.0139   0.50  999.9
2020/06/29 08:15:02.000  -2191127.7248   5198842.9298   2965370.5646   1  22   0.0192   0.0331   0.0170  -0.0213   0.0198  -0.0139   0.00  999.9
2020/06/29 08:15:02.500  -2191127.7253   5198842.9323   2965370.5653   1  22   0.0192   0.0331   0.0170  -0.0213   0.0198  -0.0139   0.50  999.9
2020/06/29 08:15:03.000  -2191127.7262   5198842.9320   2965370.5656   1  22   0.0192   0.0331   0.0170  -0.0213   0.0198  -0.0139   0.00  999.9
2020/06/29 08:15:03.500  -2191127.7245   5198842.9285   2965370.5636   1  22   0.0192   0.0331   0.0170  -0.0213   0.0198  -0.0139   0.50  999.9
2020/06/29 08:15:04.000  -2191127.7270   5198842.9322   2965370.5671   1  22   0.0192   0.0331   0.0170  -0.0213   0.0198  -0.0139   0.00  999.9
2020/06/29 08:15:04.500  -2191127.7257   5198842.9318   2965370.5675   1  22   0.0192   0.0331   0.0170  -0.0213   0.0198  -0.0139   0.50  999.9
2020/06/29 08:15:05.000  -2191127.7266   5198842.9302   2965370.5655   1  22   0.0192   0.0331   0.0170  -0.0213   0.0198  -0.0139   0.00  999.9
2020/06/29 08:15:05.500  -2191127.7252   5198842.9291   2965370.5646   1  22   0.0192   0.0331   0.0170  -0.0213   0.0198  -0.0139   0.50  999.9
2020/06/29 08:15:06.000  -2191127.7268   5198842.9317   2965370.5666   1  21   0.0215   0.0348   0.0180  -0.0236   0.0213  -0.0158   0.00  999.9
2020/06/29 08:15:06.500  -2191127.7294   5198842.9349   2965370.5685   1  22   0.0215   0.0348   0.0180  -0.0236   0.0213  -0.0158   0.50  999.9
2020/06/29 08:15:07.000  -2191127.7275   5198842.9307   2965370.5664   1  22   0.0204   0.0339   0.0175  -0.0225   0.0206  -0.0148   0.00  999.9
2020/06/29 08:15:07.500  -2191127.7267   5198842.9306   2965370.5652   1  22   0.0200   0.0336   0.0173  -0.0221   0.0203  -0.0145   0.50  999.9
2020/06/29 08:15:08.000  -2191127.7263   5198842.9324   2965370.5679   1  22   0.0198   0.0335   0.0173  -0.0219   0.0202  -0.0144   0.00  999.9
2020/06/29 08:15:08.500  -2191127.7288   5198842.9324   2965370.5682   1  22   0.0197   0.0334   0.0172  -0.0218   0.0201  -0.0143   0.50  999.9
2020/06/29 08:15:09.000  -2191127.7258   5198842.9327   2965370.5672   1  21   0.0215   0.0348   0.0180  -0.0236   0.0213  -0.0158   0.00  999.9
2020/06/29 08:15:09.500  -2191127.7262   5198842.9317   2965370.5671   1  21   0.0215   0.0348   0.0180  -0.0236   0.0213  -0.0158   0.50  999.9
2020/06/29 08:15:10.000  -2191127.7294   5198842.9347   2965370.5689   1  22   0.0215   0.0348   0.0180  -0.0236   0.0213  -0.0157   0.00  999.9
2020/06/29 08:15:10.500  -2191127.7280   5198842.9326   2965370.5670   1  22   0.0204   0.0339   0.0175  -0.0225   0.0206  -0.0148   0.50  999.9
2020/06/29 08:15:11.000  -2191127.7263   5198842.9297   2965370.5663   1  22   0.0200   0.0336   0.0173  -0.0221   0.0203  -0.0145   0.00  999.9
2020/06/29 08:15:11.500  -2191127.7274   5198842.9321   2965370.5690   1  22   0.0198   0.0335   0.0173  -0.0219   0.0202  -0.0143   0.50  999.9
2020/06/29 08:15:12.000  -2191127.7276   5198842.9330   2965370.5690   1  22   0.0197   0.0334   0.0172  -0.0217   0.0201  -0.0142   0.00  999.9
2020/06/29 08:15:12.500  -2191127.7274   5198842.9327   2965370.5676   1  22   0.0196   0.0333   0.0172  -0.0217   0.0200  -0.0142   0.50  999.9
2020/06/29 08:15:21.500  -2191127.7265   5198842.9315   2965370.5659   1  23   0.0195   0.0333   0.0171  -0.0216   0.0200  -0.0141   0.50  999.9
2020/06/29 08:15:22.000  -2191127.7254   5198842.9308   2965370.5666   1  23   0.0189   0.0322   0.0170  -0.0206   0.0194  -0.0136   0.00  999.9
2020/06/29 08:15:22.500  -2191127.7250   5198842.9308   2965370.5674   1  23   0.0186   0.0319   0.0169  -0.0202   0.0193  -0.0135   0.50  999.9
2020/06/29 08:15:23.000  -2191127.7248   5198842.9314   2965370.5678   1  23   0.0185   0.0317   0.0168  -0.0200   0.0191  -0.0134   0.00  999.9
2020/06/29 08:15:23.500  -2191127.7256   5198842.9285   2965370.5669   1  23   0.0184   0.0315   0.0168  -0.0199   0.0191  -0.0133   0.50  999.9
2020/06/29 08:15:24.000  -2191127.7255   5198842.9304   2965370.5669   1  23   0.0183   0.0314   0.0168  -0.0198   0.0190  -0.0133   0.00  999.9
2020/06/29 08:15:24.500  -2191127.7241   5198842.9298   2965370.5660   1  23   0.0183   0.0314   0.0168  -0.0198   0.0190  -0.0132   0.50  999.9
2020/06/29 08:15:25.000  -2191127.7249   5198842.9282   2965370.5653   1  23   0.0182   0.0313   0.0168  -0.0197   0.0190  -0.0132   0.00  999.9
2020/06/29 08:15:25.500  -2191127.7256   5198842.9301   2965370.5663   1  23   0.0182   0.0313   0.0168  -0.0197   0.0189  -0.0132   0.50  999.9
2020/06/29 08:15:26.000  -2191127.7261   5198842.9323   2965370.5679   1  23   0.0181   0.0312   0.0167  -0.0196   0.0189  -0.0132   0.00  999.9
2020/06/29 08:15:26.500  -2191127.7259   5198842.9301   2965370.5663   1  23   0.0182   0.0312   0.0168  -0.0196   0.0189  -0.0131   0.50  999.9
2020/06/29 08:15:27.000  -2191127.7272   5198842.9341   2965370.5694   1  23   0.0181   0.0312   0.0167  -0.0196   0.0189  -0.0131   0.00  999.9
2020/06/29 08:15:27.500  -2191127.7278   5198842.9329   2965370.5673   1  23   0.0181   0.0312   0.0167  -0.0196   0.0189  -0.0131   0.50  999.9
2020/06/29 08:15:28.000  -2191127.7271   5198842.9312   2965370.5681   1  23   0.0181   0.0312   0.0167  -0.0195   0.0189  -0.0131   0.00  999.9
2020/06/29 08:15:28.500  -2191127.7250   5198842.9312   2965370.5678   1  23   0.0181   0.0312   0.0167  -0.0195   0.0189  -0.0131   0.50  999.9
2020/06/29 08:15:29.000  -2191127.7259   5198842.9274   2965370.5661   1  23   0.0181   0.0311   0.0167  -0.0195   0.0188  -0.0131   0.00  999.9
2020/06/29 08:15:29.500  -2191127.7280   5198842.9320   2965370.5681   1  23   0.0181   0.0311   0.0167  -0.0195   0.0188  -0.0131   0.50  999.9
2020/06/29 08:15:30.000  -2191127.7276   5198842.9321   2965370.5673   1  23   0.0180   0.0311   0.0167  -0.0195   0.0188  -0.0131   0.00  999.9
2020/06/29 08:15:30.500  -2191127.7268   5198842.9315   2965370.5673   1  23   0.0181   0.0311   0.0167  -0.0194   0.0188  -0.0131   0.50  999.9
2020/06/29 08:15:31.000  -2191127.7279   5198842.9340   2965370.5673   1  23   0.0180   0.0311   0.0167  -0.0194   0.0188  -0.0131   0.00  999.9
2020/06/29 08:15:31.500  -2191127.7277   5198842.9340   2965370.5668   1  23   0.0180   0.0311   0.0167  -0.0194   0.0188  -0.0131   0.50  999.9
2020/06/29 08:15:32.000  -2191127.7254   5198842.9302   2965370.5665   1  23   0.0180   0.0311   0.0167  -0.0194   0.0188  -0.0130   0.00  999.9
2020/06/29 08:15:32.500  -2191127.7273   5198842.9325   2965370.5680   1  23   0.0180   0.0311   0.0167  -0.0194   0.0188  -0.0130   0.50  999.9
2020/06/29 08:15:33.000  -2191127.7276   5198842.9316   2965370.5670   1  23   0.0180   0.0311   0.0167  -0.0194   0.0188  -0.0130   0.00  999.9
2020/06/29 08:15:33.500  -2191127.7286   5198842.9322   2965370.5680   1  23   0.0180   0.0311   0.0167  -0.0194   0.0188  -0.0130   0.50  999.9
2020/06/29 08:15:34.000  -2191127.7269   5198842.9308   2965370.5670   1  23   0.0180   0.0310   0.0167  -0.0194   0.0188  -0.0130   0.00  999.9
2020/06/29 08:15:34.500  -2191127.7259   5198842.9284   2965370.5661   1  23   0.0180   0.0310   0.0167  -0.0194   0.0188  -0.0130   0.50  999.9
2020/06/29 08:15:35.000  -2191127.7246   5198842.9280   2965370.5666   1  23   0.0180   0.0310   0.0167  -0.0194   0.0188  -0.0130   0.00  999.9
2020/06/29 08:15:35.500  -2191127.7246   5198842.9278   2965370.5663   1  23   0.0180   0.0310   0.0167  -0.0194   0.0188  -0.0130   0.50  999.9
2020/06/29 08:15:36.000  -2191127.7264   5198842.9315   2965370.5674   1  23   0.0180   0.0310   0.0167  -0.0194   0.0188  -0.0130   0.00  999.9
2020/06/29 08:15:36.500  -2191127.7254   5198842.9266   2965370.5654   1  23   0.0180   0.0310   0.0167  -0.0194   0.0188  -0.0130   0.50  999.9
2020/06/29 08:15:37.000  -2191127.7260   5198842.9292   2965370.5652   1  23   0.0180   0.0310   0.0167  -0.0194   0.0188  -0.0130   0.00  999.9
2020/06/29 08:15:37.500  -2191127.7249   5198842.9256   2965370.5651   1  23   0.0180   0.0310   0.0167  -0.0194   0.0188  -0.0130   0.50  999.9
2020/06/29 08:15:38.000  -2191127.7259   5198842.9293   2965370.5650   1  23   0.0179   0.0310   0.0167  -0.0194   0.0187  -0.0130   0.00  999.9
2020/06/29 08:15:38.500  -2191127.7243   5198842.9281   2965370.5648   1  23   0.0180   0.0310   0.0167  -0.0194   0.0188  -0.0130   0.50  999.9
2020/06/29 08:15:39.000  -2191127.7248   5198842.9272   2965370.5646   1  23   0.0180   0.0310   0.0167  -0.0193   0.0187  -0.0130   0.00  999.9
2020/06/29 08:15:39.500  -2191127.7253   5198842.9290   2965370.5658   1  23   0.0180   0.0310   0.0167  -0.0193   0.0187  -0.0130   0.50  999.9
2020/06/29 08:15:40.000  -2191127.7250   5198842.9286   2965370.5645   1  23   0.0180   0.0310   0.0167  -0.0193   0.0187  -0.0130   0.00  999.9
2020/06/29 08:15:40.500  -2191127.7251   5198842.9285   2965370.5647   1  23   0.0180   0.0310   0.0167  -0.0193   0.0187  -0.0130   0.50  999.9
2020/06/29 08:15:41.000  -2191127.7251   5198842.9285   2965370.5648   1  23   0.0180   0.0310   0.0166  -0.0193   0.0187  -0.0130   0.00  999.9
2020/06/29 08:15:41.500  -2191127.7230   5198842.9263   2965370.5646   1  23   0.0179   0.0310   0.0167  -0.0193   0.0187  -0.0130   0.50  999.9
2020/06/29 08:15:42.000  -2191127.7270   5198842.9317   2965370.5675   1  23   0.0179   0.0310   0.0166  -0.0193   0.0187  -0.0130   0.00  999.9
2020/06/29 08:15:42.500  -2191127.7270   5198842.9299   2965370.5659   1  23   0.0179   0.0310   0.0166  -0.0193   0.0187  -0.0130   0.50  999.9
2020/06/29 08:15:43.000  -2191127.7244   5198842.9284   2965370.5659   1  23   0.0179   0.0310   0.0166  -0.0193   0.0187  -0.0130   0.00  999.9
2020/06/29 08:15:43.500  -2191127.7232   5198842.9290   2965370.5653   1  23   0.0179   0.0310   0.0166  -0.0193   0.0187  -0.0130   0.50  999.9
2020/06/29 08:15:44.000  -2191127.7231   5198842.9266   2965370.5649   1  23   0.0179   0.0309   0.0166  -0.0193   0.0187  -0.0130   0.00  999.9
2020/06/29 08:15:44.500  -2191127.7238   5198842.9266   2965370.5639   1  23   0.0179   0.0310   0.0166  -0.0193   0.0187  -0.0130   0.50  999.9
2020/06/29 08:15:45.000  -2191127.7265   5198842.9298   2965370.5663   1  23   0.0179   0.0309   0.0166  -0.0193   0.0187  -0.0130   0.00  999.9
2020/06/29 08:15:45.500  -2191127.7267   5198842.9307   2965370.5665   1  23   0.0179   0.0309   0.0166  -0.0193   0.0187  -0.0129   0.50  999.9
2020/06/29 08:15:46.000  -2191127.7260   5198842.9323   2965370.5681   1  23   0.0179   0.0309   0.0166  -0.0193   0.0187  -0.0130   0.00  999.9
2020/06/29 08:15:46.500  -2191127.7272   5198842.9348   2965370.5690   1  23   0.0179   0.0309   0.0166  -0.0193   0.0187  -0.0130   0.50  999.9
2020/06/29 08:15:47.000  -2191127.7242   5198842.9263   2965370.5650   1  23   0.0179   0.0309   0.0166  -0.0193   0.0187  -0.0129   0.00  999.9
2020/06/29 08:15:47.500  -2191127.7253   5198842.9279   2965370.5654   1  23   0.0179   0.0309   0.0166  -0.0193   0.0187  -0.0129   0.50  999.9
2020/06/29 08:15:48.000  -2191127.7246   5198842.9286   2965370.5661   1  23   0.0179   0.0309   0.0166  -0.0193   0.0187  -0.0129   0.00  999.9
2020/06/29 08:15:48.500  -2191127.7239   5198842.9267   2965370.5657   1  23   0.0179   0.0309   0.0166  -0.0193   0.0187  -0.0129   0.50  999.9
2020/06/29 08:15:49.000  -2191127.7242   5198842.9277   2965370.5649   1  23   0.0179   0.0309   0.0166  -0.0193   0.0187  -0.0130   0.00  999.9
2020/06/29 08:15:49.500  -2191127.7252   5198842.9272   2965370.5661   1  23   0.0179   0.0309   0.0166  -0.0193   0.0187  -0.0129   0.50  999.9
2020/06/29 08:15:50.000  -2191127.7264   5198842.9301   2965370.5663   1  23   0.0179   0.0309   0.0166  -0.0193   0.0187  -0.0129   0.00  999.9
2020/06/29 08:15:50.500  -2191127.7274   5198842.9288   2965370.5679   1  23   0.0179   0.0309   0.0166  -0.0193   0.0187  -0.0130   0.50  999.9
2020/06/29 08:15:51.000  -2191127.7241   5198842.9290   2965370.5649   1  23   0.0179   0.0309   0.0166  -0.0193   0.0187  -0.0129   0.00  999.9
2020/06/29 08:15:51.500  -2191127.7259   5198842.9283   2965370.5664   1  23   0.0179   0.0309   0.0166  -0.0193   0.0187  -0.0129   0.50  999.9
2020/06/29 08:15:52.000  -2191127.7233   5198842.9279   2965370.5644   1  23   0.0179   0.0309   0.0166  -0.0193   0.0187  -0.0129   0.00  999.9
2020/06/29 08:15:52.500  -2191127.7248   5198842.9291   2965370.5646   1  23   0.0179   0.0309   0.0166  -0.0193   0.0187  -0.0129   0.50  999.9
2020/06/29 08:15:53.000  -2191127.7248   5198842.9291   2965370.5656   1  23   0.0179   0.0309   0.0166  -0.0193   0.0187  -0.0129   0.00  999.9
2020/06/29 08:15:53.500  -2191127.7236   5198842.9254   2965370.5636   1  23   0.0179   0.0309   0.0166  -0.0193   0.0187  -0.0129   0.50  999.9
2020/06/29 08:15:54.000  -2191127.7234   5198842.9277   2965370.5639   1  23   0.0179   0.0309   0.0166  -0.0193   0.0187  -0.0129   0.00  999.9
2020/06/29 08:15:54.500  -2191127.7244   5198842.9292   2965370.5650   1  23   0.0179   0.0309   0.0166  -0.0193   0.0187  -0.0129   0.50  999.9
2020/06/29 08:15:55.000  -2191127.7236   5198842.9261   2965370.5645   1  23   0.0179   0.0309   0.0166  -0.0192   0.0187  -0.0129   0.00  999.9
2020/06/29 08:15:55.500  -2191127.7248   5198842.9288   2965370.5650   1  23   0.0179   0.0309   0.0166  -0.0193   0.0187  -0.0129   0.50  999.9
2020/06/29 08:15:56.000  -2191127.7237   5198842.9271   2965370.5661   1  23   0.0179   0.0309   0.0166  -0.0193   0.0187  -0.0129   0.00  999.9
2020/06/29 08:15:56.500  -2191127.7254   5198842.9286   2965370.5654   1  23   0.0179   0.0309   0.0166  -0.0193   0.0187  -0.0129   0.50  999.9
2020/06/29 08:15:57.000  -2191127.7274   5198842.9301   2965370.5666   1  23   0.0179   0.0309   0.0166  -0.0192   0.0187  -0.0129   0.00  999.9
2020/06/29 08:15:57.500  -2191127.7262   5198842.9308   2965370.5662   1  23   0.0179   0.0309   0.0166  -0.0193   0.0187  -0.0129   0.50  999.9
2020/06/29 08:15:58.000  -2191127.7235   5198842.9296   2965370.5647   1  23   0.0179   0.0309   0.0166  -0.0192   0.0187  -0.0129   0.00  999.9
2020/06/29 08:15:58.500  -2191127.7256   5198842.9305   2965370.5662   1  23   0.0179   0.0309   0.0166  -0.0193   0.0187  -0.0129   0.50  999.9
2020/06/29 08:15:59.000  -2191127.7239   5198842.9270   2965370.5645   1  23   0.0179   0.0309   0.0166  -0.0192   0.0187  -0.0129   0.00  999.9
2020/06/29 08:15:59.500  -2191127.7239   5198842.9259   2965370.5639   1  23   0.0179   0.0309   0.0166  -0.0192   0.0187  -0.0129   0.50  999.9
2020/06/29 08:16:00.000  -2191127.7251   5198842.9271   2965370.5646   1  23   0.0179   0.0309   0.0166  -0.0192   0.0187  -0.0129   0.00  999.9
2020/06/29 08:16:00.500  -2191127.7242   5198842.9277   2965370.5649   1  23   0.0179   0.0309   0.0166  -0.0192   0.0187  -0.0129   0.50  999.9
2020/06/29 08:16:01.000  -2191127.7251   5198842.9297   2965370.5673   1  23   0.0179   0.0309   0.0166  -0.0192   0.0186  -0.0129   0.00  999.9
2020/06/29 08:16:01.500  -2191127.7243   5198842.9297   2965370.5664   1  23   0.0179   0.0309   0.0166  -0.0192   0.0187  -0.0129   0.50  999.9
2020/06/29 08:16:02.000  -2191127.7238   5198842.9273   2965370.5643   1  23   0.0179   0.0309   0.0166  -0.0192   0.0186  -0.0129   0.00  999.9
2020/06/29 08:16:02.500  -2191127.7229   5198842.9284   2965370.5651   1  23   0.0179   0.0309   0.0166  -0.0192   0.0187  -0.0129   0.50  999.9
2020/06/29 08:16:03.000  -2191127.7258   5198842.9296   2965370.5665   1  23   0.0179   0.0309   0.0166  -0.0192   0.0187  -0.0129   0.00  999.9
2020/06/29 08:16:03.500  -2191127.7265   5198842.9296   2965370.5669   1  23   0.0179   0.0309   0.0166  -0.0192   0.0186  -0.0129   0.50  999.9
2020/06/29 08:16:04.000  -2191127.7239   5198842.9282   2965370.5644   1  23   0.0179   0.0309   0.0166  -0.0192   0.0186  -0.0129   0.00  999.9
2020/06/29 08:16:04.500  -2191127.7252   5198842.9282   2965370.5649   1  23   0.0179   0.0309   0.0166  -0.0192   0.0186  -0.0129   0.50  999.9
2020/06/29 08:16:05.000  -2191127.7241   5198842.9279   2965370.5649   1  23   0.0179   0.0308   0.0166  -0.0192   0.0186  -0.0129   0.00  999.9
2020/06/29 08:16:05.500  -2191127.7246   5198842.9285   2965370.5654   1  23   0.0179   0.0309   0.0166  -0.0192   0.0186  -0.0129   0.50  999.9
2020/06/29 08:16:06.000  -2191127.7250   5198842.9294   2965370.5640   1  23   0.0179   0.0308   0.0166  -0.0192   0.0186  -0.0129   0.00  999.9
2020/06/29 08:16:06.500  -2191127.7245   5198842.9286   2965370.5655   1  23   0.0179   0.0309   0.0166  -0.0192   0.0186  -0.0129   0.50  999.9
2020/06/29 08:16:07.000  -2191127.7268   5198842.9308   2965370.5670   1  23   0.0179   0.0308   0.0166  -0.0192   0.0186  -0.0129   0.00  999.9
2020/06/29 08:16:07.500  -2191127.7270   5198842.9322   2965370.5675   1  23   0.0179   0.0308   0.0166  -0.0192   0.0186  -0.0129   0.50  999.9
2020/06/29 08:16:08.000  -2191127.7255   5198842.9313   2965370.5662   1  23   0.0179   0.0308   0.0166  -0.0192   0.0186  -0.0129   0.00  999.9
2020/06/29 08:16:08.500  -2191127.7250   5198842.9277   2965370.5647   1  23   0.0179   0.0308   0.0166  -0.0192   0.0186  -0.0129   0.50  999.9
2020/06/29 08:16:09.000  -2191127.7251   5198842.9283   2965370.5647   1  23   0.0179   0.0308   0.0166  -0.0192   0.0186  -0.0129   0.00  999.9
2020/06/29 08:16:09.500  -2191127.7257   5198842.9296   2965370.5665   1  23   0.0179   0.0308   0.0166  -0.0192   0.0186  -0.0129   0.50  999.9
2020/06/29 08:16:10.000  -2191127.7245   5198842.9258   2965370.5641   1  23   0.0179   0.0308   0.0166  -0.0192   0.0186  -0.0129   0.00  999.9
2020/06/29 08:16:10.500  -2191127.7245   5198842.9259   2965370.5638   1  23   0.0179   0.0308   0.0166  -0.0192   0.0186  -0.0129   0.50  999.9
2020/06/29 08:16:11.000  -2191127.7245   5198842.9284   2965370.5649   1  23   0.0179   0.0308   0.0166  -0.0192   0.0186  -0.0129   0.00  999.9
2020/06/29 08:16:11.500  -2191127.7240   5198842.9295   2965370.5659   1  23   0.0179   0.0308   0.0166  -0.0192   0.0186  -0.0129   0.50  999.9
2020/06/29 08:16:12.000  -2191127.7240   5198842.9271   2965370.5650   1  23   0.0179   0.0308   0.0166  -0.0192   0.0186  -0.0129   0.00  999.9
2020/06/29 08:16:12.500  -2191127.7228   5198842.9240   2965370.5637   1  23   0.0179   0.0308   0.0166  -0.0192   0.0186  -0.0129   0.50  999.9
2020/06/29 08:16:13.000  -2191127.7236   5198842.9262   2965370.5638   1  23   0.0196   0.0320   0.0173  -0.0209   0.0197  -0.0144   0.00  999.9
2020/06/29 08:16:13.500  -2191127.7242   5198842.9273   2965370.5648   1  23   0.0187   0.0314   0.0170  -0.0201   0.0192  -0.0137   0.50  999.9
2020/06/29 08:16:14.000  -2191127.7263   5198842.9295   2965370.5658   1  23   0.0185   0.0312   0.0168  -0.0198   0.0190  -0.0134   0.00  999.9
2020/06/29 08:16:14.500  -2191127.7258   5198842.9281   2965370.5654   1  23   0.0183   0.0311   0.0168  -0.0196   0.0189  -0.0133   0.50  999.9
2020/06/29 08:16:15.000  -2191127.7277   5198842.9300   2965370.5659   1  23   0.0182   0.0310   0.0167  -0.0195   0.0188  -0.0132   0.00  999.9
2020/06/29 08:16:15.500  -2191127.7263   5198842.9258   2965370.5644   1  23   0.0181   0.0310   0.0167  -0.0195   0.0188  -0.0131   0.50  999.9
2020/06/29 08:16:16.000  -2191127.7253   5198842.9279   2965370.5644   1  23   0.0181   0.0310   0.0167  -0.0194   0.0188  -0.0131   0.00  999.9
2020/06/29 08:16:16.500  -2191127.7257   5198842.9267   2965370.5641   1  23   0.0181   0.0310   0.0167  -0.0194   0.0187  -0.0131   0.50  999.9
2020/06/29 08:16:17.000  -2191127.7262   5198842.9303   2965370.5661   1  23   0.0181   0.0309   0.0166  -0.0194   0.0187  -0.0130   0.00  999.9
2020/06/29 08:16:17.500  -2191127.7244   5198842.9287   2965370.5652   1  23   0.0180   0.0309   0.0166  -0.0194   0.0187  -0.0130   0.50  999.9
2020/06/29 08:16:18.000  -2191127.7266   5198842.9318   2965370.5667   1  23   0.0180   0.0309   0.0166  -0.0193   0.0187  -0.0130   0.00  999.9
2020/06/29 08:16:18.500  -2191127.7248   5198842.9273   2965370.5671   1  23   0.0180   0.0309   0.0166  -0.0193   0.0187  -0.0130   0.50  999.9
2020/06/29 08:16:19.000  -2191127.7253   5198842.9273   2965370.5654   1  23   0.0180   0.0309   0.0166  -0.0193   0.0187  -0.0130   0.00  999.9
2020/06/29 08:16:19.500  -2191127.7254   5198842.9281   2965370.5654   1  23   0.0180   0.0309   0.0166  -0.0193   0.0187  -0.0130   0.50  999.9
2020/06/29 08:16:20.000  -2191127.7263   5198842.9300   2965370.5659   1  23   0.0180   0.0309   0.0166  -0.0193   0.0187  -0.0130   0.00  999.9
2020/06/29 08:16:20.500  -2191127.7265   5198842.9288   2965370.5671   1  23   0.0180   0.0309   0.0166  -0.0193   0.0187  -0.0129   0.50  999.9
2020/06/29 08:16:21.000  -2191127.7250   5198842.9280   2965370.5653   1  23   0.0180   0.0309   0.0166  -0.0193   0.0187  -0.0129   0.00  999.9
2020/06/29 08:16:21.500  -2191127.7258   5198842.9296   2965370.5651   1  23   0.0180   0.0309   0.0166  -0.0193   0.0187  -0.0129   0.50  999.9
2020/06/29 08:16:22.000  -2191127.7240   5198842.9261   2965370.5654   1  23   0.0179   0.0308   0.0166  -0.0193   0.0186  -0.0129   0.00  999.9
2020/06/29 08:16:22.500  -2191127.7242   5198842.9260   2965370.5654   1  23   0.0179   0.0308   0.0166  -0.0193   0.0186  -0.0129   0.50  999.9
2020/06/29 08:16:23.000  -2191127.7237   5198842.9280   2965370.5662   1  23   0.0179   0.0308   0.0166  -0.0192   0.0186  -0.0129   0.00  999.9
2020/06/29 08:16:23.500  -2191127.7255   5198842.9282   2965370.5658   1  23   0.0179   0.0308   0.0166  -0.0193   0.0186  -0.0129   0.50  999.9
2020/06/29 08:16:24.000  -2191127.7267   5198842.9270   2965370.5661   1  23   0.0179   0.0308   0.0166  -0.0192   0.0186  -0.0129   0.00  999.9
2020/06/29 08:16:24.500  -2191127.7286   5198842.9314   2965370.5688   1  23   0.0179   0.0308   0.0166  -0.0192   0.0186  -0.0129   0.50  999.9
2020/06/29 08:16:25.000  -2191127.7267   5198842.9279   2965370.5655   1  23   0.0179   0.0308   0.0166  -0.0192   0.0186  -0.0129   0.00  999.9
2020/06/29 08:16:25.500  -2191127.7260   5198842.9282   2965370.5661   1  23   0.0179   0.0308   0.0166  -0.0192   0.0186  -0.0129   0.50  999.9
2020/06/29 08:16:26.000  -2191127.7256   5198842.9290   2965370.5656   1  23   0.0179   0.0308   0.0166  -0.0192   0.0186  -0.0129   0.00  999.9
2020/06/29 08:16:26.500  -2191127.7238   5198842.9274   2965370.5658   1  23   0.0179   0.0308   0.0166  -0.0192   0.0186  -0.0129   0.50  999.9
2020/06/29 08:16:27.000  -2191127.7242   5198842.9262   2965370.5657   1  23   0.0179   0.0308   0.0166  -0.0192   0.0186  -0.0129   0.00  999.9
2020/06/29 08:16:27.500  -2191127.7236   5198842.9252   2965370.5639   1  23   0.0179   0.0308   0.0166  -0.0192   0.0186  -0.0129   0.50  999.9
2020/06/29 08:16:28.000  -2191127.7252   5198842.9265   2965370.5644   1  23   0.0179   0.0308   0.0166  -0.0192   0.0186  -0.0129   0.00  999.9
2020/06/29 08:16:28.500  -2191127.7264   5198842.9281   2965370.5671   1  23   0.0179   0.0308   0.0166  -0.0192   0.0186  -0.0129   0.50  999.9
2020/06/29 08:16:29.000  -2191127.7264   5198842.9315   2965370.5667   1  23   0.0179   0.0308   0.0166  -0.0192   0.0186  -0.0129   0.00  999.9
2020/06/29 08:16:29.500  -2191127.7267   5198842.9307   2965370.5681   1  23   0.0179   0.0308   0.0166  -0.0192   0.0186  -0.0129   0.50  999.9
2020/06/29 08:16:30.000  -2191127.7231   5198842.9251   2965370.5635   1  23   0.0179   0.0308   0.0166  -0.0192   0.0186  -0.0129   0.00  999.9
2020/06/29 08:16:30.500  -2191127.7259   5198842.9263   2965370.5662   1  23   0.0179   0.0308   0.0166  -0.0192   0.0186  -0.0129   0.50  999.9
2020/06/29 08:16:31.000  -2191127.7231   5198842.9232   2965370.5626   1  23   0.0179   0.0308   0.0166  -0.0192   0.0186  -0.0129   0.00  999.9
2020/06/29 08:16:31.500  -2191127.7221   5198842.9239   2965370.5635   1  23   0.0179   0.0308   0.0166  -0.0192   0.0186  -0.0129   0.50  999.9
2020/06/29 08:16:32.000  -2191127.7250   5198842.9274   2965370.5651   1  23   0.0179   0.0308   0.0166  -0.0192   0.0186  -0.0129   0.00  999.9
2020/06/29 08:16:32.500  -2191127.7243   5198842.9261   2965370.5650   1  23   0.0179   0.0308   0.0166  -0.0192   0.0186  -0.0129   0.50  999.9
2020/06/29 08:16:33.000  -2191127.7242   5198842.9270   2965370.5644   1  23   0.0179   0.0308   0.0166  -0.0192   0.0186  -0.0129   0.00  999.9
2020/06/29 08:16:33.500  -2191127.7268   5198842.9298   2965370.5671   1  23   0.0179   0.0308   0.0166  -0.0192   0.0186  -0.0129   0.50  999.9
2020/06/29 08:16:34.000  -2191127.7234   5198842.9267   2965370.5655   1  23   0.0179   0.0308   0.0166  -0.0192   0.0186  -0.0129   0.00  999.9
2020/06/29 08:16:34.500  -2191127.7230   5198842.9243   2965370.5645   1  23   0.0179   0.0308   0.0166  -0.0192   0.0186  -0.0129   0.50  999.9
2020/06/29 08:16:35.000  -2191127.7232   5198842.9266   2965370.5660   1  23   0.0179   0.0308   0.0166  -0.0192   0.0186  -0.0129   0.00  999.9
2020/06/29 08:16:35.500  -2191127.7239   5198842.9260   2965370.5658   1  23   0.0179   0.0308   0.0165  -0.0192   0.0186  -0.0129   0.50  999.9
