% ref pos   : -2191136.5960  5198839.0050  2965370.9860
%  UTC                       x-ecef(m)      y-ecef(m)      z-ecef(m)   Q  ns   sdx(m)   sdy(m)   sdz(m)  sdxy(m)  sdyz(m)  sdzx(m) age(s)  ratio





2020/06/29 09:02:07.000  -2191127.8180   5198843.7704   2965371.1487   2  27   1.5314   2.5633   1.3932  -1.3942   1.4093  -0.9061   0.00    0.0





2020/06/29 09:02:10.000  -2191127.7676   5198843.6929   2965370.8260   2  27   1.1795   1.9775   1.0726  -1.0584   1.0858  -0.6890   0.00    0.0





2020/06/29 09:02:13.000  -2191127.6955   5198843.5757   2965370.7636   2  27   0.9943   1.6586   0.9006  -0.8798   0.9093  -0.5744   0.00    0.0





2020/06/29 09:02:16.000  -2191127.6778   5198843.5129   2965370.8075   2  27   0.8734   1.4472   0.7880  -0.7620   0.7921  -0.4992   0.00    0.0





2020/06/29 09:02:19.000  -2191127.6339   5198843.4475   2965370.7985   2  26   0.7874   1.2918   0.7064  -0.6760   0.7059  -0.4453   0.00    0.0





2020/06/29 09:02:22.000  -2191127.6286   5198843.4682   2965370.8375   2  27   0.7179   1.1691   0.6424  -0.6063   0.6371  -0.4006   0.00    0.0





2020/06/29 09:02:25.000  -2191127.6080   5198843.4605   2965370.8462   2  27   0.6636   1.0684   0.5905  -0.5492   0.5806  -0.3649   0.00    0.0





2020/06/29 09:02:28.000  -2191127.5839   5198843.4191   2965370.8242   2  27   0.6186   0.9831   0.5469  -0.5004   0.5326  -0.3347   0.00    0.0





2020/06/29 09:02:31.000  -2191127.6327   5198843.2641   2965370.7474   1  27   0.0159   0.0275   0.0144  -0.0145   0.0150  -0.0093   0.00   15.1





2020/06/29 09:02:34.000  -2191127.7344   5198842.9397   2965370.5771   1  27   0.0159   0.0274   0.0144  -0.0145   0.0150  -0.0093   0.00   14.4





2020/06/29 09:02:37.000  -2191127.7350   5198842.9391   2965370.5781   1  27   0.0158   0.0273   0.0143  -0.0144   0.0150  -0.0093   0.00   14.8





2020/06/29 09:02:40.000  -2191127.7341   5198842.9382   2965370.5771   1  27   0.0158   0.0273   0.0143  -0.0144   0.0149  -0.0093   0.00   16.9





2020/06/29 09:02:43.000  -2191127.7340   5198842.9385   2965370.5783   1  27   0.0158   0.0272   0.0143  -0.0144   0.0149  -0.0093   0.00   18.8





2020/06/29 09:02:46.000  -2191127.7348   5198842.9377   2965370.5774   1  27   0.0158   0.0272   0.0143  -0.0144   0.0149  -0.0093   0.00  669.3





2020/06/29 09:02:49.000  -2191127.7339   5198842.9390   2965370.5777   1  27   0.0158   0.0272   0.0143  -0.0143   0.0149  -0.0093   0.00  999.9





2020/06/29 09:02:52.000  -2191127.7347   5198842.9386   2965370.5776   1  27   0.0157   0.0272   0.0143  -0.0143   0.0149  -0.0093   0.00  999.9





2020/06/29 09:02:55.000  -2191127.7340   5198842.9379   2965370.5780   1  27   0.0157   0.0271   0.0143  -0.0143   0.0149  -0.0093   0.00  999.9





2020/06/29 09:02:58.000  -2191127.7334   5198842.9375   2965370.5784   1  27   0.0169   0.0274   0.0146  -0.0152   0.0153  -0.0103   0.00  999.9





2020/06/29 09:03:01.000  -2191127.7356   5198842.9396   2965370.5787   1  27   0.0159   0.0271   0.0143  -0.0144   0.0150  -0.0094   0.00  999.9





2020/06/29 09:03:04.000  -2191127.7341   5198842.9385   2965370.5780   1  27   0.0158   0.0271   0.0143  -0.0143   0.0149  -0.0093   0.00  999.9





2020/06/29 09:03:07.000  -2191127.7340   5198842.9386   2965370.5783   1  27   0.0158   0.0271   0.0143  -0.0143   0.0149  -0.0093   0.00  999.9





2020/06/29 09:03:10.000  -2191127.7339   5198842.9366   2965370.5776   1  26   0.0169   0.0274   0.0146  -0.0151   0.0153  -0.0103   0.00  999.9





2020/06/29 09:03:13.000  -2191127.7339   5198842.9365   2965370.5778   1  27   0.0159   0.0271   0.0143  -0.0144   0.0150  -0.0094   0.00  999.9





2020/06/29 09:03:16.000  -2191127.7347   5198842.9382   2965370.5788   1  27   0.0158   0.0270   0.0143  -0.0143   0.0149  -0.0093   0.00  999.9





2020/06/29 09:03:19.000  -2191127.7346   5198842.9380   2965370.5784   1  27   0.0157   0.0270   0.0142  -0.0143   0.0149  -0.0093   0.00  999.9





2020/06/29 09:03:22.000  -2191127.7330   5198842.9381   2965370.5784   1  27   0.0157   0.0270   0.0142  -0.0142   0.0149  -0.0093   0.00  999.9





2020/06/29 09:03:25.000  -2191127.7331   5198842.9378   2965370.5790   1  27   0.0157   0.0270   0.0142  -0.0142   0.0149  -0.0092   0.00  999.9





2020/06/29 09:03:28.000  -2191127.7340   5198842.9374   2965370.5778   1  27   0.0157   0.0270   0.0142  -0.0142   0.0149  -0.0092   0.00  999.9





2020/06/29 09:03:31.000  -2191127.7349   5198842.9377   2965370.5790   1  27   0.0157   0.0270   0.0142  -0.0142   0.0149  -0.0092   0.00  999.9





2020/06/29 09:03:34.000  -2191127.7345   5198842.9377   2965370.5787   1  27   0.0157   0.0270   0.0142  -0.0142   0.0149  -0.0092   0.00  999.9





2020/06/29 09:03:37.000  -2191127.7338   5198842.9364   2965370.5779   1  27   0.0157   0.0270   0.0142  -0.0142   0.0149  -0.0092   0.00  999.9





2020/06/29 09:03:40.000  -2191127.7355   5198842.9365   2965370.5776   1  27   0.0157   0.0270   0.0142  -0.0142   0.0149  -0.0092   0.00  999.9




