     3.02           OBSERVATION DATA    M: Mixed            RINEX VERSION / TYPE
RTKCONV 2.4.3 b33                       20200930 083202 UTC PGM / RUN BY / DATE 
log: C:\Users\204\Desktop\r.txt                             COMMENT             
format: u-blox                                              COMMENT             
                                                            MARKER NAME         
                                                            MARKER NUMBER       
                                                            MARKER TYPE         
                                                            OBSERVER / AGENCY   
                                                            REC # / TYPE / VERS 
                                                            ANT # / TYPE        
 -2191140.4363  5198846.5633  2965393.3935                  APPROX POSITION XYZ 
        0.0000        0.0000        0.0000                  ANTENNA: DELTA H/E/N
G    4 C1C L1C D1C S1C                                      SYS / # / OBS TYPES 
C    4 C1I L1I D1I S1I                                      SYS / # / OBS TYPES 
  2020     9    30     8    30    2.0000000     GPS         TIME OF FIRST OBS   
  2020     9    30     8    31   34.0000000     GPS         TIME OF LAST OBS    
G                                                           SYS / PHASE SHIFT   
C                                                           SYS / PHASE SHIFT   
  0                                                         GLONASS SLOT / FRQ #
 C1C    0.000 C1P    0.000 C2C    0.000 C2P    0.000        GLONASS COD/PHS/BIS 
                                                            END OF HEADER       
> 2020  9 30  8 30  2.0000000  0 11                     
G10  21449689.333   112718874.3553       3820.365          47.000  
G12  22869140.859   120178140.0273       3704.132          45.000  
G15  23251442.201   122187148.6353       -947.803          41.000  
G18  21326253.543   112070219.1363      -1359.421          44.000  
G20  19621822.755   103113374.8413       1939.039          47.000  
G23  20024592.923   105229944.1153       2208.883          48.000  
G24  20736938.959   108973350.8373       -915.594          46.000  
G21  24935397.968   131036398.7852       3684.909          39.000  
G25  23520746.630   123602351.6522       4512.470          38.000  
G32  22852531.358   120090862.8892       3102.595          44.000  
G31  25065713.664   131721219.4492       5181.848          36.000  
> 2020  9 30  8 30  3.0000000  0 11                     
G10  21448962.287   112715054.7492       3819.026          47.000  
G12  22868436.184   120174436.7762       3702.627          45.000  
G15  23251622.636   122188097.3912       -949.469          41.000  
G18  21326512.329   112071579.2992      -1360.962          44.000  
G20  19621453.980   103111436.9072       1937.101          47.000  
G23  20024172.583   105227736.2882       2207.118          48.000  
G24  20737113.496   108974267.5452       -917.444          45.000  
G21  24934697.481   131032715.0472       3683.073          39.000  
G25  23519888.097   123597840.0512       4511.183          38.000  
G32  22851940.651   120087761.1472       3101.154          43.000  
G31  25064728.930   131716039.9672       5178.968          35.000  
> 2020  9 30  8 30  4.0000000  0 11                     
G10  21448235.765   112711236.7052       3816.538          47.000  
G12  22867731.719   120170735.1622       3700.031          45.000  
G15  23251803.491   122189047.4902       -951.328          41.000  
G18  21326771.675   112072941.2272      -1363.622          44.000  
G20  19621085.501   103109500.8502       1934.599          47.000  
G23  20023752.992   105225530.2432       2204.571          48.000  
G24  20737288.330   108975186.0662       -920.062          45.000  
G21  24933996.611   131029033.0072       3680.481          39.000  
G25  23519029.686   123593329.8032       4509.146          38.000  
G32  22851351.095   120084660.9012       3098.827          44.000  
G31  25063743.220   131710861.8412       5176.702          34.000  
> 2020  9 30  8 30  5.0000000  0 11                     
G10  21447509.557   112707420.5502       3815.494          47.000  
G12  22867027.742   120167035.4972       3699.221          44.000  
G15  23251984.659   122189999.3132       -952.294          41.000  
G18  21327031.229   112074305.2012      -1364.520          44.000  
G20  19620717.633   103107566.9832       1933.298          47.000  
G23  20023333.576   105223326.3052       2203.395          48.000  
G24  20737463.477   108976106.7372       -921.222          45.000  
G21  24933296.578   131025352.9582       3679.273          39.000  
G25  23518171.659   123588821.2392       4508.269          39.000  
G32  22850761.505   120081562.4472       3098.098          44.000  
G31  25062757.632   131705685.4892       5176.217          34.000  
> 2020  9 30  8 30  6.0000000  0 13                     
G10  21446783.645   112703605.5552       3814.592          47.000  
G12  22866323.661   120163337.0972       3698.115          45.000  
G15  23252166.089   122190952.1332       -953.121          41.000  
G18  21327291.045   112075670.5632      -1365.786          44.000  
G20  19620349.904   103105634.6282       1931.704          47.000  
G23  20022914.422   105221123.7812       2202.018          48.000  
G24  20737638.765   108977028.8552       -922.516          45.000  
G21  24932596.597   131021674.2442       3678.202          39.000  
G25  23517313.998   123584313.6362       4507.059          39.000  
G32  22850172.123   120078465.1262       3096.809          44.000  
C 1  37279391.712   194123576.1312       1378.049          44.000  
G31  25061770.822   131700510.2662       5174.911          29.000  
C 3  36085888.345   187908688.9252       1335.054          45.000  
> 2020  9 30  8 30  7.0000000  0 12                     
G10  21446057.995   112699792.2812       3812.646          47.000  
G12  22865620.278   120159640.4822       3695.878          45.000  
G15  23252347.519   122191906.4772       -955.067          41.000  
G18  21327551.019   112077037.8062      -1368.171          45.000  
G20  19619982.508   103103704.2702       1929.567          47.000  
G23  20022495.756   105218923.1742       2199.804          48.000  
G24  20737814.611   108977952.9432       -925.024          45.000  
G21  24931897.018   131017997.3542       3676.064          39.000  
G25  23516456.634   123579807.5022       4505.804          39.000  
G32  22849582.760   120075369.4192       3094.884          43.000  
C 1  37279127.254   194122199.160        1376.488          44.000  
C 3  36085632.194   187907354.4691       1333.285          45.000  
> 2020  9 30  8 30  8.0000000  0 12                     
G10  21445332.764   112695980.6472       3809.301          46.000  
G12  22864917.051   120155945.0032       3696.949          44.000  
G15  23252529.245   122192862.2962       -958.836          41.000  
G18  21327811.341   112078406.0002      -1364.670          44.000  
G20  19619615.372   103101775.6212       1927.882          45.000  
G23  20022077.248   105216724.2712       2197.410          46.000  
G24  20737990.858   108978878.9492       -929.205          44.000  
G21  24931197.805   131014322.4102       3671.567          39.000  
G25  23515599.462   123575301.9062       4508.887          42.000  
G32  22848994.024   120072274.9332       3094.543          43.000  
C 1  37278863.180   194120823.023        1377.565          44.000  
C 3  36085376.025   187906021.184        1335.984          45.000  
> 2020  9 30  8 30  9.0000000  0 13                     
G10  21444608.214   112692172.2292       3808.894          41.000  
G12  22864214.139   120152251.6012       3693.237          43.000  
G15  23252711.652   122193822.3612       -958.693          42.000  
G18  21328071.960   112079774.1502      -1369.768          46.000  
G20  19619248.796   103099850.0072       1925.874          44.000  
G23  20021659.367   105214528.6372       2196.246          45.000  
G24  20738167.838   108979809.1672       -929.205          45.000  
G21  24930497.790   131010650.2782       3671.912          25.000  
G25  23514741.853   123570796.2202       4504.891          38.000  
C 1  37278599.211   194119448.503        1374.033          44.000  
C 2  36801839.351   191636835.272        1358.387          40.000  
C 3  36085119.977   187904688.312        1331.841          45.000  
C 5  38766885.965   201869351.2162       1355.151          37.000  
> 2020  9 30  8 30 10.0000000  0 20                     
G10  21443883.698   112688363.7882       3807.649          43.000  
G12  22863511.576   120148559.8152       3690.646          44.000  
G15  23252893.745   122194781.1642       -959.181          43.000  
G18  21328333.155   112081146.1862      -1373.563          46.000  
G20  19618882.568   103097925.3582       1923.726          43.000  
G23  20021241.731   105212333.5432       2194.308          44.000  
G24  20738344.731   108980738.9442       -930.609          44.000  
G32  22847813.569   120066069.7643       3090.334          42.000  
G25  23513884.873   123566293.7672       4501.188          38.000  
C 6  36444077.413   189773874.654        1082.782          43.000  
C 1  37278335.433   194118075.492        1371.793          43.000  
C 2  36801579.012   191635478.848        1355.266          42.000  
C 3  36084864.681   187903358.120        1328.942          45.000  
C 5  38766625.870   201867997.3962       1352.570          41.000  
C 9  36388326.253   189483563.037        1121.420          39.000  
C13  35813850.410   186492116.893         243.536          46.000  
C16  36365493.638   189364667.496        1066.005          44.000  
C21  22391963.242   116600827.7611       2615.744          47.000  
C22  22783375.081   118639012.768         541.785          48.000  
C26  23505250.261   122398004.1731       4444.896          45.000  
> 2020  9 30  8 30 11.0000000  0 21                     
G10  21443159.427   112684556.9742       3806.038          43.000  
G12  22862809.274   120144869.9382       3689.049          44.000  
G15  23253076.048   122195741.2762       -961.110          42.000  
G18  21328594.751   112082520.5872      -1375.391          46.000  
G20  19618516.305   103096002.7252       1921.638          43.000  
G23  20020824.532   105210140.2892       2192.282          44.000  
G24  20738522.304   108981670.5042       -932.544          43.000  
G21  24929100.516   131003306.6853       3669.007          30.000  
G25  23513028.329   123561793.1922       4499.771          39.000  
C 6  36443869.773   189772792.710        1081.179          43.000  
C 1  37278072.022   194116704.155        1370.717          43.000  
C 2  36801318.986   191634124.380        1353.834          42.000  
C 3  36084609.541   187902029.792        1327.705          45.000  
C 5  38766366.751   201866645.5402       1351.123          41.000  
C 9  36388110.952   189482442.458        1119.847          40.000  
C13  35813803.591   186491874.067         242.090          46.000  
C16  36365289.017   189363602.474        1064.283          44.000  
C21  22391461.129   116598212.973        2613.825          47.000  
C22  22783271.199   118638471.873         539.997          48.000  
C26  23504397.190   122393560.060        4443.297          46.000  
G32  22847228.848   120062980.1932       3088.619          43.000  
> 2020  9 30  8 30 12.0000000  0 22                     
G10  21442435.417   112680751.6772       3804.573          43.000  
G12  22862107.636   120141181.6462       3687.450          44.000  
G15  23253258.821   122196702.6612       -962.065          42.000  
G18  21328856.819   112083896.7002      -1376.979          46.000  
G20  19618150.758   103094081.9162       1919.809          43.000  
G23  20020407.524   105207948.7812       2190.480          44.000  
G24  20738699.790   108982603.8092       -934.326          44.000  
G21  24928400.204   130999638.4432       3666.625          30.000  
G25  23512172.169   123557293.9452       4498.472          39.000  
C 6  36443662.394   189771711.990        1080.082          43.000  
C 1  37277809.100   194115334.136        1369.419          44.000  
C 2  36801058.821   191632771.257        1352.587          42.000  
C 3  36084354.628   187900702.804        1326.334          45.000  
C 5  38766107.267   201865294.4671       1350.061          41.000  
C 9  36387896.140   189481323.159        1118.878          40.000  
C13  35813757.225   186491632.707         240.735          46.000  
C16  36365084.675   189362538.706        1063.116          44.000  
C21  22390959.331   116595599.567        2612.681          47.000  
C22  22783167.528   118637932.468         538.700          48.000  
C26  23503544.031   122389117.490        4441.745          46.000  
G32  22846640.409   120059892.0322       3087.557          43.000  
C 4  38475834.813   200353768.3202       1347.297          39.000  
> 2020  9 30  8 30 13.0000000  0 22                     
G10  21441711.495   112676947.557        3803.160          43.000  
G12  22861406.015   120137494.598        3686.823          44.000  
G15  23253441.979   122197664.990        -962.489          42.000  
G18  21329119.217   112085273.7171      -1378.248          46.000  
G20  19617785.420   103092162.0941       1918.476          43.000  
G23  20019990.812   105205758.642        2189.301          45.000  
G24  20738877.730   108983538.520        -935.516          44.000  
G21  24927704.533   130995971.5062       3664.995          30.000  
G25  23511315.904   123552795.6542       4498.101          39.000  
C 6  36443455.138   189770632.210        1079.109          43.000  
C 1  37277546.247   194113965.106        1368.854          44.000  
C 2  36800799.284   191631419.147        1351.474          42.000  
C 3  36084099.820   187899376.824        1325.467          45.000  
C 5  38765848.148   201863944.965        1348.767          41.000  
C 9  36387681.468   189480204.879        1117.299          39.000  
C13  35813711.000   186491392.590         239.532          46.000  
C16  36364880.577   189361475.878        1062.094          44.000  
C21  22390457.462   116592987.238        2611.572          47.000  
C22  22783064.275   118637394.228         537.772          48.000  
C26  23502691.134   122384676.160        4440.565          45.000  
G32  22846052.057   120056805.0312       3085.812          42.000  
C 4  38475576.323   200352421.556        1346.520          39.000  
> 2020  9 30  8 30 14.0000000  0 22                     
G10  21440987.712   112673144.358        3802.970          43.000  
G12  22860704.516   120133808.505        3685.532          43.000  
G15  23253624.979   122198628.052        -963.747          44.000  
G18  21329381.250   112086652.343       -1378.845          45.000  
G20  19617420.170   103090244.045        1917.573          43.000  
G23  20019574.258   105203569.657        2188.677          45.000  
G24  20739055.757   108984474.404        -936.572          45.000  
G21  24927007.031   130992305.6022       3665.762          30.000  
G25  23510459.919   123548298.0302       4497.413          38.000  
C 6  36443248.179   189769553.116        1078.578          44.000  
C 1  37277283.272   194112596.795        1368.256          44.000  
C 2  36800539.537   191630067.808        1351.156          41.000  
C 3  36083845.291   187898051.601        1325.009          45.000  
C 5  38765589.100   201862596.171        1348.846          40.000  
C 9  36387467.022   189479087.315        1117.916          39.000  
C13  35813665.176   186491153.367         239.191          46.000  
C16  36364676.479   189360413.742        1062.085          45.000  
C21  22389955.960   116590375.745        2611.200          47.000  
C22  22782961.092   118636856.938         536.719          49.000  
C26  23501838.290   122380235.711        4440.146          44.000  
G32  22845466.166   120053718.8662       3085.947          42.000  
C 4  38475317.850   200351075.475        1345.784          39.000  
> 2020  9 30  8 30 15.0000000  0 23                     
G10  21440264.017   112669341.991        3802.285          43.000  
G12  22860003.140   120130123.442        3684.275          42.000  
G15  23253808.486   122199591.879        -964.156          43.000  
G18  21329643.649   112088031.977       -1380.184          45.000  
G20  19617055.530   103088327.112        1916.269          43.000  
G23  20019157.722   105201381.757        2187.139          45.000  
G24  20739233.732   108985411.452        -937.665          44.000  
G21  24926312.861   130988640.7122       3664.518          31.000  
G25  23509604.230   123543801.1122       4496.485          38.000  
C 6  36443040.992   189768474.595        1078.312          44.000  
C 1  37277020.682   194111229.181        1367.007          43.000  
C 2  36800280.052   191628717.032        1350.588          41.000  
C 3  36083590.954   187896726.984        1324.096          45.000  
C 5  38765330.470   201861248.038        1348.199          41.000  
C 9  36387252.733   189477970.354        1116.992          40.000  
C13  35813619.386   186490914.944         238.013          46.000  
C16  36364472.765   189359352.206        1061.490          45.000  
C21  22389454.703   116587765.002        2610.648          47.000  
C22  22782857.996   118636320.540         535.829          48.000  
C26  23500985.410   122375796.122        4438.766          44.000  
G32  22844879.874   120050633.4392       3085.310          44.000  
G31  25052919.234   131653989.4453       5162.893          30.000  
C 4  38475059.360   200349730.136        1344.576          37.000  
> 2020  9 30  8 30 16.0000000  0 24                     
G10  21439540.339   112665540.499        3801.080          44.000  
G12  22859302.112   120126439.239        3683.689          42.000  
G15  23253992.167   122200556.316        -964.873          43.000  
G18  21329906.135   112089412.655       -1381.428          45.000  
G20  19616690.908   103086411.308        1915.045          43.000  
G23  20018741.237   105199194.863        2186.428          44.000  
G24  20739412.161   108986349.558        -938.934          45.000  
G21  24925614.730   130984976.7722       3664.127          31.000  
G25  23508748.855   123539304.8272       4495.576          38.000  
C 6  36442833.945   189767396.671        1077.493          44.000  
C 1  37276758.003   194109862.168        1366.348          43.000  
C 2  36800020.760   191627367.001        1349.357          41.000  
C 3  36083336.757   187895403.005        1323.581          45.000  
C 5  38765071.579   201859900.606        1347.272          41.000  
C 9  36387038.288   189476854.082        1116.022          40.000  
C13  35813573.859   186490677.357         237.115          46.000  
C16  36364268.842   189358291.289        1060.354          45.000  
C21  22388953.480   116585155.009        2609.482          47.000  
C22  22782755.249   118635784.929         535.180          48.000  
C26  23500132.915   122371357.392        4438.237          44.000  
G32  22844292.360   120047548.8572       3084.115          44.000  
G31  25051936.821   131648826.4622       5162.519          31.000  
C 4  38474801.219   200348385.403        1344.021          38.000  
C 8  37182640.708   193619766.5641       -190.807          41.000  
> 2020  9 30  8 30 17.0000000  0 24                     
G10  21438817.289   112661740.289        3799.524          44.000  
G12  22858601.120   120122756.406        3681.957          42.000  
G15  23254175.917   122201521.871        -966.180          43.000  
G18  21330169.180   112090794.762       -1382.909          45.000  
G20  19616326.669   103084497.145        1913.162          43.000  
G23  20018325.573   105197009.548        2184.527          44.000  
G24  20739590.799   108987289.204        -940.558          45.000  
G21  24924915.831   130981314.3712       3660.719          30.000  
G25  23507893.550   123534809.5462       4494.534          38.000  
C 6  36442627.317   189766319.805        1076.356          44.000  
C 1  37276495.535   194108496.253        1365.137          43.000  
C 2  36799761.711   191626017.995        1348.459          41.000  
C 3  36083082.577   187894080.126        1322.189          45.000  
C 5  38764813.036   201858554.197        1346.118          41.000  
C 9  36386824.069   189475738.844        1114.661          40.000  
C13  35813528.436   186490440.994         235.706          46.000  
C16  36364065.216   189357231.419        1059.088          45.000  
C21  22388452.642   116582546.206        2608.241          47.000  
C22  22782652.991   118635250.664         533.405          48.000  
C26  23499280.838   122366919.907        4436.575          44.000  
G32  22843706.835   120044465.4182       3082.723          44.000  
G31  25050948.965   131643664.5842       5161.724          32.000  
C 4  38474543.113   200347041.721        1343.146          38.000  
C 8  37182677.336   193619957.816        -191.976          41.000  
> 2020  9 30  8 30 18.0000000  0 24                     
G10  21438093.978   112657940.649        3799.247          44.000  
G12  22857900.371   120119074.207        3681.772          42.000  
G15  23254359.738   122202487.793        -966.399          43.000  
G18  21330432.242   112092177.643       -1383.308          45.000  
G20  19615962.553   103082583.848        1912.849          43.000  
G23  20017909.682   105194824.997        2184.093          44.000  
G24  20739769.716   108988229.670        -940.936          45.000  
G21  24924218.852   130977652.5562       3661.605          30.000  
G25  23507038.210   123530314.6482       4494.523          38.000  
C 6  36442420.428   189765243.255        1076.572          44.000  
C 1  37276233.328   194107130.715        1365.105          43.000  
C 2  36799502.855   191624669.374        1348.393          41.000  
C 3  36082828.502   187892757.619        1322.335          45.000  
C 5  38764554.476   201857208.223        1345.850          40.000  
C 9  36386610.007   189474623.976        1114.603          40.000  
C13  35813483.344   186490205.217         235.297          47.000  
C16  36363861.816   189356171.875        1059.343          45.000  
C21  22387951.594   116579937.885        2607.976          48.000  
C22  22782550.453   118634716.946         533.346          48.000  
C26  23498428.552   122362483.034        4436.598          44.000  
G32  22843120.665   120041382.4882       3082.568          44.000  
G31  25049972.276   131638503.2542       5160.795          33.000  
C 4  38474285.059   200345698.418        1343.357          38.000  
C 8  37182714.173   193620149.611        -192.358          41.000  
> 2020  9 30  8 30 19.0000000  0 24                     
G10  21737164.115   114229565.634        3798.192          44.000  
G12  23156993.002   121690816.654        3680.637          42.000  
G15  23554336.031   123778873.436        -966.882          43.000  
G18  21630487.793   113668980.174       -1384.777          45.000  
G20  19915391.590   104656093.623        1911.301          43.000  
C 4  38773819.966   201905455.177        1342.151          38.000  
G24  21039741.210   110564590.305        -942.241          45.000  
G21  25223309.861   132549415.358        3660.195          30.000  
G25  23805976.041   125101244.868        4494.006          38.000  
C 6  36742006.499   191325266.378        1075.499          44.000  
C 1  37575763.768   195666865.216        1364.374          43.000  
C 2  37099036.575   193184420.753        1347.679          41.000  
C 3  36382367.388   189452535.105        1321.273          45.000  
C 5  39064089.069   203416962.195        1344.839          40.000  
C 9  36686188.505   191034608.850        1113.690          40.000  
C13  36113230.690   188051068.489         234.424          47.000  
C16  36663451.220   190916211.991        1058.583          45.000  
C21  22687243.977   118138430.888        2607.044          48.000  
C22  23082240.562   120195282.660         532.196          48.000  
C26  23797370.030   123919149.424        4435.517          44.000  
G23  20317286.979   106768063.683        2182.865          44.000  
G32  23142327.141   121613723.3632       3081.769          44.000  
G31  25348784.674   133208767.7832       5159.448          33.000  
C 8  37482543.500   195181439.999        -192.880          41.000  
> 2020  9 30  8 30 20.0000000  0 23                     
G10  21736441.327   114225767.672        3796.690          44.000  
G12  23156292.830   121687136.321        3679.172          42.000  
G15  23554519.956   123779840.713        -968.310          43.000  
G18  21630751.222   113670365.120       -1386.426          45.000  
G20  19915027.962   104654182.644        1909.756          43.000  
C 4  38773562.244   201904113.210        1340.582          38.000  
G24  21039920.441   110565532.988        -944.107          45.000  
G21  25222613.579   132545755.499        3659.233          29.000  
G25  23805120.928   125096751.245        4492.578          37.000  
C 6  36741800.063   191324191.045        1073.910          43.000  
C 1  37575501.805   195665501.006        1362.982          43.000  
C 2  37098777.806   193183073.476        1345.905          41.000  
C 3  36382113.871   189451213.917        1320.044          45.000  
C 5  39063830.579   203415617.515        1343.179          40.000  
C 9  36685974.827   191033495.266        1112.578          40.000  
C13  36113185.704   188050834.364         232.710          47.000  
C16  36663247.855   190915153.679        1057.028          45.000  
C21  22686743.592   118135824.049        2605.670          48.000  
G31  25347803.762   133203607.8372       5158.070          32.000  
G32  23141740.989   121610641.9482       3080.243          44.000  
G23  20316871.908   106765882.2873       2180.810          44.000  
C26  23796518.162   123914714.257        4433.923          44.000  
C 8  37482580.530   195181633.379        -194.669          41.000  
> 2020  9 30  8 30 21.0000000  0 24                     
G10  21735718.801   114221971.299        3795.562          44.000  
G12  23155592.745   121683457.697        3677.973          42.000  
G15  23554704.300   123780809.409        -969.145          43.000  
G18  21631015.069   113671751.865       -1387.513          45.000  
G20  19914664.526   104652273.601        1908.298          43.000  
C 4  38773305.028   201902772.677        1340.155          38.000  
G24  21040100.143   110566477.540        -945.460          45.000  
G21  25221920.265   132542097.383        3657.148          29.000  
G25  23804266.076   125092259.009        4492.017          37.000  
C 6  36741593.853   191323117.026        1073.467          43.000  
C 1  37575240.052   195664138.212        1362.480          43.000  
C 2  37098519.577   193181727.585        1345.284          41.000  
C 3  36381860.442   189449894.147        1319.301          45.000  
C 5  39063572.700   203414274.205        1342.680          40.000  
C 9  36685761.166   191032383.076        1111.593          40.000  
C13  36113141.171   188050601.810         231.965          47.000  
C16  36663044.769   190914096.704        1056.428          45.000  
C21  22686243.347   118133218.706        2604.678          48.000  
G31  25346821.542   133198449.4142       5157.619          32.000  
G32  23141154.958   121607562.0432       3079.237          44.000  
G23  20316456.645   106763699.6892       2179.930          44.000  
C22  23082036.744   120194220.325         529.789          48.000  
C26  23795667.028   123910280.698        4432.996          44.000  
C 8  37482617.856   195181828.326        -195.792          41.000  
> 2020  9 30  8 30 22.0000000  0 25                     
G10  21734996.816   114218176.634        3793.423          44.000  
G12  23154893.026   121679780.812        3675.640          42.000  
G15  23554888.819   123781779.630        -971.148          43.000  
G18  21631279.318   113673140.458       -1389.863          45.000  
G20  19914301.876   104650366.549        1905.757          43.000  
C 4  38773048.091   201901433.612        1337.805          38.000  
G24  21040280.195   110567424.033        -947.970          45.000  
G21  25221220.354   132538441.123        3655.039          28.000  
G25  23803411.661   125087768.260        4489.765          37.000  
C 6  36741387.644   191322044.470        1071.310          43.000  
C 1  37574978.735   195662776.910        1360.038          43.000  
C 2  37098261.279   193180383.175        1343.275          41.000  
C 3  36381607.204   189448575.854        1317.170          45.000  
C 5  39063315.030   203412932.401        1340.830          40.000  
C 9  36685547.907   191031272.349        1109.663          40.000  
C13  36113096.830   188050370.931         229.451          47.000  
C16  36662842.155   190913041.183        1054.572          45.000  
C21  22685743.259   118130614.968        2602.658          47.000  
G31  25345840.107   133193292.5272       5155.699          32.000  
G32  23140569.189   121604483.7582       3077.037          44.000  
G23  20316041.923   106761520.0333       2177.275          44.000  
C22  23081935.358   120193691.663         527.463          48.000  
C11  26017085.871   135477793.493         699.628          38.000  
C26  23794815.894   123905848.815        4430.798          44.000  
C 8  37482655.600   195182024.839        -197.620          41.000  
> 2020  9 30  8 30 23.0000000  0 25                     
G10  21734275.197   114214383.573        3792.316          44.000  
G12  23154193.656   121676105.615        3674.458          42.000  
G15  23555073.686   123782751.255        -972.138          43.000  
G18  21631543.881   113674530.854       -1391.146          45.000  
G20  19913939.487   104648461.433        1904.108          43.000  
C 4  38772791.066   201900095.946        1337.006          38.000  
G24  21040460.769   110568372.374        -949.052          45.000  
G21  25220525.068   132534786.613        3653.617          28.000  
G25  23802557.177   125083278.882        4488.580          37.000  
C 6  36741181.923   191320973.242        1070.527          43.000  
C 1  37574717.662   195661416.989        1359.328          43.000  
C 2  37098003.295   193179040.197        1342.269          41.000  
C 3  36381354.281   189447258.969        1316.335          45.000  
C 5  39063057.744   203411592.023        1340.115          40.000  
C 9  36685334.805   191030163.034        1108.753          40.000  
C13  36113052.681   188050141.596         228.831          47.000  
C16  36662639.628   190911987.038        1053.573          45.000  
C21  22685243.676   118128012.731        2601.618          47.000  
G31  25344859.754   133188137.1492       5154.032          32.000  
G32  23139983.734   121601407.0082       3076.165          44.000  
G23  20315627.568   106759343.1793       2176.184          44.000  
C22  23081834.094   120193164.603         526.303          48.000  
C11  26016951.662   135477094.459         697.839          38.000  
C26  23793965.073   123901418.532        4429.456          44.000  
C 8  37482693.502   195182222.918        -198.903          41.000  
> 2020  9 30  8 30 24.0000000  0 25                     
G10  21733553.735   114210592.056        3791.243          45.000  
G12  23153494.426   121672431.995        3673.455          42.000  
G15  23555258.816   123783724.219        -973.068          43.000  
G18  21631808.914   113675922.963       -1392.359          45.000  
G20  19913577.360   104646558.117        1903.099          43.000  
C 4  38772534.339   201898759.607        1336.096          38.000  
G24  21040641.658   110569322.497        -950.531          45.000  
G21  25219828.786   132531133.791        3651.880          28.000  
G25  23801702.936   125078790.776        4488.202          37.000  
C 6  36740976.168   191319903.296        1069.973          43.000  
C 1  37574456.746   195660058.385        1358.610          43.000  
C 2  37097745.433   193177698.544        1341.653          41.000  
C 3  36381101.689   189445943.410        1315.488          45.000  
C 5  39062800.598   203410252.991        1339.347          40.000  
C 9  36685122.174   191029055.037        1108.041          41.000  
C13  36113009.003   188049913.801         227.696          47.000  
C16  36662437.449   190910934.185        1052.716          45.000  
C21  22684744.443   118125411.921        2600.628          48.000  
G31  25343879.034   133182983.2212       5153.745          33.000  
G32  23139398.594   121598331.7362       3075.059          44.000  
G23  20315213.788   106757168.0752       2174.910          44.000  
C22  23081733.267   120192639.053         525.357          49.000  
C11  26016817.975   135476397.170         697.365          38.000  
C26  23793114.305   123896989.788        4428.540          44.000  
C 8  37482731.840   195182422.421        -199.713          41.000  
> 2020  9 30  8 30 25.0000000  0 25                     
G10  21732832.518   114206802.309        3789.420          45.000  
G12  23152795.614   121668760.138        3671.395          43.000  
G15  23555444.312   123784698.743        -974.910          42.000  
G18  21632074.105   113677316.951       -1394.766          45.000  
G20  19913215.774   104644656.906        1900.515          43.000  
C 4  38772277.943   201897424.750        1334.363          38.000  
G24  21040822.687   110570274.630        -952.510          45.000  
G21  25219137.095   132527482.804        3650.510          28.000  
G25  23800849.167   125074304.155        4485.943          37.000  
C 6  36740770.761   191318834.893        1068.219          43.000  
C 1  37574196.023   195658701.299        1356.684          43.000  
C 2  37097487.816   193176358.446        1339.377          41.000  
C 3  36380849.603   189444629.372        1313.589          46.000  
C 5  39062543.434   203408915.505        1336.987          40.000  
C 9  36684909.630   191027948.598        1106.264          41.000  
C13  36112965.517   188049687.718         225.591          47.000  
C16  36662235.516   190909882.845        1051.150          45.000  
C21  22684245.140   118122812.789        2598.818          48.000  
G31  25342898.995   133177830.8502       5151.191          35.000  
G32  23138814.116   121595258.1122       3073.386          45.000  
G23  20314800.218   106754994.9712       2172.605          44.000  
C22  23081632.771   120192115.262         523.352          49.000  
C11  26016684.865   135475701.858         695.158          39.000  
C26  23792263.834   123892562.689        4426.355          44.000  
C 8  37482770.563   195182623.555        -201.843          42.000  
> 2020  9 30  8 30 26.0000000  0 25                     
G10  21732111.736   114203013.445        3788.183          45.000  
G12  23152096.995   121665089.280        3670.495          43.000  
G15  23555630.052   123785673.949        -975.562          41.000  
G18  21632339.680   113678712.070       -1395.796          45.000  
G20  19912854.154   104642756.927        1899.245          44.000  
C 4  38772021.599   201896090.612        1333.527          38.000  
G24  21041004.099   110571227.916        -953.897          45.000  
G21  25218445.386   132523832.876        3648.659          29.000  
G25  23799995.642   125069818.239        4485.449          38.000  
C 6  36740565.704   191317767.158        1067.010          42.000  
C 1  37573935.700   195657344.949        1355.883          44.000  
C 2  37097230.617   193175019.074        1338.721          42.000  
C 3  36380597.482   189443316.098        1312.838          46.000  
C 5  39062286.322   203407578.753        1335.676          40.000  
C 9  36684697.157   191026842.896        1104.802          41.000  
C13  36112922.153   188049462.557         224.436          47.000  
C16  36662033.948   190908832.184        1050.131          45.000  
C21  22683746.064   118120214.451        2597.736          47.000  
G31  25341918.781   133172679.2702       5150.650          35.000  
G32  23138229.377   121592185.3182       3072.023          44.000  
G23  20314386.683   106752823.0312       2171.184          44.000  
C22  23081532.363   120191592.392         522.402          49.000  
C11  26016552.087   135475007.672         693.513          39.000  
C26  23791413.694   123888136.584        4425.324          44.000  
C 8  37482809.285   195182825.589        -202.548          42.000  
> 2020  9 30  8 30 27.0000000  0 25                     
G10  21731391.217   114199225.600        3786.724          44.000  
G12  23151398.899   121661419.636        3669.104          43.000  
G15  23555815.914   123786650.047        -976.721          42.000  
G18  21632605.517   113680108.444       -1397.125          45.000  
G20  19912492.829   104640858.289        1897.731          44.000  
C 4  38771765.639   201894757.417        1332.697          37.000  
G24  21041185.826   110572182.479        -955.632          45.000  
G21  25217754.793   132520184.032        3647.721          30.000  
G25  23799142.326   125065333.230        4484.961          38.000  
C 6  36740360.926   191316700.147        1066.139          42.000  
C 1  37573675.430   195655989.496        1354.969          43.000  
C 2  37096973.855   193173680.537        1337.759          42.000  
C 3  36380345.431   189442003.676        1311.837          46.000  
C 5  39062029.472   203406242.768        1335.501          40.000  
C 9  36684484.962   191025737.933        1104.408          41.000  
C13  36112879.033   188049238.410         223.339          47.000  
C16  36661832.503   190907782.288        1049.254          45.000  
C21  22683247.337   118117617.028        2596.411          46.000  
G31  25340938.951   133167528.6622       5149.719          36.000  
G32  23137644.463   121589113.4462       3070.814          44.000  
G23  20313973.723   106750652.2932       2169.790          44.000  
C22  23081432.164   120191070.601         520.979          49.000  
C11  26016419.482   135474314.678         692.090          39.000  
C26  23790563.869   123883711.540        4424.347          45.000  
C 8  37482848.024   195183028.611        -203.232          41.000  
> 2020  9 30  8 30 28.0000000  0 25                     
G10  21730670.750   114195438.755        3786.702          44.000  
G12  23150700.890   121657751.042        3668.263          43.000  
G15  23556001.811   123787626.944        -977.174          42.000  
G18  21632871.563   113681506.018       -1398.017          45.000  
G20  19912131.854   104638960.953        1896.994          44.000  
C 4  38771509.889   201893424.963        1332.440          37.000  
G24  21041367.762   110573138.273        -956.332          46.000  
G21  25217063.450   132516536.391        3647.210          31.000  
G25  23798288.836   125060849.040        4483.990          38.000  
C 6  36740155.920   191315633.906        1066.074          41.000  
C 1  37573415.335   195654634.839        1354.554          43.000  
C 2  37096717.267   193172342.824        1337.792          43.000  
C 3  36380093.659   189440692.057        1311.500          46.000  
C 5  39061773.443   203404907.690        1334.814          40.000  
C 9  36684272.977   191024633.840        1103.912          41.000  
C13  36112835.931   188049015.259         222.948          47.000  
C16  36661631.005   190906733.164        1049.180          44.000  
C21  22682748.609   118115020.524        2596.367          45.000  
G31  25339958.790   133162378.9312       5149.776          35.000  
G32  23137059.409   121586042.5392       3070.656          43.000  
G23  20313561.008   106748482.7872       2169.334          44.000  
C22  23081332.279   120190549.783         520.602          49.000  
C11  26016286.791   135473622.982         691.558          39.000  
C26  23789714.183   123879287.528        4423.755          45.000  
C 8  37482887.357   195183232.614        -204.056          41.000  
> 2020  9 30  8 30 29.0000000  0 25                     
G10  21729950.056   114191652.711        3785.563          43.000  
G12  23150003.091   121654083.322        3667.383          43.000  
G15  23556187.796   123788604.450        -978.035          41.000  
G18  21633137.731   113682904.513       -1398.392          45.000  
G20  19911770.792   104637064.722        1895.813          44.000  
C 4  38771254.173   201892093.121        1331.830          37.000  
G24  21041549.872   110574095.104        -957.458          46.000  
G21  25216368.670   132512889.589        3647.010          31.000  
G25  23797435.450   125056365.399        4483.490          38.000  
C 6  36739951.090   191314568.193        1065.225          41.000  
C 1  37573155.257   195653280.761        1353.896          43.000  
C 2  37096460.539   193171005.682        1337.337          43.000  
C 3  36379842.062   189439381.005        1311.200          46.000  
C 5  39061517.483   203403573.149        1334.565          40.000  
C 9  36684060.869   191023530.260        1103.517          41.000  
C13  36112793.126   188048792.849         222.330          47.000  
C16  36661429.595   190905684.588        1048.254          44.000  
C21  22682249.917   118112424.711        2595.447          45.000  
G31  25338978.559   133157229.8292       5149.276          35.000  
G32  23136474.687   121582972.3172       3070.093          43.000  
G23  20313148.171   106746314.2902       2167.999          44.000  
C22  23081232.219   120190029.783         519.593          49.000  
C11  26016154.169   135472932.259         690.717          38.000  
C26  23788864.724   123874864.263        4423.547          45.000  
C 8  37482926.602   195183437.285        -204.379          41.000  
> 2020  9 30  8 30 30.0000000  0 25                     
G10  21729229.606   114187867.601        3784.381          43.000  
G12  23149305.361   121650416.663        3666.421          43.000  
G15  23556373.867   123789582.740        -978.474          41.000  
G18  21633404.109   113684304.214       -1400.138          45.000  
G20  19911410.026   104635169.733        1894.378          44.000  
C 4  38770998.510   201890762.085        1330.780          38.000  
G24  21041731.983   110575053.110        -958.720          46.000  
G21  25215671.429   132509243.985        3645.718          30.000  
G25  23796582.449   125051882.551        4482.825          39.000  
C 6  36739746.277   191313503.127        1064.975          41.000  
C 1  37572895.231   195651927.486        1353.011          43.000  
C 2  37096203.933   193169669.347        1336.157          43.000  
C 3  36379590.395   189438070.765        1309.919          46.000  
C 5  39061261.506   203402239.437        1333.127          40.000  
C 9  36683848.832   191022427.463        1102.106          40.000  
C13  36112750.530   188048571.389         221.080          47.000  
C16  36661228.568   190904636.704        1047.575          44.000  
C21  22681751.452   118109829.708        2594.594          45.000  
G31  25337998.939   133152081.6852       5148.535          34.000  
G32  23135890.123   121579902.9942       3068.951          43.000  
G23  20312735.962   106744146.9412       2166.728          44.000  
C22  23081132.491   120189510.737         518.628          49.000  
C11  26016021.792   135472242.733         689.037          38.000  
C26  23788015.596   123870442.052        4421.954          44.000  
C 8  37482966.267   195183642.931        -205.911          41.000  
> 2020  9 30  8 30 31.0000000  0 25                     
G10  21728509.645   114184083.212        3783.444          44.000  
G12  23148607.841   121646750.824        3664.659          43.000  
G15  23556559.922   123790561.656        -979.568          41.000  
G18  21633670.591   113685704.714       -1401.499          45.000  
G20  19911049.644   104633275.776        1892.912          44.000  
C 4  38770743.109   201889431.561        1329.803          37.000  
G24  21041914.407   110576012.120        -960.075          46.000  
G21  25214982.826   132505599.207        3643.927          30.000  
G25  23795729.221   125047400.144        4481.854          38.000  
C 6  36739541.620   191312438.594        1063.796          41.000  
C 1  37572635.467   195650574.694        1351.965          43.000  
C 2  37095947.398   193168333.457        1335.072          43.000  
C 3  36379338.920   189436760.975        1308.754          46.000  
C 5  39061005.459   203400906.166        1332.170          40.000  
C 9  36683637.283   191021325.130        1101.437          41.000  
C13  36112708.091   188048350.550         220.012          47.000  
C16  36661027.420   190903589.321        1046.583          44.000  
C21  22681253.230   118107235.376        2593.524          45.000  
G31  25337019.179   133146934.037        5146.988          35.000  
G32  23135305.924   121576833.7771       3067.582          43.000  
G23  20312323.666   106741980.5562       2165.317          45.000  
C22  23081032.833   120188992.460         517.350          49.000  
C11  26015889.694   135471554.144         687.645          38.000  
C26  23787166.591   123866020.438        4420.642          44.000  
C 8  37483005.791   195183849.104        -207.031          41.000  
> 2020  9 30  8 30 32.0000000  0 25                     
G10  21727789.841   114180300.378        3782.477          44.000  
G12  23147910.565   121643086.535        3664.050          43.000  
G15  23556746.569   123791541.862        -980.473          41.000  
G18  21633937.352   113687106.989       -1402.685          45.000  
G20  19910689.349   104631383.702        1891.510          44.000  
C 4  38770487.620   201888102.359        1329.016          37.000  
G24  21042097.233   110576972.924        -961.184          46.000  
G21  25214285.969   132501956.097        3642.590          30.000  
G25  23794876.446   125042919.081        4480.731          38.000  
C 6  36739337.453   191311375.369        1062.911          41.000  
C 1  37572375.895   195649223.262        1351.074          43.000  
C 2  37095691.403   193166998.952        1334.164          43.000  
C 3  36379087.707   189435452.551        1308.181          46.000  
C 5  39060749.813   203399574.268        1331.605          41.000  
C 9  36683425.681   191020224.166        1100.597          41.000  
C13  36112666.054   188048131.305         218.896          47.000  
C16  36660826.707   190902543.241        1045.768          44.000  
C21  22680755.097   118104642.490        2592.480          45.000  
G31  25336039.995   133141787.827        5146.254          35.000  
G32  23134722.145   121573766.569        3066.719          43.000  
G23  20311911.945   106739815.9522       2163.920          45.000  
C22  23080933.593   120188475.715         516.259          49.000  
C11  26015758.206   135470867.319         686.448          39.000  
C26  23786317.725   123861600.419        4419.641          44.000  
C 8  37483045.578   195184056.804        -207.765          41.000  
> 2020  9 30  8 30 33.0000000  0 23                     
G10  21727070.159   114176518.417        3781.437          43.000  
G12  23147213.377   121639423.261        3662.705          43.000  
G15  23556933.339   123792522.780        -981.358          41.000  
G18  21634204.550   113688510.334       -1403.981          45.000  
G20  19910329.700   104629492.817        1890.285          44.000  
C22  23080834.773   120187959.858         515.314          49.000  
G24  21042280.356   110577934.872        -962.631          46.000  
G21  25213595.639   132498314.028        3640.678          31.000  
G25  23794024.038   125038438.696        4480.188          38.000  
C 6  36739133.181   191310312.745        1062.243          41.000  
C11  26015626.719   135470181.571         685.321          38.000  
C26  23785468.981   123857181.293        4418.628          44.000  
C 8  37483085.556   195184265.384        -209.189          41.000  
C 5  39060493.783   203398243.070        1330.865          41.000  
C 9  36683214.063   191019123.861        1099.869          41.000  
C13  36112623.946   188047912.911         217.638          47.000  
C16  36660625.838   190901497.789        1045.018          44.000  
C21  22680257.277   118102050.369        2591.639          44.000  
G31  25335060.793   133136642.421        5145.494          34.000  
G32  23134138.627   121570700.099        3065.859          43.000  
G23  20311500.172   106737652.4232       2162.762          45.000  
C 2  37095435.339   193165665.136        1333.432          43.000  
C 4  38770232.585   201886773.857        1328.131          37.000  
> 2020  9 30  8 30 34.0000000  0 26                     
G10  21726350.565   114172737.171        3780.896          43.000  
G12  23146516.293   121635760.793        3662.028          43.000  
G15  23557120.074   123793504.220        -981.536          41.000  
G18  21634471.818   113689914.600       -1404.740          45.000  
G20  19909970.139   104627602.967        1889.385          44.000  
C22  23080735.411   120187444.736         514.817          49.000  
G24  21042463.740   110578897.760        -963.266          46.000  
G21  25212901.888   132494672.761        3640.544          31.000  
G25  23793171.647   125033958.874        4479.358          38.000  
C 6  36738929.310   191309250.585        1062.041          41.000  
C11  26015495.214   135469496.798         684.533          38.000  
C26  23784620.604   123852762.920        4418.018          44.000  
C 8  37483125.866   195184474.586        -209.547          41.000  
C 5  39060238.138   203396912.407        1330.462          41.000  
C 9  36683002.810   191018024.072        1099.543          41.000  
C13  36112582.223   188047695.221         217.330          47.000  
C16  36660425.282   190900452.826        1044.813          44.000  
C21  22679759.841   118099458.859        2591.443          44.000  
G31  25334081.487   133131497.679        5144.092          34.000  
G32  23133554.952   121567634.302        3065.514          43.000  
G23  20311088.487   106735489.8332       2162.441          45.000  
C 1  37571857.048   195646522.335        1350.065          43.000  
C 3  36378585.542   189432837.651        1306.975          47.000  
C 2  37095179.449   193164331.875        1333.047          43.000  
C 4  38769977.428   201885445.906        1327.692          37.000  
C 7  39470375.352   205532601.267        2797.686          38.000  
> 2020  9 30  8 30 35.0000000  0 26                     
G10  21725631.441   114168956.816        3778.936          43.000  
G12  23145819.471   121632099.327        3660.321          43.000  
G15  23557307.087   123794486.431        -983.809          41.000  
G18  21634739.155   113691319.943       -1406.420          46.000  
G20  19909610.821   104625714.333        1887.052          44.000  
C22  23080636.905   120186930.561         512.705          49.000  
G24  21042647.125   110579861.821        -965.741          46.000  
G21  25212211.592   132491032.481        3639.225          30.000  
G25  23792319.343   125029479.737        4478.406          38.000  
C 6  36738725.439   191308189.092        1059.989          40.000  
C11  26015363.936   135468813.147         681.656          38.000  
C26  23783772.209   123848345.449        4416.821          45.000  
C 8  37483166.159   195184684.648        -210.858          41.000  
C 5  39059983.016   203395582.423        1328.812          40.000  
C 9  36682791.663   191016924.968        1097.760          41.000  
C13  36112540.674   188047478.406         215.890          47.000  
C16  36660224.570   190899408.530        1042.991          44.000  
C21  22679262.213   118096868.167        2589.122          44.000  
G31  25333102.565   133126353.637        5142.810          33.000  
G32  23132971.958   121564569.293        3063.277          42.000  
G23  20310677.185   106733328.4052       2159.741          44.000  
C 1  37571598.104   195645172.895        1348.411          43.000  
C 3  36378334.625   189431531.189        1305.449          47.000  
C 2  37094923.594   193162999.289        1331.615          43.000  
C 4  38769722.550   201884118.680        1326.068          37.000  
C 7  39469838.321   205529804.090        2796.391          39.000  
> 2020  9 30  8 30 36.0000000  0 26                     
G10  21724912.248   114165177.405        3779.131          32.000  
G12  23145122.841   121628439.432        3658.813          42.000  
G15  23557493.822   123795469.641        -984.027          40.000  
G18  21635006.911   113692726.845       -1407.574          47.000  
G20  19909251.923   104623827.331        1885.977          44.000  
C22  23080538.608   120186417.731         511.929          50.000  
G24  21042830.631   110580827.424        -966.195          46.000  
G21  25211516.148   132487393.537        3638.998          28.000  
G25  23791467.232   125025001.838        4476.874          40.000  
C 6  36738521.952   191307128.433        1060.188          40.000  
C11  26015233.356   135468130.623         682.377          27.000  
C26  23782924.321   123843929.373        4415.137          46.000  
C 8  37483206.766   195184896.093        -212.291          43.000  
C 1  37571339.282   195643824.716        1347.244          44.000  
C 9  36682580.934   191015826.892        1097.649          40.000  
C13  36112499.003   188047262.919         214.810          44.000  
C16  36660023.840   190898365.124        1042.708          38.000  
C21  22678764.986   118094278.338        2589.253          40.000  
C 3  36378083.865   189430225.939        1304.526          46.000  
G32  23132389.399   121561505.249        3063.460          36.000  
G23  20310266.250   106731168.4322       2159.003          44.000  
G31  25332124.131   133121210.765        5142.631          34.000  
C 2  37094667.704   193161667.745        1330.960          41.000  
C 4  38769468.021   201882792.751        1325.049          38.000  
C 5  39059727.387   203394253.353        1328.549          34.000  
C 7  39469301.605   205527008.132        2795.080          37.000  
> 2020  9 30  8 30 37.0000000  0 26                     
G10  21724194.677   114161398.741        3778.417          23.000  
G12  23144426.211   121624779.575        3659.527          43.000  
G15  23557681.063   123796452.975        -983.051          41.000  
G18  21635274.632   113694134.129       -1407.933          47.000  
G20  19908892.919   104621940.981        1885.975          43.000  
C22  23080439.770   120185905.108         512.340          50.000  
G24  21043014.748   110581793.618        -966.661          47.000  
G21  25210824.684   132483755.307        3637.787          27.000  
G25  23790614.998   125020523.702        4477.875          40.000  
C 6  36738318.604   191306068.160        1060.415          35.000  
C11  26015104.731   135467449.092         680.618          26.000  
C26  23782076.205   123839513.467        4415.320          46.000  
C 8  37483247.442   195185107.587        -212.070          44.000  
C 1  37571080.478   195642476.392        1348.010          45.000  
C 9  36682370.135   191014729.104        1097.158          38.000  
C13  36112457.681   188047047.685         214.712          44.000  
C16  36659823.477   190897322.081        1042.688          37.000  
C21  22678267.865   118091689.181        2589.293          34.000  
C 3  36377833.036   189428920.690        1304.595          46.000  
G32  23131806.789   121558441.823        3062.616          34.000  
G23  20309855.612   106729009.094        2158.969          43.000  
G31  25331145.837   133116068.061        5141.082          34.000  
C 2  37094411.936   193160336.458        1330.550          41.000  
C 4  38769213.231   201881466.604        1326.019          41.000  
C 5  39059471.707   203392918.2413       1327.200          33.000  
C 7  39468764.557   205524211.941        2795.773          39.000  
> 2020  9 30  8 30 38.0000000  0 26                     
G10  21723477.124   114157621.210        3776.453          37.000  
G12  23143729.912   121621120.913        3656.836          43.000  
G15  23557868.426   123797437.231        -985.639          42.000  
G18  21635542.685   113695542.700       -1410.337          46.000  
G20  19908534.300   104620055.858        1883.198          43.000  
C22  23080341.612   120185393.527         509.812          50.000  
G24  21043198.517   110582761.068        -969.329          45.000  
G21  25210132.992   132480142.2123       3635.046          26.000  
G25  23789763.113   125016046.610        4475.244          40.000  
C 6  36738115.205   191305008.545        1058.170          41.000  
C11  26014971.725   135466769.079         678.248          27.000  
C26  23781228.508   123835098.731        4412.982          47.000  
C 8  37483288.206   195185320.092        -214.250          43.000  
C 1  37570821.848   195641128.908        1345.652          44.000  
C 9  36682159.249   191013632.017        1095.704          41.000  
C13  36112416.847   188046833.474         212.474          46.000  
C16  36659623.515   190896279.653        1041.020          41.000  
C21  22677770.987   118089100.860        2587.186          43.000  
C 3  36377582.503   189427616.249        1302.655          46.000  
G32  23131224.946   121555379.332        3060.599          30.000  
G23  20309444.903   106726850.915        2156.311          44.000  
G31  25330167.630   133110926.604        5139.771          35.000  
C 2  37094156.412   193159006.054        1328.882          43.000  
C 4  38768958.510   201880141.347        1323.315          39.000  
C 5  39059216.777   203391590.4642       1326.501          36.000  
C 7  39468227.684   205521416.607        2793.708          36.000  
> 2020  9 30  8 30 39.0000000  0 25                     
G10  21722753.656   114153845.554        3775.252          44.000  
G12  23143034.120   121617464.217        3656.787          47.000  
G15  23558056.243   123798423.162        -985.528          43.000  
G18  21635811.296   113696953.472       -1411.047          45.000  
G20  19908176.221   104618172.869        1882.613          45.000  
C22  23080243.647   120184883.660         509.940          50.000  
G24  21043383.192   110583730.514        -969.329          46.000  
G21  25209442.522                3       3637.159          24.000  
G25  23788911.543   125011571.267        4475.500          42.000  
C 6  36737912.590   191303950.580        1057.879          44.000  
C11  26014847.410   135466137.2393        677.882          32.000  
C26  23780381.335   123830686.091        4412.396          45.000  
C 8  37483329.406   195185534.506        -214.749          42.000  
C 1  37570563.515   195639782.969        1346.113          45.000  
C 9  36681949.009   191012536.719        1094.978          39.000  
C13  36112376.031   188046621.194         211.801          45.000  
C16  36659423.657   190895238.931        1040.628          45.000  
C21  22677274.249   118086514.431        2586.268          47.000  
C 3  36377332.250   189426313.519        1302.577          45.000  
C 2  37093901.395   193157677.560        1328.215          40.000  
G23  20309034.352   106724694.774        2155.757          47.000  
G31  25329189.825   133105787.438        5137.968          36.000  
C 4  38768704.260   201878817.658        1323.981          42.000  
C 5  39058962.283   203390265.9193       1326.297          32.000  
C 7  39467691.247   205518623.106        2793.588          41.000  
> 2020  9 30  8 30 40.0000000  0 27                     
G10  21722035.998   114150069.948        3775.482          46.000  
G12  23142338.414   121613807.032        3657.368          43.000  
G15  23558243.833   123799407.743        -984.691          42.000  
G18  21636079.855   113698365.070       -1411.653          45.000  
