% ref pos   : -2191136.5960  5198839.0050  2965370.9860
%  UTC                       x-ecef(m)      y-ecef(m)      z-ecef(m)   Q  ns   sdx(m)   sdy(m)   sdz(m)  sdxy(m)  sdyz(m)  sdzx(m) age(s)  ratio
2020/09/30 08:29:44.001  -2191132.3319   5198833.4738   2965380.3551   2   9   3.4836   5.9364   3.8329  -3.0700   3.2846  -2.5247   0.00    0.0
2020/09/30 08:29:45.001  -2191132.3655   5198833.5338   2965380.3791   2   9   3.1770   5.3602   3.3971  -2.8156   2.9483  -2.2298   0.00    0.0
2020/09/30 08:29:46.001  -2191132.4345   5198833.6132   2965380.4017   2   9   2.9409   4.9229   3.0819  -2.6139   2.6958  -2.0174   0.00    0.0
2020/09/30 08:29:47.001  -2191132.4867   5198833.6298   2965380.3870   2   9   2.7506   4.5746   2.8395  -2.4477   2.4963  -1.8545   0.00    0.0
2020/09/30 08:29:48.001  -2191132.5432   5198833.5678   2965380.3497   2  11   2.5860   4.2159   2.6423  -2.3369   2.3119  -1.7301   0.00    0.0
2020/09/30 08:29:49.001  -2191132.5994   5198833.4771   2965380.3149   2  11   2.4472   3.9303   2.4798  -2.2326   2.1611  -1.6256   0.00    0.0
2020/09/30 08:29:50.001  -2191132.6553   5198833.5377   2965380.2575   2  11   2.3297   3.7192   2.3436  -2.1255   2.0414  -1.5337   0.00    0.0
2020/09/30 08:29:51.001  -2191132.7099   5198833.8033   2965379.9292   2  12   2.0783   3.4783   2.2074  -1.9259   1.8908  -1.3752   0.00    0.0
2020/09/30 08:29:52.001  -2191132.6021   5198833.8542   2965379.6279   2  19   1.8786   3.2425   1.8702  -1.8353   1.7870  -1.2217   0.00    0.0
2020/09/30 08:29:53.001  -2191132.4974   5198833.6559   2965379.5867   2  20   1.7156   2.9967   1.7463  -1.6518   1.6815  -1.1332   0.00    0.0
2020/09/30 08:29:54.001  -2191132.5452   5198833.5368   2965379.5487   2  20   1.5995   2.8402   1.6285  -1.5484   1.5842  -1.0383   0.00    0.0
2020/09/30 08:29:55.001  -2191132.6039   5198833.4687   2965379.5380   2  20   1.4888   2.5929   1.4948  -1.4448   1.4530  -0.9667   0.00    0.0
2020/09/30 08:29:56.001  -2191132.6760   5198833.4605   2965379.5629   2  20   1.4403   2.5124   1.4341  -1.4069   1.4122  -0.9370   0.00    0.0
2020/09/30 08:29:57.001  -2191132.7800   5198833.5247   2965379.6073   2  20   1.3962   2.4385   1.3803  -1.3712   1.3740  -0.9098   0.00    0.0
2020/09/30 08:29:58.001  -2191132.8856   5198833.6070   2965379.6660   2  21   1.3543   2.3690   1.3263  -1.3357   1.3407  -0.8880   0.00    0.0
2020/09/30 08:29:59.001  -2191132.9754   5198833.6816   2965379.7216   2  21   1.3167   2.3051   1.2805  -1.3033   1.3069  -0.8646   0.00    0.0
2020/09/30 08:30:00.001  -2191133.0648   5198833.7544   2965379.7659   2  21   1.2817   2.2449   1.2388  -1.2721   1.2747  -0.8425   0.00    0.0
2020/09/30 08:30:01.000  -2191132.9843   5198833.5952   2965379.7548   2  21   1.2215   2.1571   1.1865  -1.2047   1.2277  -0.8116   0.00    0.0
2020/09/30 08:30:02.000  -2191132.8931   5198833.4362   2965379.7281   2  20   1.1944   2.1084   1.1529  -1.1754   1.1992  -0.7924   0.00    0.0
2020/09/30 08:30:03.000  -2191132.9644   5198833.5083   2965379.7510   2  21   1.1669   2.0587   1.1214  -1.1500   1.1719  -0.7739   0.00    0.0
2020/09/30 08:30:04.000  -2191133.0409   5198833.5844   2965379.7866   2  22   1.1108   1.9745   1.0842  -1.0801   1.1237  -0.7334   0.00    0.0
2020/09/30 08:30:05.000  -2191133.1038   5198833.6397   2965379.8204   2  22   1.0851   1.9281   1.0561  -1.0548   1.0974  -0.7154   0.00    0.0
2020/09/30 08:30:06.000  -2191133.1569   5198833.6834   2965379.8488   2  22   1.0607   1.8833   1.0296  -1.0300   1.0720  -0.6980   0.00    0.0
2020/09/30 08:30:07.000  -2191133.2208   5198833.7490   2965379.8737   2  22   1.0373   1.8402   1.0045  -1.0058   1.0473  -0.6812   0.00    0.0
2020/09/30 08:30:08.000  -2191133.2935   5198833.8351   2965379.8908   2  22   1.0149   1.7984   0.9806  -0.9820   1.0233  -0.6649   0.00    0.0
2020/09/30 08:30:09.000  -2191133.3596   5198833.9171   2965379.9049   2  22   0.9934   1.7580   0.9578  -0.9587   0.9999  -0.6490   0.00    0.0
2020/09/30 08:30:10.000  -2191133.4302   5198834.0043   2965379.9286   2  22   0.9727   1.7187   0.9360  -0.9357   0.9770  -0.6336   0.00    0.0
2020/09/30 08:30:11.000  -2191133.5006   5198834.0933   2965379.9576   2  22   0.9527   1.6805   0.9151  -0.9131   0.9547  -0.6185   0.00    0.0
2020/09/30 08:30:12.000  -2191133.5640   5198834.1734   2965379.9984   2  22   0.9334   1.6433   0.8950  -0.8909   0.9328  -0.6038   0.00    0.0
2020/09/30 08:30:13.000  -2191133.6252   5198834.2587   2965380.0441   2  22   0.9102   1.6072   0.8756  -0.8690   0.9114  -0.5883   0.00    0.0
2020/09/30 08:30:14.000  -2191133.6824   5198834.3321   2965380.0830   2  22   0.8924   1.5719   0.8570  -0.8475   0.8905  -0.5743   0.00    0.0
2020/09/30 08:30:15.000  -2191133.7376   5198834.4006   2965380.1285   2  20   0.8768   1.5397   0.8398  -0.8273   0.8708  -0.5599   0.00    0.0
2020/09/30 08:30:16.000  -2191133.7840   5198834.4546   2965380.1641   2  23   0.8597   1.5018   0.8170  -0.8066   0.8446  -0.5470   0.00    0.0
2020/09/30 08:30:17.000  -2191133.8217   5198834.4888   2965380.1872   2  23   0.8433   1.4682   0.7992  -0.7859   0.8237  -0.5337   0.00    0.0
2020/09/30 08:30:18.000  -2191133.8581   5198834.5563   2965380.2396   2  23   0.8275   1.4355   0.7821  -0.7656   0.8035  -0.5207   0.00    0.0
2020/09/30 08:30:19.000  -2191133.9272   5198834.6633   2965380.2840   2  23   0.8089   1.4033   0.7650  -0.7436   0.7831  -0.5056   0.00    0.0
2020/09/30 08:30:20.000  -2191134.0583   5198834.8150   2965380.3161   2  23   0.7885   1.3669   0.7490  -0.7162   0.7624  -0.4914   0.00    0.0
2020/09/30 08:30:21.000  -2191134.2806   5198835.0742   2965380.4121   2  21   0.7688   1.3320   0.7330  -0.6895   0.7415  -0.4760   0.00    0.0
2020/09/30 08:30:22.000  -2191134.4331   5198835.0706   2965380.4853   2  24   0.7465   1.2975   0.7156  -0.6611   0.7197  -0.4579   0.00    0.0
2020/09/30 08:30:23.000  -2191134.4925   5198834.8841   2965380.4892   2  24   0.7336   1.2702   0.7016  -0.6439   0.7027  -0.4469   0.00    0.0
2020/09/30 08:30:24.000  -2191134.6547   5198834.8636   2965380.4412   2  24   0.7198   1.2435   0.6877  -0.6263   0.6859  -0.4353   0.00    0.0
2020/09/30 08:30:25.000  -2191134.8896   5198834.7989   2965380.4059   2  23   0.7083   1.2183   0.6747  -0.6107   0.6703  -0.4254   0.00    0.0
2020/09/30 08:30:26.000  -2191135.1321   5198834.6898   2965380.4077   2  23   0.6971   1.1936   0.6622  -0.5953   0.6551  -0.4158   0.00    0.0
2020/09/30 08:30:27.000  -2191135.3539   5198834.5684   2965380.3860   2  23   0.6861   1.1696   0.6500  -0.5802   0.6402  -0.4064   0.00    0.0
2020/09/30 08:30:28.000  -2191135.5212   5198834.4873   2965380.3672   2  23   0.6755   1.1461   0.6382  -0.5652   0.6257  -0.3973   0.00    0.0
2020/09/30 08:30:29.000  -2191135.6008   5198834.5007   2965380.3563   2  23   0.6650   1.1232   0.6267  -0.5505   0.6116  -0.3883   0.00    0.0
2020/09/30 08:30:30.000  -2191135.6872   5198834.6206   2965380.3586   2  24   0.6518   1.0976   0.6152  -0.5310   0.5963  -0.3778   0.00    0.0
2020/09/30 08:30:31.000  -2191135.8450   5198834.9044   2965380.4664   2  24   0.6387   1.0737   0.6042  -0.5128   0.5822  -0.3679   0.00    0.0
2020/09/30 08:30:32.000  -2191136.0165   5198835.0604   2965380.5497   2  24   0.6289   1.0524   0.5936  -0.4986   0.5690  -0.3594   0.00    0.0
2020/09/30 08:30:33.000  -2191136.1935   5198835.0079   2965380.5256   2  24   0.6194   1.0318   0.5834  -0.4847   0.5562  -0.3513   0.00    0.0
2020/09/30 08:30:34.000  -2191136.3708   5198834.9488   2965380.5236   2  24   0.6102   1.0116   0.5734  -0.4711   0.5438  -0.3433   0.00    0.0
2020/09/30 08:30:35.000  -2191136.5594   5198834.8864   2965380.5166   2  24   0.6013   0.9920   0.5637  -0.4578   0.5316  -0.3355   0.00    0.0
2020/09/30 08:30:36.000  -2191136.7907   5198834.8198   2965380.5264   2  24   0.5926   0.9729   0.5543  -0.4447   0.5198  -0.3280   0.00    0.0
2020/09/30 08:30:37.000  -2191136.9866   5198834.7617   2965380.5573   2  24   0.5836   0.9544   0.5450  -0.4318   0.5083  -0.3203   0.00    0.0
2020/09/30 08:30:38.000  -2191137.2271   5198834.4457   2965380.5561   1  24   0.0186   0.0323   0.0159  -0.0189   0.0180  -0.0121   0.00    3.0
2020/09/30 08:30:39.000  -2191137.4969   5198834.1089   2965380.5387   1  24   0.0192   0.0333   0.0160  -0.0199   0.0185  -0.0125   0.00    3.4
2020/09/30 08:30:40.000  -2191137.7030   5198833.9827   2965380.5920   1  24   0.0186   0.0326   0.0158  -0.0191   0.0180  -0.0120   0.00    3.6
2020/09/30 08:30:41.000  -2191137.9593   5198833.8273   2965380.6851   1  24   0.0184   0.0323   0.0157  -0.0188   0.0178  -0.0118   0.00    4.0
2020/09/30 08:30:42.000  -2191138.2540   5198833.6817   2965380.7395   1  23   0.0182   0.0351   0.0160  -0.0190   0.0190  -0.0119   0.00    3.5
2020/09/30 08:30:43.000  -2191138.4985   5198833.7983   2965380.7973   2  23   0.5369   0.8547   0.4964  -0.3589   0.4479  -0.2814   0.00    2.7
2020/09/30 08:30:44.000  -2191138.7317   5198833.9503   2965380.8269   2  23   0.5302   0.8404   0.4895  -0.3479   0.4394  -0.2760   0.00    2.1
2020/09/30 08:30:45.000  -2191138.9491   5198833.8331   2965380.8248   2  23   0.5236   0.8264   0.4827  -0.3371   0.4311  -0.2707   0.00    1.6
2020/09/30 08:30:46.000  -2191139.1221   5198833.7241   2965380.8943   2  23   0.5172   0.8128   0.4760  -0.3265   0.4229  -0.2655   0.00    1.1
2020/09/30 08:30:47.000  -2191139.3054   5198833.5629   2965380.9962   2  23   0.5110   0.7994   0.4695  -0.3161   0.4149  -0.2605   0.00    1.5
2020/09/30 08:30:48.000  -2191139.4512   5198833.3032   2965381.1441   2  22   0.5051   0.7867   0.4635  -0.3055   0.4077  -0.2555   0.00    1.2
2020/09/30 08:30:49.000  -2191139.5729   5198833.0705   2965381.3782   2  21   0.4997   0.7747   0.4580  -0.2947   0.4011  -0.2504   0.00    1.4
2020/09/30 08:30:50.000  -2191139.7134   5198832.8705   2965381.6172   2  23   0.4913   0.7624   0.4521  -0.2862   0.3940  -0.2469   0.00    1.7
2020/09/30 08:30:51.000  -2191139.9178   5198832.7552   2965381.8512   2  20   0.4868   0.7515   0.4475  -0.2745   0.3880  -0.2414   0.00    1.6
2020/09/30 08:30:52.000  -2191140.1459   5198832.5858   2965382.0418   2  17   0.4833   0.7494   0.4438  -0.2665   0.3851  -0.2371   0.00    2.3
2020/09/30 08:30:53.000  -2191140.1496   5198832.0991   2965381.9620   2  13   0.4820   0.7486   0.4423  -0.2651   0.3856  -0.2361   0.00    0.0
2020/09/30 08:30:54.000  -2191140.0247   5198831.5680   2965381.7541   2  14   0.4779   0.7478   0.4415  -0.2694   0.3874  -0.2378   0.00    0.0
2020/09/30 08:30:55.000  -2191139.9383   5198831.1716   2965381.6471   2  13   0.4750   0.7431   0.4396  -0.2669   0.3855  -0.2364   0.00    0.0
2020/09/30 08:30:56.000  -2191140.0613   5198831.2719   2965381.6657   2  12   0.4764   0.7431   0.4385  -0.2748   0.3873  -0.2405   0.00    0.0
2020/09/30 08:30:57.000  -2191140.4899   5198831.6356   2965381.7826   2  15   0.4748   0.7371   0.4363  -0.2768   0.3850  -0.2418   0.00    0.0
2020/09/30 08:30:58.000  -2191140.7695   5198831.7024   2965381.8909   2  12   0.4714   0.7317   0.4343  -0.2738   0.3814  -0.2394   0.00    0.0
2020/09/30 08:30:59.000  -2191140.8621   5198831.7992   2965382.0074   2  11   0.4682   0.7282   0.4329  -0.2744   0.3794  -0.2395   0.00    0.0
2020/09/30 08:31:00.000  -2191140.6309   5198831.4308   2965382.0572   5   3   3.0427   4.3638   0.5911  -3.6058   1.3600  -1.1137   0.00    0.0
2020/09/30 08:31:01.000  -2191139.6061   5198830.4978   2965382.2379   5  17   8.9287  12.7253   1.3666 -10.6245   3.8191  -3.1750   0.00    0.0
2020/09/30 08:31:02.000  -2191137.2352   5198829.5464   2965382.9714   5  16  22.9948  31.0400  10.6110 -24.5215   8.7239  -7.2492   0.00    0.0
2020/09/30 08:31:03.000  -2191133.0573   5198828.5762   2965384.4287   5  16  49.7370  62.8804  32.4240 -45.2982  16.0745 -13.3357   0.00    0.0
2020/09/30 08:31:04.000  -2191134.7236   5198833.7961   2965385.5030   5  16  30.0000  30.0000  30.0000   0.0000   0.0000   0.0000   0.00    0.0
2020/09/30 08:31:05.000  -2191139.1957   5198840.1731   2965385.7258   5  14  31.6228  31.6228  31.6228   0.0000   0.0000   0.0000   0.00    0.0
2020/09/30 08:31:06.000  -2191141.4026   5198844.6890   2965387.6325   5  13  30.0000  30.0000  30.0000   0.0000   0.0000   0.0000   0.00    0.0
2020/09/30 08:31:07.000  -2191143.0216   5198848.3918   2965389.7519   5  10  31.6228  31.6228  31.6228   0.0000   0.0000   0.0000   0.00    0.0
2020/09/30 08:31:08.000  -2191144.3567   5198851.5843   2965390.5353   5  10  30.0000  30.0000  30.0000   0.0000   0.0000   0.0000   0.00    0.0
2020/09/30 08:31:09.000  -2191145.4127   5198853.9105   2965391.1087   5  11  31.6228  31.6228  31.6228   0.0000   0.0000   0.0000   0.00    0.0
2020/09/30 08:31:10.000  -2191144.7545   5198853.4580   2965392.2908   5  11  30.0000  30.0000  30.0000   0.0000   0.0000   0.0000   0.00    0.0
2020/09/30 08:31:11.000  -2191144.9471   5198854.5061   2965393.8138   5  11  31.6228  31.6228  31.6228   0.0000   0.0000   0.0000   0.00    0.0
2020/09/30 08:31:12.000  -2191143.5368   5198849.7414   2965392.3717   5  11  30.0000  30.0000  30.0000   0.0000   0.0000   0.0000   0.00    0.0
2020/09/30 08:31:13.000  -2191141.4843   5198843.8028   2965391.2666   5  10  31.6228  31.6228  31.6228   0.0000   0.0000   0.0000   0.00    0.0
2020/09/30 08:31:14.000  -2191138.4254   5198841.9767   2965393.2087   5  11  30.0000  30.0000  30.0000   0.0000   0.0000   0.0000   0.00    0.0
2020/09/30 08:31:15.000  -2191135.6151   5198839.8458   2965394.0948   5  10  31.6228  31.6228  31.6228   0.0000   0.0000   0.0000   0.00    0.0
2020/09/30 08:31:16.000  -2191138.8880   5198841.0680   2965393.9497   5  11  30.0000  30.0000  30.0000   0.0000   0.0000   0.0000   0.00    0.0
